%time,field.x,field.y,field.z
15564000000,-2.00002076907782,-0.49999107515856894,-0.001001392942761796
15597000000,-2.0000207722943135,-0.49999105622675716,-0.0010013929427903807
15630000000,-2.0000207756082906,-0.4999910367212103,-0.0010013929428198329
15664000000,-2.0000207788248114,-0.49999101778931326,-0.0010013929428484142
15697000000,-2.0000207820413456,-0.4999909988573744,-0.0010013929428769955
15732000000,-2.0000207853553644,-0.4999909793516965,-0.0010013929429064546
15764000000,-2.0000207885719252,-0.4999909604196726,-0.0010013929429350463
15797000000,-2.0000207917885002,-0.49999094148760675,-0.0010013929429636276
15831000000,-2.000020795102561,-0.4999909219817978,-0.0010013929429930832
15862000000,-2.000020798319164,-0.4999909030496467,-0.0010013929430216645
15899000000,-2.0000208015357805,-0.49999088411745357,-0.0010013929430502527
15933000000,-2.000020804849884,-0.4999908646115139,-0.001001392943079698
15964000000,-2.000020808066528,-0.49999084567923574,-0.0010013929431082862
15997000000,-2.000020811283185,-0.4999908267469156,-0.0010013929431368675
16031000000,-2.000020814597331,-0.49999080724084494,-0.00100139294316633
16062000000,-2.0000208178140153,-0.4999907883084397,-0.0010013929431949183
16097000000,-2.0000208210307124,-0.4999907693759925,-0.00100139294322351
16131000000,-2.0000208243449,-0.4999907498697909,-0.001001392943252962
16164000000,-2.000020827561625,-0.4999907309372585,-0.0010013929432815642
16197000000,-2.0000208307783636,-0.4999907120046843,-0.001001392943310142
16231000000,-2.0005899778023717,-0.4999906220775983,-0.0010018929659565724
16264000000,-2.0021982972828325,-0.4999908362823511,-0.0010019590742068457
16296000000,-2.0048491238313657,-0.4999912223873225,-0.0010020554514850177
16331000000,-2.0085206666327813,-0.4999949553885407,-0.001001922520103251
16364000000,-2.0126824994564947,-0.5000245454489542,-0.0010013301001440926
16398000000,-2.0165227034075426,-0.500088499960031,-0.0010005912157063923
16431000000,-2.019537660719921,-0.5001671799436768,-0.001000567694326434
16467000000,-2.0215672148866495,-0.5002371267628074,-0.0010005510667335238
16500000000,-2.022713105196927,-0.5002845984499152,-0.0010005537258552938
16531000000,-2.0229624116795515,-0.5002961082775897,-0.0010006589834944055
16568000000,-2.0224184021510467,-0.500266590026658,-0.0010007354215790312
16596000000,-2.021101204479638,-0.5001915761265286,-0.001000809953457353
16633000000,-2.018905151486771,-0.5000611421522723,-0.0010009080158311229
16663000000,-2.0159570930579225,-0.49987931350028386,-0.0010013393903796734
16697000000,-2.012545192108324,-0.4996517072096827,-0.0010013346717808458
16731000000,-2.008726425188273,-0.4993551604578064,-0.0010014134708561176
16759000000,-2.0050080254063016,-0.49901745124546093,-0.0010014423597087471
16797000000,-2.0012936346234156,-0.49863169423452375,-0.0010014867296542149
16829000000,-1.997937685512825,-0.49823807342910537,-0.0010013414585090703
16864000000,-1.9948222355889245,-0.49782399109947306,-0.0010015732076729018
16897000000,-1.9915371685768044,-0.497341000020414,-0.0010016940688577745
16931000000,-1.9882415644184357,-0.49680023895901554,-0.0010017586148105447
16962000000,-1.9850959247576494,-0.49621899345877046,-0.0010010958507992058
16999000000,-1.9817409948422167,-0.49553437378690857,-0.0010011635973003856
17031000000,-1.977793934717437,-0.4946781466453993,-0.001001241954747746
17066000000,-1.9734687623500329,-0.4937038872356767,-0.001001211764007963
17101000000,-1.9687884287404882,-0.4926151532914384,-0.0010013603760147156
17131000000,-1.9641386645165366,-0.49148384722939303,-0.0010010914220628941
17164000000,-1.960153046452928,-0.49046504436797467,-0.0010010380035145733
17197000000,-1.956524229043024,-0.48948825763862897,-0.001000974097572254
17231000000,-1.952904371706551,-0.48844682646181353,-0.0010009533594745428
17264000000,-1.949502393134812,-0.48738677142308806,-0.001001635171853442
17297000000,-1.9461270914616295,-0.48625104366422045,-0.0010016925044180093
17331000000,-1.9424448757472914,-0.48491418046948676,-0.0010019446364080316
17364000000,-1.9385415483473396,-0.48337448304976105,-0.0010020644908800731
17397000000,-1.9344306499944053,-0.4816033125831432,-0.0010009918986333653
17431000000,-1.9300616379572428,-0.47954288639875847,-0.0010010644151103344
17464000000,-1.9257825590509823,-0.4773620175413754,-0.0010003453705396924
17497000000,-1.9214462995310209,-0.47492456269293176,-0.001000368222338073
17531000000,-1.916778108822097,-0.47208633532865985,-0.0010007355281295635
17567000000,-1.9119899339762607,-0.46895253477553295,-0.0010004593563317753
17597000000,-1.9068783201007087,-0.46535913875216045,-0.0010013320722503868
17635000000,-1.9014126738129915,-0.46121816136464067,-0.001000773603730562
17664000000,-1.8960025133906584,-0.4568288139748544,-0.001001254414540815
17694000000,-1.8907231647301705,-0.4522642693988917,-0.0010012778357159427
17731000000,-1.8854333810953214,-0.44738909192237947,-0.001001350158007966
17765000000,-1.880450742062172,-0.4424966717144944,-0.0010014440405351176
17797000000,-1.8756236290074073,-0.43745215993150394,-0.0010016669188093533
17830000000,-1.8709393043296338,-0.43223141602617715,-0.0010017288120250933
17864000000,-1.8666856406512686,-0.42717358670718497,-0.0010010981247633687
17898000000,-1.8624516946379959,-0.42183189617666733,-0.001001355743873257
17931000000,-1.858089740014767,-0.41603157897845633,-0.0010014506609003493
17964000000,-1.853995814817697,-0.41029879406330366,-0.0010015320188265127
17999000000,-1.8500422193025317,-0.4044679148912544,-0.001001612723487453
18031000000,-1.8462814093580548,-0.39862765553778473,-0.0010018611937634495
18064000000,-1.8428214649219368,-0.3929820645526694,-0.0010018399030732386
18098000000,-1.8394623294326917,-0.38721583244913693,-0.001000905847916466
18131000000,-1.8361401761855336,-0.381189770657345,-0.0010009566339211767
18163000000,-1.8330099081944018,-0.375187019223967,-0.0010011260250451307
18197000000,-1.8299470145228656,-0.36900062837158487,-0.0010006270315257512
18235000000,-1.8268383656529572,-0.36243855023963356,-0.0010010715204746626
18264000000,-1.8239024418095011,-0.355968398927066,-0.001001436264084686
18298000000,-1.8210668220203585,-0.3494415252027213,-0.0010013682351840102
18331000000,-1.8182507397561936,-0.3426697372868346,-0.0010013299889407475
18364000000,-1.8156208973716919,-0.3360536814772107,-0.0010013220352627361
18398000000,-1.8130935980745622,-0.32939640129697834,-0.0010013384978899524
18432000000,-1.810589366069581,-0.32248631403470557,-0.0010013937857268514
18463000000,-1.8082547426298479,-0.315743200805293,-0.0010014729657191537
18494000000,-1.8059980194881755,-0.3089436578346685,-0.0010016102149452977
18531000000,-1.8037471190239898,-0.3019079800603414,-0.0010017732122526192
18564000000,-1.8016364287044513,-0.2950568375812991,-0.001001946694719192
18599000000,-1.7996014230832218,-0.2881935468677034,-0.0010020608246643706
18638000000,-1.7976055353925895,-0.281186156059634,-0.0010016053168962757
18670000000,-1.7957447180283388,-0.2743425659577806,-0.0010016301400350876
18698000000,-1.7939637464134,-0.26744607406322535,-0.0010016202306891014
18734000000,-1.792269869413666,-0.2605525037687262,-0.0010020792269218558
18772000000,-1.7907474271773625,-0.2540211892507439,-0.0010015173486765047
18809000000,-1.7892990129227935,-0.2474700744029405,-0.001001473668675923
18838000000,-1.7879266178543636,-0.24083973139570913,-0.0010019661685456982
18864000000,-1.7867263576828836,-0.23441490422950237,-0.0010009118088418131
18898000000,-1.7855438577647917,-0.22750569558330494,-0.00100150710760092
18931000000,-1.784378390885512,-0.220213170873698,-0.0010014925238234565
18964000000,-1.7833221948327558,-0.21312291834409008,-0.0010015770881286537
18997000000,-1.7823399997764642,-0.2060225944490797,-0.0010017347095765058
19031000000,-1.7813976441008201,-0.1986796600057543,-0.0010013954376322347
19063000000,-1.78054593265236,-0.19156538819490285,-0.0010013211484392534
19097000000,-1.7797555805891936,-0.18443440092533714,-0.001001589246401799
19133000000,-1.7790114714475351,-0.1770778975603962,-0.001001631836073054
19164000000,-1.7783577550688805,-0.16993126590889723,-0.001001681586236567
19197000000,-1.7777720429860828,-0.16277925947485572,-0.0010017471834128516
19231000000,-1.7772423097743948,-0.1555220888982112,-0.0010019538110328553
19264000000,-1.7767884561209544,-0.14860639363166317,-0.0010020745031538367
19300000000,-1.7763849293613037,-0.14158056158248022,-0.0010008407469044925
19336000000,-1.7760210030058,-0.13418331076808754,-0.0010016257215100244
19370000000,-1.775722476836671,-0.12699784128906286,-0.0010015921440559745
19410000000,-1.7754780712975045,-0.11980976716097758,-0.0010016111143695168
19439000000,-1.7752975468022936,-0.11278151349646139,-0.0010015732143655968
19464000000,-1.7752016315272043,-0.10612852564267207,-0.0010014089377815595
19498000000,-1.7751433972753516,-0.09920323854797479,-0.0010010460078225016
19531000000,-1.7750999327214416,-0.09193610644091214,-0.0010010595182864054
19563000000,-1.775084324522869,-0.08474576157242031,-0.001001411287821552
19602000000,-1.7751033646612566,-0.07752646188746877,-0.0010014774729246237
19649000000,-1.7751575424765544,-0.07008709068433845,-0.0010015416113066632
19698000000,-1.7752436741848932,-0.06286585418217268,-0.00100162430051505
19698000000,-1.7753628802168222,-0.05564516223270943,-0.0010016941679440623
19742000000,-1.775511816535677,-0.04823588948346971,-0.001002007944467937
19763000000,-1.7756691288985909,-0.041045734572438895,-0.0010011694085991334
19797000000,-1.7758392008118418,-0.03385842332090714,-0.0010009311038217256
19832000000,-1.7760252753147934,-0.026392316694144477,-0.0010016422151028631
19864000000,-1.7762114205699793,-0.019142128642556912,-0.0010015996878408248
19897000000,-1.7764035276401795,-0.01189002891587768,-0.0010015893719520046
19931000000,-1.7766066489980574,-0.004414178790517134,-0.0010015999830871036
19964000000,-1.7768073132686748,0.0028362990843914197,-0.0010015378987292788
19997000000,-1.7770122144854235,0.010085057989732315,-0.0010014971089070679
20031000000,-1.7772289028148887,0.017554300101622507,-0.001001480612070723
20069000000,-1.7774445931792864,0.02480497227196064,-0.0010015074847068532
20103000000,-1.7776655419951,0.03205679222729331,-0.001001578820933248
20131000000,-1.7778890069908864,0.03920149542638706,-0.0010016831547550523
20168000000,-1.77811706604206,0.04600262496259084,-0.0010017522186704098
20198000000,-1.7783626993245274,0.052802038282824926,-0.0010018756522776513
20231000000,-1.778648787744541,0.059910426880111056,-0.0010009215902328228
20269000000,-1.778974028076238,0.06677152272313763,-0.0010009791504437364
20306000000,-1.7793457461414688,0.07369081599272523,-0.0010009527340865132
20331000000,-1.7797712623425568,0.0809262709818986,-0.0010010213206512082
20364000000,-1.7802154050404266,0.08813544489427462,-0.0010016047324597176
20397000000,-1.7806707114968885,0.09538427085888548,-0.0010016655843604096
20431000000,-1.7811453325370858,0.10283952659914819,-0.0010015823974948608
20469000000,-1.7816114919112986,0.11007532526142369,-0.0010014859623334316
20497000000,-1.7820830676806783,0.11731169644820805,-0.0010014485954214399
20528000000,-1.7825722683075669,0.12477553879032335,-0.0010014533463477242
20565000000,-1.7830466453117195,0.132021485813646,-0.0010014973025246551
20596000000,-1.7835205585702671,0.1392687513798812,-0.0010015692656226809
20631000000,-1.784007415337123,0.14673944603489938,-0.0010016900712123203
20671000000,-1.7844771541797102,0.15399033384770813,-0.0010018031665388547
20704000000,-1.7849441041728593,0.1612396009500198,-0.0010019629504914238
20746000000,-1.785421312066712,0.1686860806884458,-0.0010018032896897296
20775000000,-1.7858818465799668,0.17588988023385918,-0.001001050325164135
20800000000,-1.7863423649131196,0.18313780987285874,-0.0010016474722130304
20831000000,-1.7868011257739058,0.19038459268375418,-0.001002153439946335
20863000000,-1.7872489705547276,0.1969541588180958,-0.0010026423863653752
20897000000,-1.7877437963013474,0.2034154627294164,-0.001001332320658542
20931000000,-1.788295002765478,0.21034235703795628,-0.0010014436026005852
20962000000,-1.7888321389052628,0.21712540939716865,-0.001001465190071462
20997000000,-1.7893598062602163,0.2236610930175905,-0.0010017251251679994
21031000000,-1.7899531475932993,0.23036423629864589,-0.0010012387767183786
21065000000,-1.7906024279318564,0.23739878409730303,-0.0010013733508616347
21105000000,-1.7912636200101746,0.2446476678943385,-0.0010015410076350366
21139000000,-1.7918943511464018,0.2517106487554362,-0.0010011948355863262
21163000000,-1.7924875580089383,0.2584400823710714,-0.0010016935867439535
21197000000,-1.7931008670593382,0.2655123884454768,-0.0010019181174761443
21231000000,-1.793748759232662,0.2729635802127808,-0.0010021128441063364
21264000000,-1.794378709637463,0.28016775200538185,-0.0010014762218412548
21302000000,-1.7950139882030396,0.28736089810297527,-0.0010013125657601443
21336000000,-1.7956731276066409,0.29482857205971535,-0.0010015823860925442
21373000000,-1.7962937954705331,0.30208699830370744,-0.0010016503497014516
21397000000,-1.7968919571058735,0.3093468900534,-0.0010015682398107628
21431000000,-1.7974842217298255,0.3168310063860959,-0.001001506917026669
21465000000,-1.7980347958038987,0.324097720671268,-0.0010014581427903284
21505000000,-1.7985614410225554,0.3313673869547351,-0.001001442309943569
21533000000,-1.7990431638529494,0.3383226881771182,-0.0010014899643732075
21564000000,-1.799466553407549,0.34443216952833455,-0.0010013343677352862
21597000000,-1.7999339187894556,0.35063595469863146,-0.0010015472853279507
21631000000,-1.800468776026761,0.35747433231272047,-0.0010017497903033225
21664000000,-1.8010029363961033,0.3644425547303142,-0.0010019267244250687
21699000000,-1.801519944599565,0.3716099589019991,-0.0010020469073859922
21730000000,-1.802010887764825,0.3790406067700965,-0.0010014105132616115
21764000000,-1.8024407625728254,0.38624441225052336,-0.0010010190138551624
21799000000,-1.802829212062601,0.3935422426336752,-0.0010017168696255137
21839000000,-1.8031783694970795,0.401075174872704,-0.001001702923600429
21868000000,-1.8034660765401707,0.4083843116037428,-0.0010015970955670958
21897000000,-1.8037032048894712,0.4156994650719222,-0.0010016005434705481
21931000000,-1.8038960432346969,0.42323562186568214,-0.001001534897246064
21965000000,-1.804034372751289,0.430552112632891,-0.0010015038101557246
21997000000,-1.8041245105396475,0.43787052378049945,-0.0010015201459457335
22031000000,-1.804175703327772,0.44538581014770756,-0.0010015556154375216
22071000000,-1.8041983518679217,0.45268059628861146,-0.0010016495243422643
22111000000,-1.8041944489202562,0.4599756690961158,-0.0010017535902342861
22147000000,-1.8041597738888224,0.4674978268073918,-0.0010018891158199844
22186000000,-1.8040935362198172,0.4747909830401005,-0.0010020698159840143
22212000000,-1.8039976461200464,0.48204599705312196,-0.0010010214272718962
22244000000,-1.803868266235456,0.4892288660889073,-0.0010020609360277856
22268000000,-1.803706049996276,0.49606258387037805,-0.0010016450739928524
22309000000,-1.8035086120289012,0.502931331878788,-0.0010016460115794788
22339000000,-1.8032874632895086,0.5097603860806457,-0.0010021489247122803
22377000000,-1.803079110968452,0.5163223068498318,-0.0010007090538303176
22415000000,-1.802828815377582,0.5232806155057909,-0.0010010400712416566
22444000000,-1.8025113445553833,0.5306225988214549,-0.0010010593222438413
22475000000,-1.8021587467456412,0.5378923831292962,-0.0010014508369841288
22506000000,-1.8017774086267178,0.5451755270132629,-0.0010015114908640786
22531000000,-1.8013566012425462,0.5526791478185127,-0.0010015797113517785
22564000000,-1.8009210570549428,0.5599613864284236,-0.001001668007734359
22600000000,-1.8004774519376276,0.5668955587091572,-0.0010010692664283276
22631000000,-1.7999962342360718,0.5738274871431285,-0.0010009756680452904
22663000000,-1.7995170761930483,0.5805341624320012,-0.001001954167187822
22697000000,-1.7990185186493348,0.5874180717921063,-0.0010008882374965174
22726000000,-1.7984971296676995,0.5947132256471132,-0.0010009441715685338
22763000000,-1.7979731782549282,0.6019607021844038,-0.0010017120060452668
22800000000,-1.7974406096826476,0.6092050377260491,-0.001001690929447064
22832000000,-1.7968873339782914,0.6166685470691048,-0.0010017869418179268
22864000000,-1.7963463225786034,0.6238902401525506,-0.001001327618561261
22899000000,-1.7958135073485655,0.6309036429907783,-0.0010018911036714685
22932000000,-1.795264351425544,0.6379526232361296,-0.001001511771170513
22959000000,-1.7947100258076416,0.6447843347228313,-0.0010014824918938084
23002000000,-1.7941338182683144,0.6516155073711112,-0.0010015183888423852
23031000000,-1.7935376289870129,0.6585563862617592,-0.0010015817944220677
23065000000,-1.7929603306679258,0.6654372879180066,-0.0010017976872145652
23100000000,-1.7923526448483682,0.6726131665892796,-0.0010018823188016751
23131000000,-1.7916903911112647,0.680061626616027,-0.0010020765462373585
23164000000,-1.790998479235257,0.6873070481023187,-0.0010012138244352917
23197000000,-1.7902468065447015,0.6945803464258099,-0.0010019138659167308
23240000000,-1.7893933611504527,0.7021023803029569,-0.0010016793146886555
23266000000,-1.7884910996812293,0.7093955496137218,-0.0010016539786415167
23296000000,-1.7875520476686084,0.7165104670320894,-0.0010022021625248727
23331000000,-1.7865961077023322,0.723695537865239,-0.0010017099108814327
23364000000,-1.7856299830387266,0.7308273806387647,-0.0010015403907409175
23397000000,-1.7846250270755493,0.7379621020662536,-0.0010011225241293338
23431000000,-1.783607936058525,0.7449364789827055,-0.0010012726233765944
23465000000,-1.7826090289399836,0.7516545173550709,-0.0010015459389162706
23507000000,-1.7815615376425178,0.7584388819760688,-0.0010016396746230088
23544000000,-1.780423727214508,0.7654207505781667,-0.001001730532765685
23571000000,-1.7792628944945537,0.7721868483439616,-0.0010017917155729777
23604000000,-1.7780327819802915,0.7790666946167552,-0.0010016173807338782
23642000000,-1.7767367348504395,0.7861526233654864,-0.0010008733955902127
23666000000,-1.7754148011259352,0.7931533948065052,-0.0010008733317303752
23697000000,-1.774069913578353,0.7999825657220578,-0.0010016525122505428
23731000000,-1.7726334860449129,0.8069380992363779,-0.0010015466148044355
23767000000,-1.7711770867786216,0.8136771774488487,-0.0010015552688625445
23797000000,-1.769659500846999,0.8204037282180724,-0.0010015887288646157
23832000000,-1.7681160391107433,0.8269819567977537,-0.001001724334609877
23866000000,-1.7665962555041603,0.8332279342366083,-0.0010017467639423829
23897000000,-1.7649578760725126,0.8396931716827521,-0.0010019311480831891
23931000000,-1.763138871727978,0.8464531194351889,-0.0010013481367391712
23963000000,-1.7612651450964993,0.8529996186731872,-0.0010014328993413688
23998000000,-1.7592659694516222,0.8596153212286541,-0.0010015158545279082
24030000000,-1.7570870361802482,0.8665111996085951,-0.001001646711938281
24064000000,-1.754867720723921,0.8733478372813037,-0.0010009503244291992
24098000000,-1.7525922668903424,0.8802323472534717,-0.0010010827624962887
24131000000,-1.7501752458657418,0.8873782899058408,-0.0010015996390299806
24167000000,-1.7477795762907582,0.8942964515957671,-0.0010015092731453547
24198000000,-1.7453344707042109,0.9011984576598212,-0.0010014722191498612
24231000000,-1.742752422939132,0.9083050861919338,-0.0010014669223544562
24262000000,-1.7401825692932906,0.9151821881100997,-0.0010015117361130386
24300000000,-1.7375819482016932,0.9219915910633487,-0.001001560835774292
24331000000,-1.7348694893960666,0.9290089657202327,-0.0010016830319001073
24364000000,-1.732206379131871,0.935808540766367,-0.00100182800020341
24400000000,-1.729514866455773,0.9425938288487993,-0.0010021013152811536
24430000000,-1.7266912539964543,0.9496025437550797,-0.001001861597247293
24464000000,-1.7239122798409368,0.9563645604395411,-0.0010019525884342809
24497000000,-1.7211054152649166,0.9630615351471963,-0.0010021325048232312
24532000000,-1.7182420031437429,0.9697535972146403,-0.001002164876606041
24564000000,-1.7154922911326993,0.9760627049681496,-0.0010017220502676338
24597000000,-1.7127047037404226,0.9823451041020187,-0.00100156484575643
24636000000,-1.7097789053458816,0.9887990246923891,-0.0010014966484747992
24671000000,-1.7068885560790374,0.9950410723089091,-0.0010014502502420537
24700000000,-1.7039484698331215,1.0012610638750719,-0.0010014386368571368
24737000000,-1.7007331026856316,1.0079271795467948,-0.0010014831920542276
24771000000,-1.697517861124334,1.0144932863321352,-0.0010015289905477634
24797000000,-1.694266164658017,1.0210428828010745,-0.0010016399588648542
24833000000,-1.691064555630283,1.027406189953793,-0.0010012937779282638
24865000000,-1.6879764027063353,1.0334696383043733,-0.0010019308468788846
24894000000,-1.6848235805233183,1.039582358298228,-0.0010020691252873581
24932000000,-1.6815052245861566,1.0459245281977234,-0.0010024462497969545
24965000000,-1.6782514396124142,1.0520722440156205,-0.001000575516226624
24997000000,-1.6749180095736593,1.058238055724053,-0.0010005618037330667
25031000000,-1.6713330015330214,1.064741840867848,-0.0010012121453741897
25064000000,-1.6677563802238384,1.0711217912424458,-0.0010015601057363523
25097000000,-1.6641379126985647,1.0774794585815304,-0.0010014822172382323
25131000000,-1.6603487461389261,1.0840194765555775,-0.0010014594360977964
25165000000,-1.65660952733111,1.0903373392587177,-0.0010014371570086743
25195000000,-1.652811959268379,1.0966217509318397,-0.0010014673506818332
25232000000,-1.649115792553724,1.102613175336106,-0.0010014857377951547
25264000000,-1.6455103762363763,1.1083480982906833,-0.0010015977104159551
25303000000,-1.64178046939948,1.1141695180839928,-0.001001749707254123
25332000000,-1.6380853539933036,1.119822373935709,-0.0010011415974132444
25362000000,-1.6345548602631228,1.1251084314523907,-0.001001997720223101
25400000000,-1.6309579869700408,1.130412888123203,-0.0010012202714464805
25433000000,-1.6271880244935324,1.1359428287914017,-0.0010012041693620369
25468000000,-1.623474247388978,1.1413962836924827,-0.001001251791292488
25513000000,-1.6196800502623345,1.1469518159287027,-0.0010005592125261822
25537000000,-1.6158658565511743,1.1524891756036126,-0.0010025290956802158
25564000000,-1.6121990612852586,1.157787223658331,-0.0010006318574683863
25598000000,-1.6082943457009258,1.1633741495390546,-0.0010014831073225754
25631000000,-1.604028563697871,1.1693929633388216,-0.0010015555766198225
25665000000,-1.599737998070429,1.1753419369024674,-0.001001447469241825
25700000000,-1.5953966761614295,1.1812556146355546,-0.0010014886875199039
25731000000,-1.5908898311836963,1.1872986927011,-0.001001552830420513
25771000000,-1.5864797217727389,1.1931372516585437,-0.0010016702991486846
25798000000,-1.5820343991750232,1.198949366378609,-0.0010017898993371702
25832000000,-1.5774162304831882,1.2049100724632813,-0.001001931723970683
25867000000,-1.5729021076860248,1.2106614904744109,-0.0010020619169307417
25898000000,-1.568360067656804,1.216383335612395,-0.0010014377781742342
25934000000,-1.563666820199242,1.2222490399429533,-0.001001799926189026
25964000000,-1.559089830981309,1.227924483313853,-0.001001859337834067
25997000000,-1.554532934501006,1.233535513117488,-0.0010013196114650007
26031000000,-1.5498284658535808,1.2392879504986372,-0.0010010951919855564
26068000000,-1.545208295504335,1.2449015834837758,-0.0010014503383076745
26097000000,-1.5405680369904058,1.2505113276586806,-0.001001447364587165
26131000000,-1.5357833649104276,1.2562730716995747,-0.0010014444896837178
26164000000,-1.5311315796157858,1.2618612979665425,-0.0010014859624612564
26199000000,-1.5264724254442485,1.2674450505233374,-0.0010015601542283648
26231000000,-1.5216787803798046,1.2731852281602816,-0.0010016441984814252
26270000000,-1.5170304047209313,1.2787591410727646,-0.0010017138273052777
26300000000,-1.5123860362859902,1.2843366629880364,-0.0010018465452720782
26332000000,-1.5076126120795483,1.2900748121143764,-0.0010020536853338827
26366000000,-1.502991833259928,1.295631487462638,-0.0010012740495234755
26397000000,-1.498367878350451,1.3012018321373193,-0.0010018705570025814
26431000000,-1.4936180848563543,1.3069501850066658,-0.001001782509899924
26464000000,-1.4890270746840837,1.312532009400321,-0.0010017850269611432
26499000000,-1.4844633411367847,1.3181002203580805,-0.0010010963579650603
26531000000,-1.4800284710839613,1.3235369673978519,-0.0010022545366657962
26564000000,-1.4759304589412587,1.328612742486627,-0.0010014699361001467
26597000000,-1.471693704128875,1.3338735427430934,-0.001001404889997927
26631000000,-1.467178768466628,1.3394951929014693,-0.0010014346404059148
26668000000,-1.462666080721077,1.3451233047222952,-0.001001471277196072
26702000000,-1.458115442704916,1.3507987703884117,-0.001001583113415614
26743000000,-1.4534059962635109,1.356643215481605,-0.0010017062158020618
26763000000,-1.4488214954674314,1.362304104843546,-0.001001828934656196
26797000000,-1.4442249137799699,1.367952032063785,-0.0010019953669982117
26831000000,-1.4394441345322617,1.3738080503382362,-0.0010021954700248255
26864000000,-1.4348644918103555,1.3794297009286844,-0.0010015666024701837
26899000000,-1.4302884266549096,1.3850568668480099,-0.0010017453874764277
26934000000,-1.425561509240654,1.390859296765733,-0.0010018867080024974
26966000000,-1.4209849382035102,1.3964651435790985,-0.001001202837974051
27000000000,-1.4166244639231644,1.401798193239777,-0.0010017987960065193
27033000000,-1.412198076908011,1.4072221465843628,-0.0010014267819181202
27066000000,-1.4078751092741684,1.4125111399183146,-0.0010014325221589827
27097000000,-1.4033765834050949,1.4180037058267967,-0.0010012282886760968
27131000000,-1.3986395949751056,1.423787046257917,-0.0010014755278390935
27167000000,-1.3940442988018433,1.4294037582880392,-0.0010015441470250623
27197000000,-1.3894509458012185,1.4350241598577376,-0.001001620733087405
27232000000,-1.384711203814965,1.4408230366651722,-0.0010017774022669998
27264000000,-1.380106199550674,1.4464474320529472,-0.0010019125734149724
27299000000,-1.3756456130116612,1.451877602025454,-0.0010016701877745456
27331000000,-1.3711020873278759,1.457350264081928,-0.001002227932930689
27366000000,-1.366726224596923,1.4626004494902765,-0.0010018275400331053
27403000000,-1.3623461493144722,1.4678445558561874,-0.0010018236659849397
27437000000,-1.3577663455460771,1.4733117102149178,-0.0010019036179254176
27465000000,-1.3533118593795488,1.4786033403142356,-0.001001125921878298
27497000000,-1.3488163065698302,1.4839171822131207,-0.0010010628830114006
27531000000,-1.3441745084958479,1.4893701807383752,-0.001001290959373645
27564000000,-1.3395489969082328,1.4947368605461526,-0.001001104816474526
27597000000,-1.3347945192248656,1.5002110291012891,-0.0010014681784061528
27635000000,-1.3298747452410498,1.5058613859866496,-0.0010015314195420885
27664000000,-1.325092288439576,1.5113408028299755,-0.0010016260186942252
27700000000,-1.3203030681068946,1.5168149098775003,-0.001001730983418013
27734000000,-1.3155458456677431,1.5222342157963882,-0.0010010389906440625
27768000000,-1.3108999886087433,1.5275180923050204,-0.001001984543003629
27802000000,-1.3061907213019182,1.5329151077001095,-0.0010010393440635541
27832000000,-1.301337313069499,1.5385327500828085,-0.001001876006442106
27864000000,-1.2966482044055792,1.5440148629299917,-0.0010017639424677316
27899000000,-1.2921230435679587,1.5493636851925985,-0.001001260030502736
27933000000,-1.2875986913068436,1.554776169959985,-0.0010018626160749125
27963000000,-1.2832815061783842,1.5599952203565017,-0.0010014893849931983
27998000000,-1.278984460852217,1.565238594755252,-0.0010014338290823752
28032000000,-1.274538513467438,1.5706938039030596,-0.0010014513280044851
28068000000,-1.2701294168317738,1.5760938561179108,-0.0010011002793327735
28106000000,-1.265906049617714,1.5812841758694052,-0.001001787546941118
28139000000,-1.2616323197243438,1.5865433457120994,-0.0010013450389312652
28164000000,-1.257381522452356,1.5918103645228432,-0.0010015796950007747
28197000000,-1.2534091480033756,1.596769876252472,-0.0010016941874524815
28230000000,-1.2494202582243958,1.6017661808719945,-0.0010017305169750038
28264000000,-1.2455035613985486,1.6067089911641048,-0.0010019031818670754
28297000000,-1.24160709013325,1.611664459927568,-0.0010019298326946306
28331000000,-1.237543541212085,1.6168760263044588,-0.0010011134524652056
28367000000,-1.2334943958438438,1.6221462260672295,-0.0010011374007524096
28397000000,-1.2293454358656597,1.6276309628273773,-0.0010012429734812499
28436000000,-1.2249533165296294,1.6334841204412673,-0.0010013280403835777
28468000000,-1.2205981428150432,1.6392708274658292,-0.0010012489362752931
28500000000,-1.216207870329502,1.6450749101020217,-0.0010014685443407063
28531000000,-1.2116973593269305,1.65102414081038,-0.001001421365050912
28565000000,-1.207319350785687,1.6568067763800602,-0.0010014164149312506
28597000000,-1.202944599284377,1.6625934754646905,-0.0010014507449032269
28632000000,-1.1986738662204952,1.6682418406125668,-0.0010017823536277413
28664000000,-1.194627709756953,1.6735573840811233,-0.0010016032529512157
28697000000,-1.190723777055873,1.6786818074782959,-0.0010017438699318933
28731000000,-1.1868140712338384,1.6837892363787603,-0.0010017069718037223
28764000000,-1.1829779751249174,1.6888064577302966,-0.001001902825980245
28796000000,-1.1791545327969042,1.6938186090825307,-0.001001988615531954
28832000000,-1.175363651751237,1.6987943047010163,-0.0010019247634179967
28868000000,-1.1719258379848358,1.7032821393368753,-0.001002247333351941
28899000000,-1.1686635671782384,1.7075207503884997,-0.00100225398087872
28931000000,-1.1653283214693124,1.7118618802613892,-0.0010018628929352215
28963000000,-1.1619545626717214,1.7162450144366355,-0.0010005930871898605
28997000000,-1.1583479532021543,1.7208711392886444,-0.0010007113255618254
29031000000,-1.1543417080215908,1.7258921998695862,-0.001001113241242961
29064000000,-1.1502655337872398,1.7308836106181662,-0.0010011060251461784
29107000000,-1.1462388619025898,1.735749285051601,-0.001001711453577258
29131000000,-1.1426541361029263,1.7400893171969136,-0.0010018573573880342
29164000000,-1.1397606486817475,1.74360908201337,-0.0010013169194510868
29197000000,-1.1367329137871995,1.74728733048997,-0.0010013517428422852
29233000000,-1.133104604301956,1.7516804067714038,-0.0010015538853175299
29267000000,-1.1291211617720864,1.7564934298314168,-0.0010016961572358388
29300000000,-1.124784040372974,1.761739249637613,-0.001001557553797116
29332000000,-1.1201326864593129,1.7673812731506087,-0.0010018915781315474
29364000000,-1.1155639526339332,1.7729706158522065,-0.0010021552837930804
29397000000,-1.1110416342113467,1.7785574463332126,-0.001001338655800342
29431000000,-1.106515201239291,1.7842047944189594,-0.0010017895514462666
29464000000,-1.1023795405926098,1.789434729541039,-0.00100247413524307
29505000000,-1.0985078295166368,1.7944316805435991,-0.0010013199876254472
29534000000,-1.0944496069694518,1.7997813327477892,-0.0010005608033408046
29566000000,-1.0903603958434118,1.8052703372419254,-0.0010010191711926006
29597000000,-1.0864418875259927,1.8106417923766998,-0.0010011671175304583
29632000000,-1.0825041642486706,1.8161490765832002,-0.0010014174432492438
29664000000,-1.0786878953677808,1.8216331806030057,-0.0010013451619675304
29702000000,-1.0749521022716833,1.8271233490994094,-0.0010013447202382522
29732000000,-1.0711222346973956,1.8327966028051252,-0.001001488483443249
29768000000,-1.0673894078141928,1.8384053065962256,-0.0010015770308710453
29798000000,-1.0636944640540071,1.8440405139562543,-0.0010017166688050735
29831000000,-1.0598062861919124,1.8500618301021428,-0.0010019546561055234
29865000000,-1.0559779728686052,1.856102053854384,-0.001001876929410582
29898000000,-1.0522019410157435,1.8621899761231384,-0.001002191811929648
29933000000,-1.0484174206726058,1.868408707803145,-0.0010027146457669452
29964000000,-1.0449063681817283,1.8743037566400942,-0.0010023078854643729
29997000000,-1.0415151404566385,1.8801138670371773,-0.0010017569543942992
30031000000,-1.0382520404103652,1.8858205823283765,-0.001001902787569852
30064000000,-1.0352042410023226,1.8912471153921913,-0.001001497933730066
30097000000,-1.032172933728785,1.8967501859511617,-0.0010014122389973082
30131000000,-1.0293315677988648,1.9020096914879467,-0.0010017757204282274
30164000000,-1.0266880849537834,1.906978102468608,-0.0010013536968127637
30201000000,-1.0240926269462036,1.9119450584643796,-0.0010013884385580672
30231000000,-1.0214612838624326,1.9170814245294532,-0.0010014033973223778
30269000000,-1.0189472185074815,1.9220881462572819,-0.0010014524091742708
30299000000,-1.0166827747330667,1.926691586448873,-0.0010013585438732597
30331000000,-1.0147802906078542,1.9306550200218213,-0.0010012776565249196
30367000000,-1.01333761391152,1.933749654645909,-0.0010012449753364558
30400000000,-1.012267890877575,1.9361254031961124,-0.0010012344792490434
30433000000,-1.0115336622314985,1.9378247596412854,-0.0010012360119060065
30468000000,-1.0110841011748102,1.9389157385288485,-0.001001361618370656
30504000000,-1.0107824405278816,1.939678217873834,-0.001001360493851449
30534000000,-1.0106136860885429,1.940116415845133,-0.0010013579512947283
30564000000,-1.0105770568697345,1.9402128466806945,-0.0010016561097390062
30608000000,-1.0105758242609924,1.9402161405769782,-0.0010016457884215214
30649000000,-1.0105745688031114,1.940219499757291,-0.0010016455102058452
30683000000,-1.0105733521243498,1.9402227566598718,-0.001001645204374419
30716000000,-1.0105721371769227,1.9402260102084556,-0.0010016449534655213
30742000000,-1.0105708880542308,1.9402293570669977,-0.0010016447631009222
30764000000,-1.0105696777662523,1.9402326000920953,-0.0010016443228901828
30797000000,-1.0105684694467798,1.9402358387611496,-0.0010016439451857387
30831000000,-1.0105672260418912,1.940239172340293,-0.0010016432747713376
30864000000,-1.0105660198335211,1.9402424068826614,-0.0010016420010857258
30897000000,-1.0105648161066185,1.9402456385013478,-0.0010016411342492655
30934000000,-1.0105635881164332,1.9402489659593622,-0.0010016404089408237
30964000000,-1.0105623953129994,1.9402521954220744,-0.0010016397792651684
30997000000,-1.0105612020356354,1.9402554247326282,-0.0010016392307265025
31031000000,-1.0106996576114946,1.9398867460590559,-0.0010012289567539918
31064000000,-1.0110956677339606,1.938820415985522,-0.0010013036981699024
31097000000,-1.01175543691636,1.9370108389783993,-0.0010014136894340928
31131000000,-1.0127161963747053,1.934303629089084,-0.0010015626038051458
31164000000,-1.0139226288238594,1.9307864189875037,-0.0010017501760441194
31197000000,-1.0153903525729078,1.9263336063562537,-0.0010019374257695599
31231000000,-1.0171547530483405,1.9207324055695103,-0.0010021318367631482
31264000000,-1.019009115202085,1.9145280961409539,-0.00100213482704168
31300000000,-1.020827661311797,1.9080630311815774,-0.0010008625543247059
31333000000,-1.0226485850852554,1.901299742182558,-0.0010021702304083002
31364000000,-1.0243861795303264,1.8945001417415566,-0.0010021363232884384
31396000000,-1.0260448449800383,1.887610294764997,-0.0010010632523252579
31431000000,-1.0276712508629622,1.8803938083184977,-0.0010012355064762113
31469000000,-1.029175777232168,1.8731667778050387,-0.001001854261344786
31499000000,-1.030497583688476,1.8662283007959966,-0.0010011840561045815
31534000000,-1.031711894676213,1.8591874676955846,-0.0010019423056448658
31570000000,-1.032802818945627,1.8518649475347422,-0.0010018411372404341
31597000000,-1.0336855706723302,1.8447913820877742,-0.0010014319152196298
31631000000,-1.0344312167369971,1.8376281771431489,-0.0010018683077327901
31662000000,-1.0349875220419902,1.8306305818915651,-0.001001768829770721
31697000000,-1.0353570407490598,1.8239362227677436,-0.001001941973811319
31735000000,-1.0355698489546719,1.817192167292352,-0.0010019417288421005
31764000000,-1.0356238455870832,1.8106473520101383,-0.0010021102745595561
31799000000,-1.035527193720133,1.8041841857685572,-0.0010010698001973808
31830000000,-1.0352648694511652,1.797594941311058,-0.0010011046612707492
31867000000,-1.0348235566690567,1.791020221024118,-0.0010012603831099018
31905000000,-1.0341647998663546,1.784094940614241,-0.0010016017290158108
31933000000,-1.0332534736582315,1.7766904630590445,-0.0010016265691966363
31973000000,-1.0320866910477293,1.7692232958033123,-0.0010015416526635394
32008000000,-1.0306621572745274,1.761785114896328,-0.0010015814202902588
32050000000,-1.028922419238123,1.7541768054450118,-0.0010016786148297277
32093000000,-1.0269722537881014,1.7468560877849515,-0.0010018324838641166
32122000000,-1.0247673598273328,1.739609301519322,-0.0010020168618205053
32144000000,-1.022307803044333,1.7324535255852087,-0.0010013476474884167
32179000000,-1.0197494687263133,1.7258053418377282,-0.0010011888448092539
32212000000,-1.0169096859477307,1.719248253235595,-0.0010018168621282846
32245000000,-1.0136651097541416,1.712554428510554,-0.0010018306771727367
32278000000,-1.0102401293642114,1.7061983278232606,-0.0010017676230704535
32307000000,-1.0065494323811044,1.6999924638341701,-0.0010017802269307423
32345000000,-1.0022819143818542,1.6934936184711271,-0.0010019051619596514
32386000000,-0.9978534406515422,1.687387580625043,-0.0010019905711951653
32414000000,-0.9932031102342299,1.681539563637662,-0.001001541170137836
32446000000,-0.9881398377950998,1.675711434335622,-0.0010016947177673777
32465000000,-0.9830878713644091,1.6702586195966527,-0.0010020578326949033
32503000000,-0.9779991686580822,1.6650740259448533,-0.0010019895513335188
32531000000,-0.9724740189600166,1.6600442885905933,-0.001001907173550122
32564000000,-0.9666191842718389,1.655450219844874,-0.0010016387752006216
32597000000,-0.9602759587648318,1.6510143764700271,-0.0010017182373244123
32631000000,-0.9538098011225921,1.6469972848976866,-0.0010016370549955668
32662000000,-0.9474208776366961,1.6434847762047031,-0.0010016933488945674
32699000000,-0.9408569667155634,1.6403089899985408,-0.0010018802333826085
32741000000,-0.9339316481718707,1.6373989839453302,-0.0010020356592223695
32765000000,-0.9269869483031749,1.634898592055161,-0.0010021947732137201
32797000000,-0.9199206931122534,1.6327378580693999,-0.0010011589586849043
32837000000,-0.9123727751797526,1.6308933471338662,-0.0010013854994526741
32869000000,-0.9050532624681358,1.629512794712779,-0.0010016078788707555
32897000000,-0.8984927368219824,1.6285950094115202,-0.0010012895054197675
32931000000,-0.8927780355687858,1.628059078049777,-0.0010011080048213175
32969000000,-0.8882804602875483,1.6278334791837998,-0.0010009739715624993
32997000000,-0.8848168126998215,1.6278015361165816,-0.0010008875440865074
33031000000,-0.8821794751532566,1.6278862861768928,-0.001001378617726513
33064000000,-0.8803868582237533,1.6280237506277562,-0.0010008971694418223
33098000000,-0.8794892899025102,1.628136332153743,-0.0010009013899920302
33130000000,-0.8792921549505698,1.6281768894112192,-0.0010009381066706548
33164000000,-0.8795962137686675,1.6281234041367465,-0.001001640365483416
33197000000,-0.8801642818337091,1.627987337767066,-0.0010017303623967057
33231000000,-0.8808360800991907,1.6277884288113846,-0.001001779443491009
33263000000,-0.8814819266077623,1.6275599160491372,-0.0010018809459083657
33297000000,-0.8821153177609382,1.627297567174725,-0.001002037198757827
33331000000,-0.8827764960533753,1.626981156702219,-0.0010016092802148935
33366000000,-0.8833985989612483,1.626646242665025,-0.0010015796262065162
33395000000,-0.8840044749881737,1.6262802336254887,-0.0010017601873098352
33431000000,-0.8845840926682123,1.625892340910822,-0.001002163919958672
33464000000,-0.8851722674608673,1.62545578561715,-0.0010014575139875963
33497000000,-0.8857517827389536,1.6249839095140834,-0.001001684747342295
33531000000,-0.8864804008417172,1.624325303574904,-0.0010015303407565658
33564000000,-0.8874943410177375,1.6233084063777825,-0.001001495367610846
33594000000,-0.8888161579784811,1.6218389017550752,-0.0010015034350280179
33635000000,-0.8903988951202778,1.6198775026424834,-0.0010017526088995296
33668000000,-0.8919048648101893,1.6177855742536813,-0.0010017717593731497
33701000000,-0.8933441362898012,1.6155442948966743,-0.0010018136167886348
33733000000,-0.8948088164376558,1.61296384073398,-0.0010019096035999951
33769000000,-0.8962077932691829,1.6101284523578907,-0.0010020062744084055
33800000000,-0.8974892153564104,1.6070750792432271,-0.0010009648603640023
33831000000,-0.8986495467651511,1.603916238035892,-0.0010007247505532148
33870000000,-0.8996478896376342,1.6009164646666816,-0.0010011561357802547
33897000000,-0.9004304805928038,1.5980371270224316,-0.0010011817860681796
33931000000,-0.9009142456844113,1.595287468004273,-0.0010006057140397769
33964000000,-0.9011846721873047,1.5926061367802176,-0.0010003953833791941
33997000000,-0.9013213325273239,1.5896442397385755,-0.001000398510640793
34031000000,-0.901272855329547,1.586215941013414,-0.001000414382385264
34064000000,-0.9009735496562215,1.5824567622920347,-0.0010004633235417282
34097000000,-0.9003552768301433,1.5783120835067408,-0.001000559745162076
34131000000,-0.8993610652943607,1.5738260776636974,-0.001000681736354224
34164000000,-0.8979960454141275,1.5691741143503086,-0.001000909286224521
34195000000,-0.8962041138298232,1.564253672219501,-0.001000961927243138
34231000000,-0.8939510174112772,1.5590568748005365,-0.0010008961485168527
34264000000,-0.8914402212798401,1.554068302937426,-0.001001267301988018
34297000000,-0.8886442468632296,1.549221679238065,-0.0010012271536553735
34331000000,-0.8857574461032701,1.5448136511556758,-0.0010017010223555937
34363000000,-0.8832466355019678,1.5414163595440145,-0.0010020378439821662
34400000000,-0.8811569391381403,1.538888154034783,-0.001002014015097006
34435000000,-0.8789871727671726,1.5365445877739101,-0.0010007882596673075
34464000000,-0.8765551671577254,1.5341692607327964,-0.0010013665783909186
34503000000,-0.8739953400265913,1.5318976746623527,-0.0010014289257317677
34538000000,-0.8711961647140493,1.529642138650447,-0.0010015020477037902
34566000000,-0.8683465073173006,1.527544640950927,-0.001001603944801574
34598000000,-0.8654144942442622,1.5255751267143625,-0.0010017451619815064
34633000000,-0.8622172276336347,1.5236197233774937,-0.0010010832384474283
34672000000,-0.858959763179772,1.5217945085031193,-0.0010013731673122611
34697000000,-0.8556317901271226,1.5200895000520607,-0.0010013706481774645
34731000000,-0.8521019579030589,1.5184422026623423,-0.0010013440420712366
34760000000,-0.8486117417906327,1.5169588761888049,-0.0010013309516379923
34799000000,-0.8453819816628705,1.5157146431126758,-0.0010019140584902851
34838000000,-0.84246426964909,1.5147187691397994,-0.0010013947329345213
34870000000,-0.8394349416110928,1.5138072390232693,-0.0010008622049089283
34907000000,-0.8358990504009007,1.5128595880495692,-0.0010009241746482787
34936000000,-0.8325197691616051,1.5120418720629676,-0.0010018778587575945
34964000000,-0.8301986264222561,1.5115387277378773,-0.001001883631661541
34997000000,-0.828795132719242,1.5112674239032153,-0.0010019208483389268
35029000000,-0.8282725773704606,1.5111730493445386,-0.0010019736757297566
35064000000,-0.8285909615612974,1.511202826988706,-0.0010020185485229878
35104000000,-0.8296277061313737,1.511298215544936,-0.0010020045749322068
35140000000,-0.831360943997345,1.5114216884286167,-0.0010020413872207957
35175000000,-0.833597499628756,1.5115306671682451,-0.0010020426054552153
35212000000,-0.8361891507535679,1.5116101794096841,-0.0010020592366966653
35244000000,-0.8390721928134853,1.5116547265281728,-0.0010009618458125917
35281000000,-0.8422908738530637,1.5116781240216912,-0.0010009745376788476
35315000000,-0.8454895013259889,1.5116811949346005,-0.0010009301266076971
35354000000,-0.8489923254141453,1.511640763969292,-0.0010016091485590198
35385000000,-0.8528709483292365,1.511563027450781,-0.0010015651367181015
35414000000,-0.8567652572373682,1.5114513547330852,-0.0010012316159153656
35448000000,-0.8613537986497553,1.511251925351197,-0.0010017447686890418
35483000000,-0.8664181449473257,1.5109780477517116,-0.0010017133850032701
35511000000,-0.8712036775663536,1.510699603390509,-0.0010009511587015796
35541000000,-0.8752993546765464,1.5104492499141833,-0.001001081872928196
35578000000,-0.8789928255566006,1.510197856043232,-0.0010014291521736988
35619000000,-0.8821929309300092,1.5099575642504965,-0.0010011529045158007
35657000000,-0.8845873922842666,1.5097628576169515,-0.00100094778307332
35699000000,-0.8859683856334111,1.5096442452878307,-0.001000756936056925
35699000000,-0.8869536557325378,1.509551148280878,-0.001001123189173267
35731000000,-0.8885078583600446,1.5093772801815533,-0.0010021423341137446
35764000000,-0.8908804115877721,1.5090726305394326,-0.0010019282215631108
35797000000,-0.8939580282288209,1.5086325173014008,-0.0010024703020815942
35831000000,-0.8979438669624555,1.5080071536410609,-0.0010025182803799666
35864000000,-0.9024666863264506,1.5072356706119376,-0.0010021128604025056
35897000000,-0.9069479416074556,1.506420682748203,-0.0010004372262630012
35931000000,-0.9110190374377682,1.5056251650177395,-0.0010004582579844074
35964000000,-0.9144935770341172,1.504897168620913,-0.001000474419574949
35997000000,-0.9175648810846525,1.5042126261857247,-0.0010004554366783783
36031000000,-0.9203567371172232,1.5035418054187655,-0.0010004881686643367
36064000000,-0.922724844750257,1.502926110286079,-0.0010004780252563378
36097000000,-0.9247471339508668,1.5023544643192797,-0.0010004630035651899
36133000000,-0.9264305723837161,1.5018323929807096,-0.0010004472552816168
36164000000,-0.92761708621415,1.5014254458659693,-0.001000496511828368
36197000000,-0.9283877067226964,1.5011287669618734,-0.0010005284509852531
36230000000,-0.928801306245212,1.5009461349297726,-0.0010007880642262726
36264000000,-0.9292431294414796,1.500732494339308,-0.0010006598439010854
36308000000,-0.9298631936340989,1.5004199942865761,-0.0010008744880193668
36337000000,-0.9305210254426173,1.5000717174705205,-0.0010014336655173282
36364000000,-0.9311674215021135,1.4997128153608752,-0.0010009598820671338
36397000000,-0.9316117275499696,1.499451311730664,-0.0010016725742916337
36431000000,-0.9316053707770057,1.4994491546954913,-0.0010016858818355824
36465000000,-0.9311604296889407,1.4997312057298466,-0.001001725530538275
36497000000,-0.9303183254690253,1.500310824777752,-0.0010017869394651525
36531000000,-0.929097730451867,1.5012259670509354,-0.0010018499259446152
36564000000,-0.9277804607261911,1.5023070719970475,-0.00100078265336569
36597000000,-0.9266060191294104,1.5033573846758619,-0.0010007036450036984
36634000000,-0.9256389718599057,1.5042880651109167,-0.0010006993451876084
36664000000,-0.9249015262557203,1.5050383865289594,-0.0010019350488927638
36698000000,-0.9243781743804462,1.505593233850411,-0.0010010500967287603
36731000000,-0.923949627934871,1.5060626497547378,-0.0010018574533654963
36764000000,-0.9236499213506645,1.506400233669605,-0.0010011029457746325
36803000000,-0.9232680835437843,1.506834698906215,-0.001002199881389991
36832000000,-0.92271703704915,1.5074797024575015,-0.0010022426780661696
36864000000,-0.922085967230819,1.5082369269221076,-0.0010023252593098983
36897000000,-0.9214283826618,1.5090440081727428,-0.0010012558014339638
36931000000,-0.920768933452545,1.5098868689449194,-0.001000547327650935
36964000000,-0.9201419449419561,1.5107447396844709,-0.001000499395324362
36998000000,-0.9194512823608643,1.511704761578141,-0.0010004975069997958
37032000000,-0.9186142028822797,1.5128915659243014,-0.0010005058608246083
37073000000,-0.9176258870177971,1.514319719321181,-0.001000523057995844
37101000000,-0.9164154521419503,1.5160992006672849,-0.001000552757672548
37132000000,-0.9148886697742086,1.518378179585863,-0.0010005961570559233
37164000000,-0.9130940151402523,1.5210914738391625,-0.0010006526042196304
37197000000,-0.9110794582491416,1.5241570224960472,-0.0010012786827045504
37231000000,-0.9089019615503031,1.5274519996535432,-0.0010014107500332832
37266000000,-0.9067774328893923,1.5306433537852775,-0.0010013967492275115
37306000000,-0.9049090147008526,1.533431463661874,-0.0010017416818464617
37335000000,-0.9035179618917809,1.5355065541438664,-0.001001913676085521
37367000000,-0.902774361016829,1.5366188700699697,-0.0010019253889610863
37397000000,-0.9026282535795469,1.5368373584264328,-0.0010019314668563428
37434000000,-0.9030853923724442,1.5361478778003925,-0.0010019940806704902
37469000000,-0.9041076667450609,1.5346022264830408,-0.0010020787420649477
37507000000,-0.9056920348056257,1.5321988582908896,-0.0010021125435600818
37539000000,-0.9077367991228332,1.5290971803889912,-0.0010018174087340556
37568000000,-0.9099772156494104,1.5257407220337416,-0.0010014684594415908
37602000000,-0.9122606762163684,1.522368180302523,-0.0010010694888618644
37634000000,-0.914605613994181,1.5189009345201492,-0.001001634262224476
37678000000,-0.9168858205426255,1.5155160833117725,-0.0010017555213690035
37714000000,-0.9189732600917413,1.5124079245875108,-0.0010004526871142255
37735000000,-0.9207533486119341,1.5097424148775,-0.0010004528412414122
37767000000,-0.9221309869420821,1.5076635628595356,-0.0010004396430072504
37806000000,-0.923163833370711,1.5060823955862421,-0.0010004445671299017
37834000000,-0.9240298556201577,1.5047222838201855,-0.001002145854491352
37861000000,-0.9249954752139925,1.503154905857487,-0.0010024793839646003
37898000000,-0.9259465628006632,1.5015709658851613,-0.0010015740626029453
37931000000,-0.926725714200543,1.5002234714629723,-0.0010005191661045139
37963000000,-0.9272977001768498,1.4991883304202984,-0.0010005143447618554
37994000000,-0.927691111613326,1.4984367388601831,-0.0010005034452729884
38034000000,-0.9279034768659655,1.49800061998135,-0.0010004945394801873
38071000000,-0.9279126983620439,1.497969905586731,-0.001000486208973271
38108000000,-0.9277246458764218,1.498402042387566,-0.0010005714069891633
38137000000,-0.9273737481431306,1.4993111039882208,-0.0010005899908092676
38164000000,-0.9269253372975984,1.500641737434644,-0.0010007342905166243
38196000000,-0.9265248626304823,1.5020114031769487,-0.0010007427711406607
38232000000,-0.9261908007280566,1.5033097696944961,-0.0010007787613095162
38264000000,-0.9259686968082506,1.5042540677330012,-0.0010017069985099117
38295000000,-0.9258948841095367,1.5045768414735265,-0.0010021281456280978
38331000000,-0.9259739868973762,1.5041671781629466,-0.0010021500570983784
38364000000,-0.9261786646554163,1.5031144710281301,-0.0010021105467681625
38398000000,-0.9264053300492898,1.5019254242178375,-0.0010020400358398372
38431000000,-0.9265456719203224,1.5011350486363602,-0.001000764884940452
38468000000,-0.926570940769189,1.5009586260721655,-0.0010008965969986842
38500000000,-0.9265255182051837,1.5012427170147207,-0.0010008813299704836
38531000000,-0.926437081209256,1.501961236104288,-0.0010009088435215252
38564000000,-0.9263373563627507,1.5030787726656984,-0.0010009427503708257
38597000000,-0.9262656508644442,1.5043348491457817,-0.0010009758149138494
38632000000,-0.9262278480707828,1.505587238779006,-0.0010006560534304362
38666000000,-0.9262158970573938,1.5064868525102544,-0.0010012770335414943
38701000000,-0.9262140977981005,1.5069035084884999,-0.0010019413907589557
38739000000,-0.9262099604649129,1.5068010512141286,-0.0010018754742282844
38768000000,-0.9261944760417461,1.5062855620033602,-0.001001874136364378
38796000000,-0.926162853476618,1.505422313045033,-0.0010019012778265043
38831000000,-0.9261145376292518,1.5042297696754587,-0.0010007468851233707
38867000000,-0.9260567017401727,1.502731362141359,-0.0010008867980253917
38910000000,-0.9259951034042074,1.5009915995155272,-0.001001034651389291
38939000000,-0.9259311894876927,1.499220949979196,-0.0010009749673749561
38964000000,-0.9258759374981634,1.497985141548347,-0.0010017398888029216
38994000000,-0.9258125544637715,1.4968074632549113,-0.0010010757553632933
39031000000,-0.9256993094836353,1.494896323067954,-0.0010011748160291128
39067000000,-0.9255401459903464,1.492344200085435,-0.0010015959169197772
39097000000,-0.9253960470720245,1.490015733780891,-0.00100144069260074
39133000000,-0.9253115663840695,1.488618470139925,-0.0010014834707283808
39168000000,-0.9252878744155295,1.4882316727431308,-0.0010015939256222198
39210000000,-0.9253122658805879,1.488659891607141,-0.001001693655714505
39243000000,-0.9253814316805027,1.4898348665398593,-0.001001805713088496
39278000000,-0.925489145460913,1.4916255260337692,-0.0010019123992659647
39310000000,-0.9256363788730413,1.493945136708674,-0.0010019140433260125
39342000000,-0.9258263319440998,1.4967488800812099,-0.0010019416626689884
39364000000,-0.9260458313380927,1.4997293281454862,-0.0010021268968840036
39407000000,-0.9262699464818371,1.5026040598644426,-0.0010007021787641138
39440000000,-0.9264815630036269,1.505252951005537,-0.0010006925795609418
39476000000,-0.926663142575343,1.5075336244047697,-0.0010007033300184383
39511000000,-0.9268130396978734,1.5095184873886431,-0.0010006964832198588
39532000000,-0.9269483039224966,1.5114448329327999,-0.0010012319110550075
39569000000,-0.9270824317069541,1.5133984394271698,-0.0010023615329738597
39601000000,-0.9272294710318884,1.5154288404277965,-0.0010012177282591357
39638000000,-0.9274044513824523,1.5175803747433707,-0.0010012102142096142
39679000000,-0.9275826947070547,1.519757299949321,-0.0010012320581204506
39717000000,-0.9277708746916901,1.5220557059691293,-0.0010009639027854927
39742000000,-0.927954971731214,1.5243525294702338,-0.001002004606885036
39772000000,-0.9281128405409415,1.5263025415329943,-0.001002512988641506
39805000000,-0.9282403944034736,1.5278104229250697,-0.0010025093984333301
39835000000,-0.9283416852005637,1.5289174464596094,-0.0010025118212468945
39865000000,-0.9284092362559345,1.5295948908919312,-0.0010018236917433594
39898000000,-0.928437461208387,1.5298896061258687,-0.0010018800471892249
39931000000,-0.9284123958862678,1.5298012108573977,-0.0010018745679752465
39967000000,-0.9283450676424263,1.529385844465385,-0.001001867186970106
39997000000,-0.9282314733864603,1.528763783361733,-0.0010008415315453378
40031000000,-0.9280335823200107,1.5277627786645243,-0.0010010157620822628
40072000000,-0.9277189461320795,1.5262463468403449,-0.0010011642404235514
40103000000,-0.9272471829584742,1.5240448035708005,-0.001001256869548918
40131000000,-0.9265712809590883,1.5209432598843322,-0.0010014115598660674
40165000000,-0.9257126306329873,1.5170368622922066,-0.0010016077556230032
40197000000,-0.9246393477884025,1.5121720265976464,-0.001001828670685375
40230000000,-0.9233020957952951,1.506119455386582,-0.0010020502768017317
40272000000,-0.9218140340010128,1.499430663929486,-0.0010019643590557896
40306000000,-0.9203290419738789,1.4929193785362411,-0.0010005299859466542
40334000000,-0.9189430858387471,1.486967855472347,-0.0010015688575968282
40369000000,-0.9175707799532532,1.4811050558296446,-0.0010022350642239289
40400000000,-0.9160860640411619,1.4748481866391012,-0.0010023679139263345
40431000000,-0.9144802391775464,1.4682226319360658,-0.0010022710535113437
40466000000,-0.9129061137186628,1.4617985688582615,-0.0010010008167927013
40504000000,-0.9112660614233978,1.4553395171706638,-0.0010007397063377561
40533000000,-0.9094564968605636,1.4484392524903693,-0.0010012183637806496
40565000000,-0.9075528239362327,1.441437663512323,-0.0010016522909979536
40598000000,-0.9056731655732749,1.4348110499872684,-0.0010014969605847308
40630000000,-0.903751658068453,1.428271905833461,-0.0010014892831380316
40665000000,-0.901725139150626,1.421609727750694,-0.0010017620456079963
40701000000,-0.8995748721925987,1.4149048106228874,-0.0010014586719692825
40731000000,-0.8972542163154054,1.4081248891237992,-0.0010015504724487125
40764000000,-0.8948732406024112,1.401588648995412,-0.0010016385853610296
40797000000,-0.8924798486551808,1.3953852215936926,-0.0010018608350250563
40831000000,-0.8899553809996282,1.3891685087705516,-0.0010018804095526905
40863000000,-0.8874042958983612,1.3831819505656222,-0.0010020893148263224
40898000000,-0.884692331058392,1.3770799881678508,-0.0010013802082475091
40933000000,-0.8816790595364449,1.3704690779889157,-0.0010011687038530004
40964000000,-0.8786077015232671,1.36384395656848,-0.001001772393005411
40998000000,-0.8756303037966082,1.357520985698562,-0.0010012007505778783
41031000000,-0.8725848230276045,1.351119101019298,-0.0010013715366540797
41060000000,-0.8695537249499672,1.3448414417631527,-0.0010011764362750399
41101000000,-0.8664509471609905,1.3385032634335121,-0.0010012111168532338
41131000000,-0.8631121209388942,1.3317846178000496,-0.0010015369423794808
41164000000,-0.8597921485098318,1.3252441817006573,-0.0010015336299537062
41198000000,-0.8564683606601728,1.3187921584487565,-0.0010014439630534402
41240000000,-0.8530436559294665,1.3121451832124236,-0.0010015921311308587
41270000000,-0.8497215633763988,1.3056911364795944,-0.0010016650635063587
41300000000,-0.8464165514476578,1.2992461756488554,-0.0010017489591201169
41333000000,-0.8430375293320204,1.2926080543460647,-0.0010020457344301938
41364000000,-0.8397970843550464,1.286191893329942,-0.0010010221492624191
41397000000,-0.8366213044178942,1.2798720830034003,-0.0010010823170268704
41434000000,-0.8332634016439452,1.2732172683808824,-0.0010017013032391497
41465000000,-0.829969968491386,1.2667265337348057,-0.001001692880792493
41504000000,-0.8267042945098022,1.260309416589034,-0.0010018356966429998
41546000000,-0.8233917708205657,1.2537843650651515,-0.001001115288397792
41576000000,-0.8201682108725958,1.2474030096187656,-0.001001158837319431
41603000000,-0.8168680483849518,1.2408609823366177,-0.001001386631154795
41641000000,-0.8134470147723226,1.234166664354619,-0.0010015084783682668
41672000000,-0.8100925551620077,1.2276800988840986,-0.0010015497996868905
41707000000,-0.8067171356090448,1.221215213530626,-0.001001612304522493
41735000000,-0.8032373336310805,1.2145812766453004,-0.0010017148172157299
41766000000,-0.7998584300560015,1.2081486533222114,-0.0010018322611001322
41803000000,-0.7964887546081991,1.2017268775337537,-0.0010018435301318782
41835000000,-0.7930579121665641,1.195157073590618,-0.0010010140029035088
41865000000,-0.7897221969577867,1.1887386348671785,-0.0010016962094553696
41899000000,-0.7863843734918822,1.1823014762929587,-0.0010017026824960529
41931000000,-0.7829432938618309,1.1756631395722892,-0.0010016601759414503
41964000000,-0.779604685883451,1.1692195204918372,-0.0010017274335402115
41997000000,-0.7763075896658027,1.1628469684077043,-0.0010011110828591525
42031000000,-0.772907692790484,1.1562578924645257,-0.0010012810300523214
42064000000,-0.7695994989697879,1.1498176139711955,-0.001001499474857788
42094000000,-0.7663188516548548,1.1433853931292617,-0.0010014672562455584
42129000000,-0.7629631320682148,1.1367411960508638,-0.0010014868100088996
42164000000,-0.7597310343585901,1.1302784323099695,-0.0010015391329964256
42197000000,-0.7565364603138133,1.1238727472564678,-0.0010021331290009095
42231000000,-0.7531614281583934,1.1172022621849147,-0.0010017951339330242
42264000000,-0.749837153873924,1.110705392868647,-0.0010019919890006043
42297000000,-0.746451774316219,1.1041411921672681,-0.0010019610861983982
42330000000,-0.743023373242212,1.097488057007658,-0.001001735493150243
42364000000,-0.7397121206418359,1.0910419581869002,-0.0010017074844449261
42397000000,-0.7365258296418388,1.0848002220440693,-0.0010015357757460798
42431000000,-0.7334046955773347,1.0785798440679728,-0.0010016969180109345
42464000000,-0.7304277489413211,1.0725330984456904,-0.001001334665749351
42497000000,-0.7273919588007034,1.0662716072718628,-0.0010011853879145563
42532000000,-0.7243467386644603,1.0598892308356023,-0.0010011742668269673
42565000000,-0.7214286280340881,1.053548768098766,-0.0010013057973110376
42597000000,-0.7185056121565897,1.046954181383976,-0.0010018655520497785
42631000000,-0.7155398199044524,1.040104289707653,-0.001001384835779346
42664000000,-0.7127644722171876,1.0334986959706707,-0.0010015024350856043
