%time,field.x,field.y,field.z
1969992000000,-0.0009681175800832177,0.004820416699710816,-0.0010027129798172718
1970027000000,-0.0009683752597394674,0.004821312568969432,-0.0010027129985327454
1970060000000,-0.0009686256054385932,0.0048221820577347176,-0.0010027130167310286
1970092000000,-0.0009688761928661567,0.0048230515154826115,-0.001002713034953636
1970128000000,-0.0009691346269354237,0.004823947287949724,-0.0010027130537533513
1970160000000,-0.0009693857058914986,0.004824816682597429,-0.0010027130720243436
1970193000000,-0.0009696370273121948,0.004825686046105956,-0.0010027130903191989
1970227000000,-0.0009698962183879107,0.004826581721352461,-0.0010027131091934413
1970260000000,-0.000970148032834817,0.004827451021517018,-0.001002713127536834
1970307000000,-0.0009704000904852831,0.004828320290422045,-0.0010027131459041834
1970352000000,-0.0009706600408744964,0.004829215868072214,-0.0010027131648531785
1970388000000,-0.0009709125930539896,0.0048300850733882916,-0.0010027131832692215
1970432000000,-0.0009711653891784858,0.004830954247324009,-0.001002713201709294
1970432000000,-0.0009714261011961002,0.004831849727000325,-0.001002713220733309
1970477000000,-0.0009716793933575362,0.004832718837101014,-0.0010027132392222658
1970492000000,-0.0009719329302079428,0.004833587915699855,-0.001002713257735332
1970537000000,-0.0009721944061767129,0.004834483297023065,-0.0010027132768346582
1970581000000,-0.0009724484405771094,0.004835352311539815,-0.0010027132953967961
1970624000000,-0.0009727027204129756,0.004836221294432636,-0.0010027133139831508
1970669000000,-0.0009729649626635684,0.004837116577021875,-0.0010027133331580972
1970669000000,-0.0009732197415676137,0.004837985495584401,-0.0010027133517936972
1970713000000,-0.0009734747666561632,0.004838854382400422,-0.0010027133704536388
1970727000000,-0.0009737377775271743,0.004839749565873137,-0.0010027133897044758
1970763000000,-0.0009739933032072712,0.0048406183881094834,-0.0010027134084138814
1970805000000,-0.000974249075823449,0.00484148717847629,-0.0010027134271477015
1970849000000,-0.0009745128576614248,0.004842382262448012,-0.0010027134464747726
1970893000000,-0.0009747691323976782,0.004843250987984571,-0.0010027134652582682
1970941000000,-0.0009750256548241593,0.004844119681527871,-0.001002713484066279
1970941000000,-0.0009752902099836236,0.004845014665612638,-0.0010027135034699035
1970988000000,-0.0009755472360639204,0.004845883294074111,-0.0010027135223278118
1970993000000,-0.0009758045105911538,0.004846751890418145,-0.0010027135412103393
1971037000000,-0.0009760698414346576,0.004847646774228071,-0.001002713560690871
1971080000000,-0.0009763276211546728,0.004848515305237514,-0.0010027135796235008
1971123000000,-0.0009765856500809156,0.004849383804004765,-0.0010027135985808643
1971163000000,-0.0009768517589790453,0.00485027858715023,-0.001002713618138619
1971163000000,-0.0009771102946422687,0.004851147020328941,-0.0010027136371462998
1971211000000,-0.0009773690802735826,0.0048520154211400745,-0.0010027136561788462
1971227000000,-0.0009776359696049997,0.004852910103229829,-0.0010027136758141465
1971267000000,-0.000977895263522763,0.004853778438197426,-0.0010027136948972358
1971311000000,-0.000978154808173085,0.004854646740671528,-0.0010027137140052739
1971356000000,-0.0009784224803245627,0.004855541321312454,-0.0010027137337184702
1971399000000,-0.0009786825348160775,0.0048564095576867534,-0.0010027137528772906
1971399000000,-0.0009789428408072337,0.004857277761441106,-0.0010027137720611604
1971443000000,-0.0009792112981736765,0.0048581722402383076,-0.001002713791852617
1971460000000,-0.0009794721155660718,0.004859040377635497,-0.0010027138110874877
1971502000000,-0.0009797331852277897,0.004859908482285734,-0.0010027138303475291
1971545000000,-0.0009800024302122718,0.004860802858842533,-0.0010027138502175792
1971588000000,-0.0009802640128405982,0.004861670896877044,-0.001002713869528861
1971635000000,-0.0009805258485105642,0.0048625389020369465,-0.0010027138888654072
1971635000000,-0.0009807958835243574,0.004863433175954875,-0.001002713908814415
1971679000000,-0.0009810582337316347,0.004864301114239394,-0.0010027139282024339
1971693000000,-0.0009813208377555142,0.004865169019521042,-0.0010027139476158423
1971735000000,-0.0009815916652181258,0.00486606319039991,-0.0010027139676441407
1971777000000,-0.0009818547853553943,0.0048669310285453,-0.001002713987109237
1971821000000,-0.0009821181600868558,0.004867798833559094,-0.001002714006599837
1971861000000,-0.0009823897824260547,0.0048686929009966635,-0.0010027140267078079
1971861000000,-0.0009826536748523572,0.004869560638612044,-0.0010027140462503317
1971906000000,-0.000982917822653106,0.004870428342966502,-0.0010027140658184774
1971927000000,-0.000983190242304947,0.004871322306558996,-0.0010027140860064676
1971967000000,-0.000983454909387403,0.004872189943251781,-0.0010027141056267695
1972010000000,-0.0009837198326272303,0.004873057546553914,-0.001002714125272794
1972054000000,-0.000983993052036657,0.004873951405906629,-0.001002714145542087
1972102000000,-0.0009842584961519095,0.004874818941294086,-0.0010027141652415757
1972103000000,-0.0009845241972108844,0.00487568644316091,-0.0010027141849668908
1972146000000,-0.0009847982188325704,0.004876580197857924,-0.0010027142053170533
1972160000000,-0.0009850644423647862,0.00487744763153501,-0.0010027142250949826
1972203000000,-0.0009853309236290166,0.004878315031560432,-0.001002714244898912
1972246000000,-0.0009856057499239672,0.004879208681192528,-0.0010027142653301485
1972290000000,-0.0009858727552646456,0.004880076012761287,-0.0010027142851869383
1972334000000,-0.0009861400191283282,0.004880943310546666,-0.0010027143050698045
1972335000000,-0.0009864156525661062,0.00488183685470249,-0.0010027143255825176
1972376000000,-0.0009866834421149266,0.004882704083763127,-0.0010027143455184871
1972393000000,-0.0009869514909804375,0.0048835712789080535,-0.0010027143654806718
1972435000000,-0.000987227934039066,0.00488446471717455,-0.0010027143860752152
1972480000000,-0.0009874965102039147,0.004885331843325455,-0.0010027144060907357
1972524000000,-0.000987765346481869,0.00488619893542769,-0.001002714426132572
1972568000000,-0.0009880426016478563,0.004887092267389731,-0.0010027144468093344
1972568000000,-0.000988311966844885,0.004887959290227409,-0.0010027144669047493
1972612000000,-0.0009885815929541577,0.004888826278882908,-0.0010027144870266187
1972627000000,-0.0009888596627225426,0.004889719504123586,-0.00100271450778594
1972671000000,-0.0009891298193761685,0.004890586423242774,-0.0010027145279616415
1972714000000,-0.0009894002377439344,0.004891453308045636,-0.001002714548163891
1972759000000,-0.0009896791246182934,0.004892346426146139,-0.00100271456900616
1972802000000,-0.0009899500751612694,0.00489321324113978,-0.0010027145892624774
1972803000000,-0.00099022128822301,0.00489408002168224,-0.0010027146095454818
1972846000000,-0.0009905009947155183,0.004894973032221773,-0.0010027146304710695
1972860000000,-0.0009907727415889222,0.004895839742680777,-0.0010027146508083846
1972900000000,-0.0009910447517884951,0.0048967064185532665,-0.0010027146711724944
1972944000000,-0.0009913252804199602,0.004897599321109183,-0.0010027146921817824
1972986000000,-0.0009915978260732605,0.00489846592662267,-0.0010027147126004561
1973007000000,-0.0009918706361889632,0.004899332497399775,-0.001002714733050157
1973048000000,-0.000992151991477252,0.00490022529143406,-0.0010027147541540153
1973091000000,-0.0009924253420263828,0.0049010917913529465,-0.0010027147746650353
1973134000000,-0.0009926989592287695,0.0049019582562874284,-0.001002714795203214
1973135000000,-0.0009929811470437786,0.004902850941096453,-0.001002714816392216
1973179000000,-0.000993255306466042,0.004903717334862242,-0.0010027148369856666
1973193000000,-0.0009935297333627203,0.004904583693505765,-0.00100271485760638
1973239000000,-0.0009938127562680674,0.004905476268658524,-0.0010027148788805083
1973282000000,-0.0009940877270547032,0.004906342555852782,-0.0010027148995566774
1973330000000,-0.0009943629661397476,0.004907208807786346,-0.00100271492026021
1973330000000,-0.000994646826708031,0.00490810127285042,-0.0010027149416197943
1973376000000,-0.0009949226113588555,0.004908967453053004,-0.0010027149623790081
1973389000000,-0.00099519866513491,0.004909833597855732,-0.0010027149831657069
1973436000000,-0.0009954833659475979,0.004910725952396891,-0.0010027150046110732
1973480000000,-0.0009957599669710446,0.004911592025185582,-0.0010027150254536682
1973523000000,-0.0009960368379494022,0.004912458062434656,-0.0010027150463238557
1973569000000,-0.0009963223815968635,0.00491335030601661,-0.0010027150678553615
1973569000000,-0.0009965998015100041,0.004914216270967192,-0.0010027150887816777
1973617000000,-0.0009968774922105884,0.004915082200237927,-0.001002715109735694
1973627000000,-0.0009971638812921093,0.004915974332422331,-0.0010027151313537243
1973669000000,-0.0009974421226206943,0.004916840189108931,-0.001002715152364119
1973710000000,-0.0009977206355721354,0.004917706009974526,-0.0010027151734023458
1973754000000,-0.000998007872695968,0.004918598030321127,-0.0010027151951072302
1973797000000,-0.000998286937974457,0.004919463778315628,-0.0010027152162020818
1973797000000,-0.0009985662757140924,0.004920329490347451,-0.0010027152373248728
1973842000000,-0.0009988543634974817,0.004921221398413852,-0.0010027152591170242
1973860000000,-0.0009991342552690711,0.004922087037286256,-0.0010027152802966795
1973898000000,-0.0009994144203429884,0.004922952640053718,-0.00100271530150442
1973942000000,-0.0009997033614122103,0.004923844435395545,-0.0010027153233841991
1973991000000,-0.0009999840822288797,0.004924709964714004,-0.0010027153446490501
1974035000000,-0.001000265077191964,0.00492557545778439,-0.0010027153659420938
1974035000000,-0.0010005548741823626,0.004926467139955372,-0.0010027153879099276
1974080000000,-0.001000836426604897,0.004927332559285782,-0.0010027154092603317
1974093000000,-0.0010011182540208344,0.00492819794222455,-0.0010027154306390673
1974140000000,-0.0010014089095768354,0.004929089510776078,-0.00100271545269532
1974184000000,-0.0010016912961748536,0.004929954819682516,-0.001002715474131683
1974227000000,-0.001001973958616201,0.004930820092053061,-0.0010027154955965165
1974227000000,-0.0010022654753913873,0.004931711546534613,-0.0010027155177415696
1974271000000,-0.0010025486987434015,0.004932576744579175,-0.0010027155392642907
1974293000000,-0.0010028321987915999,0.004933441905942882,-0.0010027155608155654
1974334000000,-0.0010031245794486993,0.00493433324590187,-0.0010027155830498666
1974374000000,-0.0010034086421421102,0.004935198332644566,-0.0010027156046592926
1974424000000,-0.001003692982387513,0.004936063382560797,-0.0010027156262974422
1974473000000,-0.0010039862295984723,0.004936954607542503,-0.0010027156486213523
1974473000000,-0.0010042711342296388,0.004937819582541331,-0.0010027156703179031
1974518000000,-0.0010045563172715669,0.004938684520567428,-0.001002715692043299
1974527000000,-0.0010048504337175695,0.004939575630115141,-0.0010027157144572411
1974570000000,-0.0010051361828918321,0.004940440492926089,-0.0010027157362413157
1974617000000,-0.0010054222113385948,0.0049413053186171795,-0.0010027157580543566
1974661000000,-0.0010057171997101015,0.004942196312271924,-0.001002715780558737
1974662000000,-0.0010060037960418116,0.004943061062448833,-0.0010027158024307134
1974709000000,-0.0010062906725107406,0.004943925775358327,-0.0010027158243317985
1974727000000,-0.0010065865355075284,0.004944816652659113,-0.0010027158469270402
1974765000000,-0.0010068739816200892,0.004945681289753933,-0.001002715868887321
1974811000000,-0.0010071617087375898,0.004946545889432953,-0.0010027158908768631
1974856000000,-0.0010074584490687719,0.004947436649916653,-0.0010027159135633477
1974901000000,-0.0010077467475946775,0.004948301173479093,-0.0010027159356123562
1974901000000,-0.001008035327996236,0.004949165659476703,-0.00100271595769073
1974944000000,-0.0010083329483803237,0.00495005630267801,-0.0010027159804689018
1974961000000,-0.0010086221019611824,0.0049509207122558265,-0.00100271600260703
1975001000000,-0.0010089115382914352,0.004951785084118993,-0.0010027160247746483
1975043000000,-0.0010092100414563609,0.004952675609570486,-0.001002716047644913
1975088000000,-0.0010095000527429359,0.004953539904709217,-0.0010027160698725703
1975129000000,-0.0010097903476556768,0.004954404161982993,-0.0010027160921298461
1975129000000,-0.0010100897363388263,0.0049552945692150465,-0.0010027161150926306
1975177000000,-0.0010103806079910889,0.004956158749458208,-0.0010027161374102055
1975193000000,-0.0010106717641493257,0.004957022891685292,-0.0010027161597575517
1975234000000,-0.001010972041097586,0.004957913180226086,-0.0010027161828132722
1975281000000,-0.0010112637757847265,0.004958777245115049,-0.001002716205221181
1975324000000,-0.0010115557958607002,0.004959641271836133,-0.0010027162276590139
1975370000000,-0.001011856963830494,0.004960531441211778,-0.0010027162508080938
1975370000000,-0.0010121495642309653,0.004961395390285843,-0.0010027162733067703
1975412000000,-0.0010124424509062018,0.0049622593010395155,-0.0010027162958354818
1975427000000,-0.0010127445126635265,0.004963149350773753,-0.0010027163190783582
1975471000000,-0.0010130379814650842,0.004964013183570003,-0.0010027163416681945
1975515000000,-0.0010133317374304267,0.004964876977892638,-0.001002716364288208
1975559000000,-0.0010136346957508738,0.004965766907507103,-0.0010027163876253006
1975608000000,-0.0010139290356506242,0.004966630623560471,-0.0010027164103067199
1975608000000,-0.0010142236636062488,0.004967494300986338,-0.001002716433018462
1975657000000,-0.0010145275212750677,0.004968384110000468,-0.0010027164564501943
1975660000000,-0.0010148227349794795,0.004969247708843881,-0.0010027164792236198
1975706000000,-0.001015118237634973,0.004970111268905091,-0.0010027165020275106
1975750000000,-0.0010154229974470982,0.004971000956836091,-0.001002716525554316
1975794000000,-0.001015719087672064,0.004971864438000094,-0.001002716548420171
1975794000000,-0.0010160154677464157,0.004972727880226531,-0.0010027165713166163
1975835000000,-0.0010163211325065046,0.004973617446589279,-0.0010027165949389426
1975860000000,-0.001016618101977354,0.00497448080960236,-0.00100271661789764
1975898000000,-0.0010169153621990357,0.004975344133521843,-0.0010027166408870768
1975939000000,-0.0005663894993535538,0.005008376553632064,-0.001001882726563496
1975980000000,0.0007096008734526183,0.005110110909102762,-0.001001927223111973
1976022000000,0.002814228075324286,0.005281964570287104,-0.001002032503691231
1976056000000,0.005843982473288222,0.005537498507956431,-0.0010021683217651262
1976100000000,0.009599033271124272,0.005865777368177845,-0.0010023409820724
1976101000000,0.014107232879677096,0.006272796413076282,-0.0010025621039810688
1976145000000,0.019446254085624892,0.006766039222797559,-0.0010028422460041375
1976160000000,0.025164829307136587,0.007297845785516307,-0.0010030420047239738
1976204000000,0.03123472461870342,0.007854865527863608,-0.0010028596068297722
1976252000000,0.037640812727354055,0.008423696939043681,-0.0010029721667084435
1976294000000,0.04384204736515473,0.008949808966637163,-0.0010021536841132925
1976294000000,0.0500701676708065,0.009453601777777737,-0.0010023072792583673
1976339000000,0.05668469045623392,0.009956605806293586,-0.0010023889553468987
1976360000000,0.06338772245770165,0.010422337779651831,-0.0010022274688986123
1976406000000,0.07047102500269697,0.010845330872614297,-0.0010022189374928638
1976449000000,0.07807243587840486,0.011190895206100419,-0.0010027390971429975
1976495000000,0.08547123583684063,0.011406695114877134,-0.0010026861631177234
1976495000000,0.09287883599980987,0.011504577760181026,-0.0010028594402348191
1976537000000,0.1005012833841026,0.011487669168844245,-0.0010032541464891909
1976560000000,0.1079027189904851,0.011365226179397402,-0.0010037269526846845
1976601000000,0.11530325550794683,0.011138119961617808,-0.0010041972951628682
1976632000000,0.12295856150482691,0.01080785015942455,-0.0010023686773181113
1976658000000,0.13016651869753199,0.010442734201753805,-0.0010043730148461064
1976695000000,0.13728037275384677,0.010034349127162386,-0.001002516086796558
1976742000000,0.1444151389525183,0.00958244495938077,-0.0010034372755463906
1976787000000,0.1512201329921464,0.009093616503465171,-0.0010041872059727633
1976831000000,0.15807172818185009,0.0085457263756556,-0.0010039390964607826
1976831000000,0.16529065384280597,0.007900406191362489,-0.0010026373312440398
1976876000000,0.17243814329358742,0.00718838245442413,-0.0010024053856259353
1976893000000,0.17970261136426655,0.0064071211879457675,-0.0010032053820667984
1976935000000,0.1871720641591583,0.005558087797372983,-0.0010030389625482368
1976979000000,0.19442537970767423,0.004699707144597514,-0.0010031422536174797
1977027000000,0.2016802095856881,0.003807373519023285,-0.0010034905506400224
1977064000000,0.20914965428385876,0.0028552765739837285,-0.0010039057498568565
1977070000000,0.21639622738300726,0.0019022520641616908,-0.0010042102447146532
1977113000000,0.2236363741406448,0.0009225287497507224,-0.001004182397584364
1977127000000,0.23084642982448272,-8.495960913723827e-05,-0.001003709694909958
1977165000000,0.23770523568695562,-0.0011105607760334268,-0.0010034267740766482
1977213000000,0.2444945551871533,-0.0021653539792589934,-0.0010044603673111906
1977256000000,0.25161561677679245,-0.003301151970692086,-0.001002419545068172
1977299000000,0.2588160902182438,-0.004501217014919837,-0.0010032306114259072
1977299000000,0.26601714932954795,-0.005772953775160779,-0.0010030463799328149
1977344000000,0.27309537094046993,-0.007087910415545409,-0.0010021247856411147
1977360000000,0.28000062646221946,-0.008393700465933542,-0.0010018044231857072
1977399000000,0.28715427259175935,-0.009783435934664826,-0.0010032342071392905
1977444000000,0.2945450757116696,-0.011261565505866815,-0.0010032951280472893
1977485000000,0.3017155213100612,-0.01274544777520378,-0.0010034352290290115
1977527000000,0.3088799377519109,-0.01427681684921509,-0.0010037837562222839
1977571000000,0.3160355286700422,-0.015854818172172103,-0.0010023090296353114
1977571000000,0.3227601818286107,-0.01737851303525281,-0.0010040903976506893
1977612000000,0.3294474153588271,-0.01893276439635729,-0.0010036308832582497
1977627000000,0.3364015812846735,-0.02058012491674469,-0.001003484028448829
1977669000000,0.3431787185508033,-0.0221845742907296,-0.0010022970526443013
1977716000000,0.3502030952635329,-0.02386319392049245,-0.0010041212087095394
1977762000000,0.3571458371574632,-0.025550980829848916,-0.001004081773926569
1977762000000,0.3637089740524883,-0.027158391778394877,-0.0010028520914431016
1977801000000,0.37033300024861393,-0.02881175698780333,-0.00100272850162152
1977827000000,0.37718709241202875,-0.03056416399357404,-0.0010019655371438056
1977872000000,0.38388129249349395,-0.03232305493496378,-0.0010020627308393593
1977916000000,0.3907051219627932,-0.034155068147054574,-0.0010022173650464407
1977960000000,0.3978677537913234,-0.03609580812848531,-0.0010029833461880563
1977960000000,0.40487307699659225,-0.037987170069565986,-0.0010030304683747576
1978006000000,0.41188379518303003,-0.0398705213975807,-0.0010033417453728516
1978027000000,0.4191152887167439,-0.04180285198916747,-0.0010039548398903218
1978068000000,0.42613295660750444,-0.043676794723830396,-0.0010035218070478906
1978116000000,0.4331265619176087,-0.04554503742438854,-0.0010039931518457702
1978159000000,0.44001295166730203,-0.047385054954801054,-0.0010032064864190678
1978159000000,0.4464864275085014,-0.04913155249945999,-0.0010038599192297333
1978201000000,0.4530684161387924,-0.05090523616928603,-0.001003953597435634
1978227000000,0.46009200493866287,-0.05279634507658918,-0.0010033019848074316
1978267000000,0.46706557334389553,-0.05468294147600163,-0.001002726661284696
1978311000000,0.4740100602713432,-0.05657276059174301,-0.0010027256657402055
1978355000000,0.4811703244208441,-0.058538812976591824,-0.0010026761606167188
1978392000000,0.4881689952955965,-0.06047766796172791,-0.0010033805838264472
1978417000000,0.49517490153667737,-0.06243060936519387,-0.0010035865686312956
1978446000000,0.5023677077792499,-0.06443893728597701,-0.0010036001257569087
1978488000000,0.5093559539415015,-0.06637703942847278,-0.0010035524195292286
1978532000000,0.5163503169003036,-0.0683027503439301,-0.0010036690220277915
1978532000000,0.5235626374466805,-0.07026723526192685,-0.0010036523442401267
1978576000000,0.530553061522987,-0.07215768847997642,-0.0010033438722955798
1978593000000,0.537533520850376,-0.07402903540794666,-0.0010041296689087473
1978633000000,0.5444040349130485,-0.07585654715988585,-0.0010031177831098075
1978679000000,0.5509082889169108,-0.07758425609753875,-0.0010038023175164834
1978722000000,0.5574881081788214,-0.07931987064007513,-0.0010038028799575598
1978766000000,0.5642794080886315,-0.08110320997654567,-0.0010032963574661755
1978766000000,0.5709366492443602,-0.08286190399220866,-0.001002545796521901
1978809000000,0.577584475778566,-0.08464734241492407,-0.0010019706742373652
1978827000000,0.5844748274413794,-0.08652344636793918,-0.0010020759559025982
1978869000000,0.5913292121270037,-0.08840078301687969,-0.001002163083026933
1978913000000,0.5983173516018345,-0.09030595140312038,-0.0010031888019414077
1978957000000,0.6055371878055622,-0.09226411925125418,-0.001003223064959223
1979002000000,0.6125491855055101,-0.09416340082536645,-0.0010034040095943143
1979002000000,0.6195629945823573,-0.09605616608297508,-0.0010039741581987262
1979044000000,0.6265727855391138,-0.09795221542255925,-0.0010039437586238202
1979060000000,0.6333958303041033,-0.09984219728062006,-0.0010028411469600665
1979104000000,0.6403717773862244,-0.10180144111972342,-0.0010043021083119934
1979126000000,0.647593445641678,-0.10386231410382125,-0.0010040853523663566
1979160000000,0.6545961014865058,-0.10588929860529753,-0.0010039671973588772
1979200000000,0.6615910695283124,-0.10794259061123486,-0.0010034637966803463
1979244000000,0.668492239471274,-0.10998776325040441,-0.0010022257605552323
1979287000000,0.6751067856901501,-0.11195844887998883,-0.0010028309064318598
1979331000000,0.681650878359737,-0.11393404539551369,-0.0010034303213986157
1979331000000,0.6883613236188879,-0.115983373397488,-0.001003485408028651
1979371000000,0.6948810436876535,-0.11798716032062402,-0.0010037470291242717
1979392000000,0.7014012134419612,-0.12000386657586437,-0.0010038899746070001
1979435000000,0.7077214986346164,-0.12197447081959907,-0.0010026123182848498
1979479000000,0.713655166696478,-0.12385268793048035,-0.001003964731035166
1979523000000,0.7197171910283864,-0.12578395266647152,-0.0010037882805687785
1979567000000,0.7259955891630141,-0.12778352356006942,-0.001001460506335882
1979568000000,0.73229856611861,-0.1297880251615825,-0.0010016137536810812
1979612000000,0.7388835681073194,-0.13185841650724597,-0.0010019854606626508
1979627000000,0.7455038753893652,-0.13393163019639232,-0.0010030435757956008
1979664000000,0.7518920491481511,-0.1359505382182301,-0.0010032678153156817
1979709000000,0.7583644366795781,-0.13801077363177924,-0.0010034359834493536
1979756000000,0.7653043630963033,-0.14023692587559836,-0.001002912422467226
1979792000000,0.772213462239426,-0.14250165598806439,-0.001002748216992335
1979838000000,0.7790616015035892,-0.14480654262800302,-0.0010027602473529802
1979838000000,0.7860098404442273,-0.14719975126595436,-0.001002338201158831
1979884000000,0.7928419050064114,-0.14958954126471768,-0.001003801126619363
1979893000000,0.7997135854532821,-0.15201532581820582,-0.0010040375923982825
1979935000000,0.8064450880594788,-0.15441706869814406,-0.0010026156036495558
1979980000000,0.8127547241518923,-0.1567086017481592,-0.001003352658509156
1980022000000,0.8191584931931242,-0.15905293259908165,-0.001002938094630805
1980063000000,0.8259209055756854,-0.1615399008137543,-0.001002536722385164
1980064000000,0.8326956915137192,-0.16401449858410136,-0.001003589546244462
1980114000000,0.8394957194729485,-0.16648360331702486,-0.0010033610803569064
1980127000000,0.8461113523658088,-0.16887161729482686,-0.0010028688645214653
1980164000000,0.8524256100462665,-0.171146611524474,-0.0010032538827190775
1980218000000,0.85881666343055,-0.1734399035338931,-0.0010033087536377092
1980258000000,0.865437541049577,-0.17581312049232556,-0.0010033012433201018
1980302000000,0.8718745917607625,-0.17813829557515035,-0.0010026854116388928
1980303000000,0.8782760067700973,-0.18047956403598467,-0.001002147707173013
1980344000000,0.8848867537113634,-0.1829253888382618,-0.0010023186977723662
1980360000000,0.8914340453394478,-0.18536522252962506,-0.0010025588227609225
1980396000000,0.8981768838789603,-0.18787657500121085,-0.0010036938092164265
1980441000000,0.9051694301302995,-0.19045686800183456,-0.0010040375968280932
1980486000000,0.9119673735929723,-0.19293618630879467,-0.0010036505262184837
1980530000000,0.9187573435998447,-0.19538876543548636,-0.0010031475439402082
1980530000000,0.9257090251475018,-0.19787666255930791,-0.0010032547340008482
1980574000000,0.932532737947133,-0.20030859996783906,-0.0010036249509823812
1980592000000,0.9393602103869546,-0.20273416635007568,-0.0010035490792376124
1980640000000,0.9460787546524667,-0.20511100334273116,-0.0010034928831807455
1980685000000,0.9524915740454413,-0.20735643578530027,-0.001003379137699701
1980730000000,0.9589114405252523,-0.20958087538936068,-0.001003175667306424
1980730000000,0.9657202733030219,-0.21191870505648014,-0.0010026076067805555
1980771000000,0.9723564703565983,-0.21421095075112395,-0.0010019772595593612
1980793000000,0.9790358560619306,-0.2165311850059518,-0.0010022664790637868
1980834000000,0.9860094689865978,-0.2189557094490967,-0.001003427804931848
1980882000000,0.9928537069365494,-0.22131554610281318,-0.001003736641124034
1980921000000,0.9997056734527108,-0.22365798050585264,-0.0010039201669187758
1980965000000,1.0067801376834655,-0.22605670051845567,-0.0010039324483111095
1980965000000,1.0136541143750661,-0.22837002348325358,-0.001003385748188701
1981008000000,1.0205019121832632,-0.23066348555853955,-0.0010036137210812472
1981027000000,1.0275770119771415,-0.23301568884272333,-0.0010038028786663877
1981069000000,1.0344485295515138,-0.2352877537641713,-0.0010037055478102526
1981110000000,1.0413272081487606,-0.2375478075017132,-0.0010037582985693884
1981151000000,1.048084792122694,-0.23975107857041209,-0.001002521877487693
1981194000000,1.0545466442549036,-0.2418436043707514,-0.001003302239505708
1981194000000,1.0610194313653387,-0.24392459242076042,-0.0010027440663009542
1981239000000,1.0677287016722883,-0.24608067511557075,-0.0010028337891925948
1981260000000,1.0742539896971366,-0.2481962304606723,-0.0010023108880125933
1981303000000,1.0808933912853407,-0.25036774678664714,-0.0010024734086941482
1981346000000,1.087976407561135,-0.25269133422575196,-0.0010035824446942149
1981390000000,1.0948808565104025,-0.2549585620879118,-0.0010038598100793675
1981434000000,1.1017851938724252,-0.2572275477164164,-0.0010040176123199546
1981434000000,1.1088876987961267,-0.2595573007024208,-0.0010037419932381123
1981477000000,1.1157749822502978,-0.2618058791972141,-0.0010031173760097628
1981493000000,1.122645617357198,-0.26404152048598284,-0.0010041297489780977
1981532000000,1.1297442429411038,-0.2663389868595955,-0.0010038314159335551
1981576000000,1.1366371880124624,-0.26855842448178396,-0.0010037705847185698
1981620000000,1.1435355659946271,-0.2707676397201156,-0.0010037642156612188
1981664000000,1.150467822754853,-0.27297653751560647,-0.0010020971076474781
1981664000000,1.1570235018957993,-0.2750680977019123,-0.0010037821206784307
1981711000000,1.1634939516126352,-0.2771522449830594,-0.0010030357071582896
1981727000000,1.170221897963655,-0.2793466120280019,-0.0010022800390307347
1981763000000,1.1768412509013453,-0.2815392101935438,-0.0010024252278682082
1981807000000,1.183633330469027,-0.2838076323324807,-0.0010032285591377206
1981853000000,1.1906100838848377,-0.2861519816339891,-0.0010042558277320382
1981904000000,1.1973829092589259,-0.28848772530750905,-0.0010037620800210784
1981904000000,1.204289998457979,-0.29092667168039593,-0.0010039846549430263
1981951000000,1.2114580898470433,-0.2935041785049541,-0.0010045608661410563
1981960000000,1.218337496529951,-0.2960091262522719,-0.0010032079409152753
1982001000000,1.2251584246411629,-0.2985142944660454,-0.0010038850574871604
1982046000000,1.2321790735912754,-0.3011077340217914,-0.0010038025129134737
1982088000000,1.2389949749639926,-0.3036337944098577,-0.0010036411654261168
1982133000000,1.2458106168862864,-0.30616889970877986,-0.001003437215427852
1982133000000,1.252802585675173,-0.3087718487054998,-0.0010032043180298357
1982178000000,1.2595914226353904,-0.31128528869865707,-0.0010027895488867455
1982193000000,1.266336625216099,-0.3137787139714052,-0.0010027308744628358
1982229000000,1.2733060739680488,-0.3163508579201127,-0.0010035526976693541
1982278000000,1.280108972177944,-0.3188520680781263,-0.0010035682388400864
1982322000000,1.2869178191509962,-0.32134638815513705,-0.001003422075478086
1982367000000,1.293655542364606,-0.32381173969404603,-0.0010046101056909694
1982367000000,1.2999781874748444,-0.3261443220303793,-0.0010039338900340034
1982409000000,1.3063386264429238,-0.32849099692766454,-0.0010032271159461717
1982427000000,1.3129906706045325,-0.3309226022491222,-0.0010017582841925048
1982471000000,1.3196322840796397,-0.3333179216310775,-0.001001833541159458
1982508000000,1.3264291960495893,-0.33574340926243185,-0.001003476348228026
1982556000000,1.333453510059522,-0.33822726820044374,-0.001003493036743821
1982597000000,1.3402806443125121,-0.34062036597127077,-0.0010035154541303583
1982597000000,1.347114878340364,-0.3429956511139758,-0.0010032847416582037
1982642000000,1.354157215636117,-0.34541731702126943,-0.0010027183705161938
1982660000000,1.360960020506644,-0.34773813084033867,-0.0010027108171047627
1982703000000,1.3677728643350398,-0.350046111697904,-0.001003109784833825
1982751000000,1.3748393344417236,-0.3524212021020522,-0.0010034619766131417
1982795000000,1.381707289060089,-0.35470956821549393,-0.0010037240479357154
1982795000000,1.3885844778933891,-0.35698196168758967,-0.0010038849014924883
1982841000000,1.395390269102786,-0.3592185636809941,-0.0010040454670096934
1982860000000,1.4018894547423584,-0.3613602230413449,-0.001003762461189453
1982902000000,1.4083788541718334,-0.36350956232215526,-0.001003496356448072
1982946000000,1.4152589600146765,-0.3657906128840673,-0.001001458213410411
1982984000000,1.422114955901702,-0.3680486772464006,-0.001003881907026511
1983030000000,1.4290069526858944,-0.37031575930673727,-0.0010036764728524085
1983030000000,1.436119418332298,-0.3726605805558106,-0.0010037399534616812
1983075000000,1.4430214731186377,-0.3749477881998188,-0.001003465113792689
1983093000000,1.4499199184594944,-0.37724232405659336,-0.0010030121239944755
1983137000000,1.4568250843546608,-0.3795460502891423,-0.0010026535283302607
1983182000000,1.4633999202331562,-0.3817353407554569,-0.0010030648092512924
1983226000000,1.469879154583376,-0.38390704627357886,-0.0010035352306757943
1983263000000,1.4767901986442544,-0.3862416134068792,-0.0010028455887834617
1983263000000,1.483678557465313,-0.38858739405605985,-0.0010039421441707698
1983317000000,1.4905668250235298,-0.39094574332686993,-0.0010041180027723536
1983327000000,1.497639372148013,-0.3933700653167649,-0.0010030593191749128
1983363000000,1.504233991028017,-0.3956214778722467,-0.0010047477863572712
1983412000000,1.510712022099923,-0.39785054741035814,-0.0010030829321988274
1983457000000,1.5175600436298022,-0.40020750658492743,-0.001001241850711869
1983504000000,1.5244194152551134,-0.40255760264421714,-0.001003761238215141
1983504000000,1.5312848687705258,-0.40490851168238307,-0.0010038235989727473
1983549000000,1.538374850924054,-0.4073428882169155,-0.0010035787476809083
1983560000000,1.5452522795206738,-0.4097199277494306,-0.001003169229800857
1983602000000,1.5521080808124967,-0.4121046822127478,-0.0010027656945430716
1983646000000,1.5589158596152364,-0.41448707950909436,-0.0010019069224836002
1983685000000,1.565436657424661,-0.4167633621039522,-0.0010030918292800554
1983731000000,1.5718927997857692,-0.41903342783437114,-0.0010036688925473582
1983731000000,1.5787226933424932,-0.42144971995733216,-0.001002947549231175
1983773000000,1.5855643774280035,-0.4238768249386082,-0.0010040754375502774
1983793000000,1.5924184968357795,-0.4263186376300959,-0.0010041043531339479
1983833000000,1.5996370607852222,-0.42889048510963773,-0.0010024665709130638
1983877000000,1.6064859783833956,-0.43133024380843676,-0.0010027503555095248
1983921000000,1.61331294424321,-0.43380253014648745,-0.0010043225753391845
1983968000000,1.620370817859926,-0.4364047358292662,-0.0010038493995893558
1983968000000,1.627209838731689,-0.4389666571290052,-0.0010037692744648864
1984005000000,1.634038355904789,-0.44156546426726845,-0.001003583633874653
1984027000000,1.641020186832976,-0.44425547174326363,-0.001003224270589638
1984067000000,1.647801055376552,-0.4468783685118005,-0.0010028811142596475
1984111000000,1.6545342761387982,-0.44950096772928955,-0.0010029149252016
1984159000000,1.6613386901429756,-0.45216599044102435,-0.0010031288427714453
1984203000000,1.6677719099534503,-0.45468617218057317,-0.0010034761914187139
1984203000000,1.6741391969725308,-0.45719228867734046,-0.0010039511668653127
1984251000000,1.6809465575627256,-0.45988384277166117,-0.0010037950007404095
1984260000000,1.6877021227654025,-0.46256364939571026,-0.0010040955918057329
1984302000000,1.6944556368747723,-0.4652404634095408,-0.0010033443493689016
1984346000000,1.7012243138726821,-0.46793762963581603,-0.0010031942015698465
1984393000000,1.7076048269748982,-0.47049434711092175,-0.001003360042864436
1984393000000,1.7139331898987833,-0.47303209527849677,-0.001003643442106069
1984437000000,1.7206554979316455,-0.47572301649182774,-0.0010036154655328512
1984460000000,1.7273732784216331,-0.47839563602410523,-0.0010035131751692968
1984501000000,1.734111489420931,-0.4810643707515664,-0.0010033668571382097
1984543000000,1.741084772155337,-0.4838222396077546,-0.001003189965047023
1984588000000,1.7478206322819672,-0.4864990365481834,-0.001002779515456985
1984629000000,1.7545107597311178,-0.48918248982121504,-0.0010027728526800055
1984629000000,1.7610967347918298,-0.49184118593166565,-0.0010038169743932686
1984675000000,1.7673921383219702,-0.4943817908485447,-0.0010038950304469552
1984693000000,1.7737372446391162,-0.49695788423708287,-0.0010041035051961862
1984734000000,1.780510991060805,-0.49972292859932194,-0.0010035875800493976
1984779000000,1.787236532172906,-0.5024734275323779,-0.0010037309251085674
1984826000000,1.7939458166250402,-0.5052163493623967,-0.0010032835854706691
1984827000000,1.8005616211757303,-0.507930244928988,-0.0010033932339710387
1984871000000,1.8068454659299695,-0.5105263924882176,-0.0010038096473322065
1984893000000,1.8131486904231529,-0.5131285300359394,-0.0010036118268621393
1984935000000,1.8199103055637005,-0.5159181659410459,-0.0010033587018090859
1984975000000,1.826612576063267,-0.5186746799933689,-0.0010034345427165463
1985023000000,1.8333197308887423,-0.5214205659703169,-0.0010033157314240891
1985069000000,1.8402380988642282,-0.5242407862594377,-0.0010028893270133746
1985069000000,1.8469124180207077,-0.5269597613081644,-0.0010028996946320513
1985118000000,1.8535829196987925,-0.52968043547208,-0.0010030605367376405
1985127000000,1.8604592428182314,-0.5324798519703856,-0.0010036462613234182
1985169000000,1.8671683086917201,-0.5351866193793551,-0.00100381402646205
1985212000000,1.873887925704601,-0.5378738321671743,-0.0010040825162578176
1985257000000,1.880828020853387,-0.5406324125313172,-0.0010039973552269793
1985300000000,1.8875772822030772,-0.5433121551611734,-0.0010034971030537243
1985300000000,1.8943010486481633,-0.5459842173548153,-0.0010037009911410474
1985344000000,1.9010084713603113,-0.5486492004380578,-0.001003460829058337
1985360000000,1.9073394744358134,-0.5511672320348182,-0.0010036506238672444
1985403000000,1.9136777440888413,-0.5536855763151902,-0.001003638485316042
1985447000000,1.919885656178181,-0.5561496927659613,-0.0010035300682971968
1985491000000,1.9257869153505178,-0.5584902964822468,-0.0010034404005824261
1985534000000,1.9316870077967105,-0.5608334054890298,-0.0010031616675517732
1985534000000,1.9379933832401366,-0.5633472686861931,-0.0010023697615967157
1985576000000,1.9442522174540855,-0.5658985468970806,-0.001001931678557437
1985593000000,1.9505401507328617,-0.5685262386741903,-0.001002054028525337
1985639000000,1.9569648242970759,-0.5712595720506902,-0.001002841758711917
1985684000000,1.9632280224341656,-0.5739341408372298,-0.0010034735238336062
1985729000000,1.969489825019514,-0.5766177607184512,-0.001003735120448452
1985729000000,1.9757357814164311,-0.5793027559475344,-0.0010024100600398017
1985768000000,1.9816254393609978,-0.581844458939376,-0.001004460991902819
1985792000000,1.9874694244459348,-0.5843751446225824,-0.0010037937736316303
1985834000000,1.9936931691289936,-0.5870616128103471,-0.001001805412483115
1985879000000,2.000085710502136,-0.589791003008803,-0.0010019887496292984
1985920000000,2.0067200323195733,-0.5925998818024173,-0.0010035955508986769
1985962000000,2.013283089192318,-0.5953681225399647,-0.0010035282872144086
1985962000000,2.0195477157159347,-0.5980007142859919,-0.0010034145330042564
1986010000000,2.0258141568468973,-0.6006275513207774,-0.0010030863162706523
1986028000000,2.0320542950334106,-0.6032308075606174,-0.0010037819207075575
1986068000000,2.038007166457056,-0.6056953250374979,-0.0010030236448544186
1986114000000,2.043858907882924,-0.6081136430553608,-0.0010035635484055665
1986158000000,2.050125801899439,-0.6107043680973997,-0.0010028540426875072
1986203000000,2.0563951710129356,-0.6133075309195305,-0.00100402831909285
1986203000000,2.0626705761964,-0.6159180271310762,-0.001004050656659882
1986245000000,2.0687920201505388,-0.6184733561709794,-0.0010019894596313694
1986260000000,2.0742636875605025,-0.6207910676066932,-0.0010016231124803134
1986302000000,2.0795953702711247,-0.6230885312227987,-0.0010043322490158914
1986345000000,2.085240962044575,-0.6255539367077302,-0.0010012291875946162
1986387000000,2.091120548322785,-0.628115802441345,-0.001001691843762538
1986435000000,2.0973495048701496,-0.6307965906484418,-0.0010019609089193283
1986435000000,2.103539842249577,-0.633438178815611,-0.0010034164466346945
1986484000000,2.1095928405357673,-0.6360104793637087,-0.0010028729275952282
1986493000000,2.1158271636328996,-0.6386610807048919,-0.0010032998563356196
1986540000000,2.1218867457509645,-0.6412330979763257,-0.0010023858590005805
1986583000000,2.127134491329075,-0.6434217623545113,-0.0010018508148467026
1986626000000,2.13192839406521,-0.6453511512474531,-0.0010022826841015846
1986668000000,2.1370172892430026,-0.647304064501944,-0.001002613874835405
1986668000000,2.1423801574054675,-0.649321127963774,-0.0010022329966252429
1986713000000,2.148258108898167,-0.6515410946902146,-0.0010025370394613799
1986729000000,2.154490894936455,-0.6539234734372532,-0.0010033774948494563
1986768000000,2.160681548951343,-0.6562720231439224,-0.0010038814636888424
1986811000000,2.1669293926891426,-0.6586021703926821,-0.0010040888752052834
1986855000000,2.173521429675415,-0.6610151896841793,-0.0010027075257002561
1986899000000,2.1799885407281034,-0.6633288647962168,-0.0010019238191656017
1986899000000,2.1865073390237995,-0.6656191703298922,-0.0010015624523451276
1986941000000,2.19314580818353,-0.6679207794803793,-0.0010037260297498588
1986961000000,2.1995629645438206,-0.6701352278390559,-0.0010036675172969273
1987000000000,2.205985105831296,-0.6723422184153792,-0.001003719769435387
1987049000000,2.2123096937294178,-0.6745033793100793,-0.0010033039132032635
1987092000000,2.218297854350069,-0.6765362779669276,-0.0010027939586732676
1987139000000,2.224271656094668,-0.6785579428735585,-0.0010026970022759506
1987139000000,2.230360739939762,-0.6806182333361288,-0.0010028101574832866
1987182000000,2.23630200325108,-0.6826253772128191,-0.0010033324400093267
1987193000000,2.2422571241553992,-0.6846318819612557,-0.0010033697213317934
1987234000000,2.2487164768136445,-0.6868064814439668,-0.0010023798150541642
1987280000000,2.2554798004069716,-0.689103306578254,-0.0010030440538781708
1987325000000,2.262403913212311,-0.6915007730596501,-0.001004110196736973
1987369000000,2.269339060484533,-0.6939535446509109,-0.0010026616416784727
1987369000000,2.275955477561337,-0.6963460049553601,-0.0010042225958188204
1987411000000,2.2824690998445116,-0.6987448902414939,-0.0010032937335585565
1987427000000,2.2889509186417403,-0.7011657319816083,-0.0010038100312338982
1987469000000,2.29500120352694,-0.7034482321447199,-0.0010038417087981505
1987514000000,2.3010087269161152,-0.7057404035060739,-0.0010037494893399349
1987557000000,2.306972560433732,-0.7080403510796952,-0.001003548796023209
1987600000000,2.312520730152899,-0.7101967132074107,-0.0010034281136972224
1987600000000,2.318010315607462,-0.7123475863277771,-0.0010031704019778098
1987638000000,2.3236156938518078,-0.7145655872420165,-0.0010038951646353135
1987658000000,2.3289877192597515,-0.7167245291533803,-0.001003224178206058
1987702000000,2.3343474192148626,-0.7189094892951261,-0.0010034584412669523
1987748000000,2.339711175264715,-0.7211231588180206,-0.0010038902831159303
1987792000000,2.3446413656890024,-0.7231688874159751,-0.0010039793687650171
1987836000000,2.3494820242338887,-0.7251968176286719,-0.0010042127698184841
1987836000000,2.3543229002158346,-0.7272425768024914,-0.001004426105587295
1987878000000,2.3586978726238024,-0.7290986223254807,-0.0010044566851244094
1987893000000,2.362992384408912,-0.7309329904992092,-0.0010037585629337382
1987941000000,2.367336651874432,-0.7328007153745714,-0.0010046246664493844
1987984000000,2.371499033642548,-0.7346126861705672,-0.0010034064933120528
1988029000000,2.375614577755267,-0.7364177463213212,-0.0010040220059793457
1988029000000,2.3797662216689797,-0.7382530595909881,-0.0010039587556134079
1988074000000,2.383787113226841,-0.7400481999636451,-0.001003799346324729
1988093000000,2.387803919821408,-0.7418580117643077,-0.001003654482661001
1988134000000,2.391626923596367,-0.7435957573535409,-0.0010030446050827944
1988178000000,2.394753123967871,-0.7450191570129718,-0.001003079284902328
1988222000000,2.3970718627489718,-0.7460738778135156,-0.0010030273864966022
1988252000000,2.3986153099359524,-0.7467735606026257,-0.0010029861437591964
1988278000000,2.3992918690807232,-0.7470782906802342,-0.0010029172750316978
1988320000000,2.399384352665953,-0.7471187288759308,-0.001003314254359313
1988369000000,2.3993860056940735,-0.7471182900421958,-0.0010033698628909606
1988369000000,2.39938740658344,-0.7471181528327909,-0.0010033673965138372
1988412000000,2.3993887124142055,-0.7471179749910574,-0.0010033644055698551
1988427000000,2.399389972702154,-0.7471177526059304,-0.0010033617195407477
1988460000000,2.399391123924563,-0.7471175036206634,-0.0010033594524697792
1988502000000,2.3993922133745116,-0.7471172262282859,-0.0010033575230874725
1988547000000,2.399393278695301,-0.7471169143488848,-0.00100335586121187
1988591000000,2.399394262976064,-0.7471165890506403,-0.0010033545287120409
1988635000000,2.3993952033765815,-0.7471162438488568,-0.0010033534427462444
1988635000000,2.3997243589319988,-0.747262602785836,-0.0010022374882958617
1988686000000,2.4006551940112426,-0.7476766948961117,-0.0010022827764943412
1988693000000,2.4021854304596553,-0.7483637113777085,-0.0010023599840979086
1988735000000,2.4043765447753316,-0.7493636350172679,-0.0010024690326648697
1988781000000,2.4069788208947704,-0.7505806242765486,-0.0010029279160892607
1988828000000,2.4097170455009946,-0.7518914759131261,-0.0010028231788197228
1988828000000,2.4126444456041245,-0.7533251028650113,-0.0010027636227851085
1988872000000,2.41547792024305,-0.7547446931155678,-0.0010027136542353522
1988893000000,2.4182585510018098,-0.7561706982543107,-0.0010020354435922411
1988937000000,2.4211198394440907,-0.7576752951457514,-0.0010020909012077306
1988970000000,2.4239272238767056,-0.7591883140653471,-0.0010021181457797804
1989017000000,2.4268136720942795,-0.7607777894784592,-0.0010021840977004794
1989064000000,2.4299900659246183,-0.7625602004676635,-0.0010023585217329607
1989064000000,2.4332540338196798,-0.7644195581094342,-0.001002552220011322
1989109000000,2.43670431911492,-0.7663993884419655,-0.0010036008003857892
1989127000000,2.4403276335122475,-0.7684759068296992,-0.0010038234979407867
1989165000000,2.443892217235329,-0.7704991191212214,-0.0010041134408556203
1989211000000,2.4474652021490497,-0.7725043597626005,-0.0010039407440580843
1989257000000,2.4511954957146203,-0.7745698480407694,-0.0010015846404434967
1989301000000,2.454774331332396,-0.7765172520055054,-0.001004112464144804
1989301000000,2.4583250484509716,-0.7784137282384954,-0.001002770460686326
1989344000000,2.461975839918632,-0.780315364206245,-0.0010030545125460089
1989360000000,2.4654179371053995,-0.7820545047424358,-0.0010032666174402197
1989404000000,2.468713683373204,-0.7836619169223942,-0.0010034676576938621
1989452000000,2.472229623721476,-0.785301098464917,-0.0010021239912368952
1989494000000,2.476010490095219,-0.7869767042759156,-0.001001957793215373
1989494000000,2.4802118143057656,-0.7887452861191926,-0.001002006117227467
1989539000000,2.4848494124086047,-0.7906022772385398,-0.0010038393745485236
1989560000000,2.4892623648493517,-0.7923053736522917,-0.001002383416721559
1989602000000,2.493635374077132,-0.7939255251055011,-0.0010020413745949579
1989644000000,2.4978217761662207,-0.7954127690173687,-0.001003029323597044
1989688000000,2.501690193062934,-0.7967007143058173,-0.0010021959572621107
1989732000000,2.505690377924643,-0.7979343549514729,-0.0010025738938424095
1989732000000,2.5102221890351384,-0.799214958493912,-0.001001812352278298
1989777000000,2.51539589495539,-0.8005613244020784,-0.0010019993794138232
1989793000000,2.521165894057282,-0.8019435889823359,-0.001002179525549627
1989838000000,2.527704779953685,-0.8033494336817273,-0.0010024576911160585
1989881000000,2.5344124782968427,-0.8046196994661152,-0.0010024525048372285
1989926000000,2.54134666094442,-0.8057360373436016,-0.001003115897194349
1989970000000,2.5485265248297013,-0.806678803770947,-0.0010036650760477973
1989970000000,2.555515784445806,-0.8073947559802709,-0.0010036412722155934
1990013000000,2.5624846552317937,-0.8079100962572486,-0.001003557910185953
1990027000000,2.5696442320103436,-0.808244339156173,-0.0010043094981478512
1990070000000,2.5765902559687746,-0.808412635814276,-0.0010034476760974673
1990114000000,2.5836486035950914,-0.808420764890918,-0.0010036010899565732
1990159000000,2.5909222871727136,-0.8082524440939655,-0.0010024030114513319
1990206000000,2.597927084580624,-0.8079158451657206,-0.0010035312531193018
1990206000000,2.60493697753677,-0.8074032450404129,-0.0010032629675352511
1990253000000,2.6118176498898014,-0.8067307594492972,-0.0010031905691155196
1990260000000,2.618371840226336,-0.8059334291220558,-0.0010033413223919235
1990301000000,2.624908150715138,-0.8049844899158712,-0.0010033749932167602
1990345000000,2.6318847561051655,-0.803809898020803,-0.0010019868775742041
1990388000000,2.638742777196066,-0.8025135554715332,-0.0010019535957473714
1990433000000,2.6455718867294307,-0.8010742411922449,-0.0010019658942964187
1990433000000,2.6526809211448805,-0.7994265565267444,-0.0010025809636071518
1990470000000,2.6595651070050157,-0.7977017764222782,-0.0010024733327533113
1990493000000,2.666423503821832,-0.7958556398185237,-0.0010025004212250894
1990537000000,2.673444401530762,-0.7938259722190477,-0.0010026174656196235
1990581000000,2.680224041679407,-0.7917214363546348,-0.0010029188625648618
1990624000000,2.686966877233731,-0.7894852589563558,-0.001003294351523687
1990668000000,2.6938913317456255,-0.7870467242769899,-0.0010039264120930633
1990668000000,2.700586092195452,-0.7845701567350793,-0.0010040769691086887
1990708000000,2.707235759747821,-0.7819913898086549,-0.001003998802724882
1990727000000,2.7139926603142595,-0.7792514975282135,-0.0010036339821336282
1990766000000,2.7204758699428475,-0.7765152896438134,-0.0010031570609933156
1990810000000,2.72694139361962,-0.7736412264971251,-0.0010039253023496897
1990855000000,2.7335966756307015,-0.7705624470236716,-0.0010035932257880693
1990904000000,2.7400404911580742,-0.7674908313848576,-0.0010031832538739613
1990904000000,2.7464538485035086,-0.7643453522884226,-0.001002730874467228
1990948000000,2.7530449555450422,-0.7610249131957894,-0.0010023981215926125
1990959000000,2.7594191894442983,-0.7577369560333759,-0.001002271930202893
1990998000000,2.7657677183457956,-0.7543861151159875,-0.0010023397795538742
1991042000000,2.7720259776863716,-0.7510083275498673,-0.0010026290909052014
1991084000000,2.7780463483286755,-0.7477093073957732,-0.0010033349815118317
1991128000000,2.784056018734122,-0.744421637445099,-0.0010038647223991927
1991129000000,2.7905093041761773,-0.7409025013019662,-0.0010034061115877409
1991173000000,2.7969274697740913,-0.7374234786034437,-0.0010044929935565904
1991193000000,2.8033425059098307,-0.7339679921970805,-0.0010040395216491076
1991238000000,2.809869592728647,-0.7304641347743948,-0.0010036204192908627
1991281000000,2.8161255162879484,-0.7271283358326536,-0.0010035854495043378
1991324000000,2.8222216362991275,-0.7238764036743952,-0.0010036724448092699
1991367000000,2.8285552204193958,-0.7204795549955908,-0.0010014350108787373
1991367000000,2.8348481905618312,-0.7170605291562127,-0.0010032022883976408
1991409000000,2.841118456387069,-0.7135838678422723,-0.001002803630875921
1991427000000,2.84729415605235,-0.7101000598397075,-0.0010027559742116464
1991464000000,2.8526092778150107,-0.7070885593444214,-0.0010029478845274657
1991504000000,2.857396310904361,-0.7043552168773435,-0.0010024424785170342
1991548000000,2.8626184798196666,-0.7013193248650096,-0.0010022287159539775
1991589000000,2.8683390758909506,-0.6979389317659979,-0.001002462134976987
1991635000000,2.87451950756427,-0.6942420520701388,-0.0010036055608213766
1991635000000,2.8805996049486757,-0.6905683667957808,-0.0010018354711803339
1991681000000,2.8859772692709775,-0.6872665298152691,-0.0010012903198598037
1991693000000,2.891008648680301,-0.6841057331197657,-0.001004080444252698
1991734000000,2.8962023055622583,-0.6807478795160196,-0.0010022583421112827
1991781000000,2.9013728021822986,-0.677331324738003,-0.0010019875248273788
1991826000000,2.9066273217215333,-0.6737657315710366,-0.0010014012806210289
1991868000000,2.9118683153027103,-0.6701114596419376,-0.0010023410212113351
1991868000000,2.916596874732984,-0.6667702325867592,-0.0010036233402006788
1991917000000,2.921255971368788,-0.6634656549904571,-0.0010032952528354795
1991927000000,2.9263176456430715,-0.6598582049246822,-0.0010016756374100523
1991965000000,2.931756484555715,-0.6559451094361287,-0.001002633103899659
1992010000000,2.9375161922637645,-0.6517341567930377,-0.001002544837866496
1992054000000,2.9434743207713527,-0.647306701792391,-0.001002009136588846
1992103000000,2.9493195119171607,-0.6429782357232743,-0.001003145085967664
1992103000000,2.9551918375638215,-0.638651980330564,-0.0010034324618536337
1992146000000,2.9611601176853335,-0.6342773059163589,-0.0010037386939097913
1992160000000,2.9668848298057506,-0.6300962848158512,-0.0010031643355796621
1992200000000,2.9725902442199397,-0.6259311274047779,-0.0010029669911167521
1992245000000,2.9785667549319403,-0.6215756016009073,-0.0010040283552715246
1992289000000,2.984432931734556,-0.6173082159129533,-0.0010040039297443543
1992334000000,2.9902768979488346,-0.6130513698976257,-0.0010034248042719643
1992334000000,2.996239454233498,-0.6087133672120889,-0.0010026804038720458
1992374000000,3.0021057999102045,-0.6044603741871453,-0.0010035348423438756
1992393000000,3.0079974970916714,-0.600209906727219,-0.0010033165441421382
1992434000000,3.014098986363336,-0.5958359080583681,-0.0010029765957487759
1992478000000,3.020048128709928,-0.5916110334305529,-0.0010027653160450123
1992522000000,3.0260207082157717,-0.5874086941689782,-0.0010028050606276546
1992561000000,3.032069242373469,-0.5831720051834635,-0.0010029253718581571
1992561000000,3.037966972124888,-0.579002812893455,-0.0010033026949676505
1992603000000,3.0438683219340548,-0.5748005792197152,-0.0010036954701200113
1992627000000,3.050001635298804,-0.5704103446517368,-0.0010033992315009524
1992667000000,3.0560133598572077,-0.5661276000045635,-0.0010041344306264653
1992712000000,3.061985162196811,-0.5619156962300034,-0.001004733121527386
1992756000000,3.0679906288314966,-0.5577312180656936,-0.0010028232938999668
1992799000000,3.073716584629214,-0.5537968824903964,-0.0010047682603344169
1992799000000,3.079383356721324,-0.549950084623084,-0.001004089687829151
1992844000000,3.0854186185897827,-0.5458913828909953,-0.001002260422940833
1992860000000,3.091464199659928,-0.5418520741078887,-0.0010033663262325292
1992903000000,3.0975287509781104,-0.537827617984305,-0.001002935746954873
1992948000000,3.10381142690152,-0.5336946524338507,-0.0010027118247452026
1992990000000,3.1099374593235973,-0.5297102167937828,-0.0010027054552571545
1993033000000,3.1160889718880664,-0.5257539411930804,-0.0010029136626542277
1993033000000,3.122026050751717,-0.5219748011122883,-0.0010023790552474848
1993081000000,3.127696784143852,-0.5183967136571348,-0.0010034075872105107
1993093000000,3.1335417631241524,-0.5147461770810784,-0.001004222202719552
1993133000000,3.139768167213027,-0.5109052091209461,-0.0010032156780118255
1993175000000,3.145960996301334,-0.5071452649443304,-0.0010039802266557964
1993218000000,3.1521579107839766,-0.5034497001531006,-0.0010032547437251321
1993265000000,3.1585322343003233,-0.4997086270868339,-0.001003455488104061
1993265000000,3.1647816922338277,-0.49610752289860705,-0.0010032288787474065
1993307000000,3.1711499188573207,-0.4925122122518491,-0.0010039068177740487
1993327000000,3.1777519065489632,-0.4888627850059815,-0.0010033787400425785
1993362000000,3.1841953913123113,-0.4853750044877917,-0.0010028744741999024
1993411000000,3.1906744605283497,-0.48194062522239806,-0.0010026379149978178
1993453000000,3.197358386878486,-0.4784631226780713,-0.0010025633668671978
1993497000000,3.203870040955824,-0.4751229565262014,-0.001002763484498681
1993497000000,3.210406201751214,-0.4718176259946735,-0.0010031915278163467
1993544000000,3.217167848934667,-0.4684490246273451,-0.0010038522640410247
1993560000000,3.223753799600082,-0.4652189622940484,-0.0010043855410064063
1993596000000,3.230356320272389,-0.46203054401424243,-0.00100465994817164
1993643000000,3.2371634337322623,-0.4587951985363698,-0.0010043305986382617
1993686000000,3.2437411353633623,-0.4557085313159013,-0.0010037625222663882
1993732000000,3.2503082924677456,-0.452663683287859,-0.0010045763259125713
1993732000000,3.257131293628102,-0.44954891108976913,-0.0010044641665781819
1993774000000,3.2637783888929763,-0.4465584675727535,-0.0010038744887114238
1993793000000,3.270445998590506,-0.44360329383069336,-0.0010032911504185386
1993833000000,3.277312295404104,-0.44059848640289506,-0.0010027742660726167
1993880000000,3.2839930189517617,-0.4376995241253816,-0.0010025630363570612
1993930000000,3.290688427889044,-0.4348188705277062,-0.0010025791963678664
1993930000000,3.297105236442844,-0.43208212440537935,-0.0010030427332388715
1993973000000,3.303319384523388,-0.4294635294603723,-0.0010031603231832678
1993993000000,3.3096588428479983,-0.4268157776441135,-0.0010036694255662927
1994038000000,3.316193237751763,-0.42411692936226486,-0.0010042002431906623
1994080000000,3.3227624135996496,-0.42144257063039187,-0.0010032876112424233
1994124000000,3.329516084501224,-0.4187198619925034,-0.0010031302831689931
1994165000000,3.336454319651226,-0.4159428752216363,-0.001004059314690775
1994165000000,3.3431906527267543,-0.41326628138917,-0.0010040009720698496
1994207000000,3.3499295114518497,-0.4106081893113956,-0.0010039671597701985
1994229000000,3.3565919682884164,-0.40800340263501433,-0.0010032419127835313
1994261000000,3.362936779519067,-0.40553649794594193,-0.0010034543398967921
1994306000000,3.3693169546843444,-0.4030778312181202,-0.0010030577633284507
1994347000000,3.3761613056397572,-0.4004656982755836,-0.0010027129849656223
1994391000000,3.3829566259277235,-0.3978861116908491,-0.0010026164377563117
1994414000000,3.3897602331032557,-0.3953127922525248,-0.001002716444260629
1994447000000,3.3967528782559717,-0.39266885316653566,-0.0010029845769955956
1994490000000,3.4035385247620233,-0.39008971945245324,-0.0010034993044155567
1994532000000,3.41032387540727,-0.3874984640329903,-0.001003857787905446
1994532000000,3.4169920845425126,-0.3849405319254395,-0.0010016564644865361
1994576000000,3.423305985542823,-0.38252500404319806,-0.0010033627883650718
1994593000000,3.429652179263648,-0.38008301916435244,-0.0010034545491035309
1994634000000,3.436065579979688,-0.37760181068768073,-0.0010022912038686015
1994677000000,3.442331190110202,-0.37518273430633503,-0.0010014494845875521
1994721000000,3.448736703427429,-0.3727346388258911,-0.0010024443723074088
1994765000000,3.455334508666754,-0.3702401342529678,-0.0010024562382635778
1994765000000,3.4618800148586,-0.36777910478055054,-0.0010022343278875863
1994807000000,3.468610917240986,-0.3652425960110456,-0.001002690990645632
1994827000000,3.4752168900052447,-0.36273377794966266,-0.0010025440267906055
1994866000000,3.481498691190694,-0.3603430301306078,-0.0010025482865458277
1994911000000,3.487829751948387,-0.35791217494607247,-0.0010026926073495104
1994955000000,3.494556260088696,-0.355313510554958,-0.0010030283507464592
1994981000000,3.5012785391113583,-0.35271366980842045,-0.0010035862529050033
1995026000000,3.508033225355085,-0.35007797717039685,-0.0010040883203118398
1995071000000,3.5146874383302458,-0.34746151263107466,-0.0010040917908875728
1995071000000,3.5209673741763,-0.34498410211215746,-0.0010035144261759076
1995115000000,3.5272369896723026,-0.34248418425461297,-0.0010036898493051075
1995126000000,3.5337220226666957,-0.3398679993904544,-0.0010015224601776333
1995161000000,3.540131620833266,-0.33723931242320765,-0.0010018570640300296
1995213000000,3.546702846232742,-0.33453494305345327,-0.0010030827058033868
1995258000000,3.553200597346171,-0.3318522173019662,-0.0010029597642630846
1995302000000,3.559406277132492,-0.32927400710901417,-0.0010030594055081034
1995302000000,3.5656705570105345,-0.32666433809036344,-0.001002819192915838
1995345000000,3.571776406964817,-0.3241150974608035,-0.001002601627855454
1995360000000,3.5775986776067388,-0.3216806788749913,-0.0010025558355565845
1995404000000,3.583424287784603,-0.31924208685640587,-0.0010026742767693282
1995447000000,3.5898235527155897,-0.31656006524926317,-0.0010024792446224166
1995496000000,3.596510536441461,-0.3137529073509653,-0.0010036069766395893
1995496000000,3.60323328898482,-0.310940228121381,-0.0010040323323723017
1995536000000,3.6098565600503876,-0.3081785226930788,-0.001001908038462642
1995560000000,3.6158120691179443,-0.3057239486456197,-0.0010018093753040025
1995602000000,3.621534006680206,-0.3034103675872313,-0.0010046800932203143
1995646000000,3.627453924999622,-0.3010610514912649,-0.0010038817334891634
1995692000000,3.6333162089798083,-0.29875064699740056,-0.001001603763185397
1995739000000,3.6393338413227423,-0.2964055869593736,-0.0010012152459205718
1995740000000,3.6456129821318526,-0.2940042109399882,-0.0010024874797442164
1995778000000,3.6518437796402563,-0.2916512701022481,-0.0010026756055831615
1995793000000,3.6581791608404637,-0.289271765542457,-0.0010029893753039816
1995836000000,3.664823707078192,-0.2867760105959916,-0.0010021154022407143
1995880000000,3.671532150107204,-0.2842218744805755,-0.0010024744816132664
1995922000000,3.6782482481762124,-0.2816145735716499,-0.001002529542625967
1995961000000,3.6851296146109873,-0.27891070949943464,-0.0010032495453142984
