%time,field.x,field.y,field.z
1659374896827557325,1.100537896156311,-2.623009204864502,0.0
1659374896883293867,1.100537896156311,-2.623009204864502,0.0
1659374896906080484,1.100537896156311,-2.623009204864502,0.0
1659374896960736751,1.100537896156311,-2.623009204864502,0.0
1659374896991268396,1.100537896156311,-2.623009204864502,0.0
1659374897046545267,1.100537896156311,-2.623009204864502,0.0
1659374897096071720,1.100537896156311,-2.623009204864502,0.0
1659374897153836965,1.100537896156311,-2.623009204864502,0.0
1659374897177363872,1.1005178689956665,-2.6230247020721436,0.0
1659374897234407186,1.100537896156311,-2.623009204864502,0.0
1659374897263831853,1.100537896156311,-2.623009204864502,0.0
1659374897318508148,1.100537896156311,-2.623009204864502,0.0
1659374897369154453,1.100537896156311,-2.623009204864502,0.0
1659374897424819231,1.100537896156311,-2.623009204864502,0.0
1659374897470409870,1.100537896156311,-2.623009204864502,0.0
1659374897518049955,1.100537896156311,-2.623009204864502,0.0
1659374897566874980,1.100537896156311,-2.623009204864502,0.0
1659374897613569736,1.100537896156311,-2.623009204864502,0.0
1659374897660439014,1.100537896156311,-2.623009204864502,0.0
1659374897709784030,1.100537896156311,-2.623009204864502,0.0
1659374897754866838,1.100537896156311,-2.623009204864502,0.0
1659374897797916650,1.100537896156311,-2.623009204864502,0.0
1659374897841966152,1.100537896156311,-2.623009204864502,0.0
1659374897890010118,1.100537896156311,-2.623009204864502,0.0
1659374897937696456,1.100537896156311,-2.623009204864502,0.0
1659374897984190464,1.100537896156311,-2.623009204864502,0.0
1659374898032246828,1.100537896156311,-2.623009204864502,0.0
1659374898077851295,1.100537896156311,-2.623009204864502,0.0
1659374898121849298,1.100537896156311,-2.623009204864502,0.0
1659374898172905445,1.100537896156311,-2.623009204864502,0.0
1659374898173073291,1.100537896156311,-2.623009204864502,0.0
1659374898218853473,1.100537896156311,-2.623009204864502,0.0
1659374898246787548,1.100537896156311,-2.623009204864502,0.0
1659374898301117658,1.100537896156311,-2.623009204864502,0.0
1659374898350815534,1.100537896156311,-2.623009204864502,0.0
1659374898403192520,1.100537896156311,-2.623009204864502,0.0
1659374898445852518,1.100537896156311,-2.623009204864502,0.0
1659374898491159439,1.100537896156311,-2.623009204864502,0.0
1659374898537629842,1.100537896156311,-2.623009204864502,0.0
1659374898583134174,1.100537896156311,-2.623009204864502,0.0
1659374898625607967,1.100537896156311,-2.623009204864502,0.0
1659374898673655509,1.100537896156311,-2.623009204864502,0.0
1659374898717783689,1.100537896156311,-2.623009204864502,0.0
1659374898761986970,1.100537896156311,-2.623009204864502,0.0
1659374898762076616,1.100537896156311,-2.623009204864502,0.0
1659374898816433191,1.100537896156311,-2.623009204864502,0.0
1659374898845161676,1.100537896156311,-2.623009204864502,0.0
1659374898899983644,1.100537896156311,-2.623009204864502,0.0
1659374898949656009,1.100537896156311,-2.623009204864502,0.0
1659374898996233701,1.100537896156311,-2.623009204864502,0.0
1659374899041811466,1.100537896156311,-2.623009204864502,0.0
1659374899093076705,1.100537896156311,-2.623009204864502,0.0
1659374899141665935,1.100537896156311,-2.623009204864502,0.0
1659374899194410562,1.100537896156311,-2.623009204864502,0.0
1659374899242164850,1.100537896156311,-2.623009204864502,0.0
1659374899290144205,1.100537896156311,-2.623009204864502,0.0
1659374899290234565,1.100537896156311,-2.623009204864502,0.0
1659374899339244842,1.100537896156311,-2.623009204864502,0.0
1659374899385790109,1.100537896156311,-2.623009204864502,0.0
1659374899441255331,1.100537896156311,-2.623009204864502,0.0
1659374899489786386,1.100537896156311,-2.623009204864502,0.0
1659374899538020372,1.100537896156311,-2.623009204864502,0.0
1659374899586306333,1.100537896156311,-2.623009204864502,0.0
1659374899630090475,1.100537896156311,-2.623009204864502,0.0
1659374899679064989,1.100537896156311,-2.623009204864502,0.0
1659374899722771167,1.100537896156311,-2.623009204864502,0.0
1659374899767173528,1.100537896156311,-2.623009204864502,0.0
1659374899811455965,1.100537896156311,-2.623009204864502,0.0
1659374899858436346,1.100537896156311,-2.623009204864502,0.0
1659374899906473159,1.100537896156311,-2.623009204864502,0.0
1659374899906560420,1.100537896156311,-2.623009204864502,0.0
1659374899969124317,1.100537896156311,-2.623009204864502,0.0
1659374900005392789,1.100537896156311,-2.623009204864502,0.0
1659374900060097694,1.100537896156311,-2.623009204864502,0.0
1659374900106372594,1.100537896156311,-2.623009204864502,0.0
1659374900150675535,1.100537896156311,-2.623009204864502,0.0
1659374900198366641,1.100537896156311,-2.623009204864502,0.0
1659374900242392063,1.100537896156311,-2.623009204864502,0.0
1659374900290567398,1.100537896156311,-2.623009204864502,0.0
1659374900338322401,1.1005178689956665,-2.6230247020721436,0.0
1659374900383919477,1.100537896156311,-2.623009204864502,0.0
1659374900428124427,1.100537896156311,-2.623009204864502,0.0
1659374900428351163,1.100537896156311,-2.623009204864502,0.0
1659374900479307174,1.100537896156311,-2.623009204864502,0.0
1659374900502765655,1.100537896156311,-2.623009204864502,0.0
1659374900556927919,1.100537896156311,-2.623009204864502,0.0
1659374900602780103,1.100537896156311,-2.623009204864502,0.0
1659374900647365808,1.100537896156311,-2.623009204864502,0.0
1659374900695225954,1.100537896156311,-2.623009204864502,0.0
1659374900742644548,1.100537896156311,-2.623009204864502,0.0
1659374900790526866,1.100537896156311,-2.623009204864502,0.0
1659374900840050935,1.100537896156311,-2.623009204864502,0.0
1659374900840159416,1.100537896156311,-2.623009204864502,0.0
1659374900891223192,1.1005178689956665,-2.6230247020721436,0.0
1659374900919614315,1.100537896156311,-2.623009204864502,0.0
1659374900975170135,1.100537896156311,-2.623009204864502,0.0
1659374901038547277,1.100537896156311,-2.623009204864502,0.0
1659374901100227832,1.100537896156311,-2.623009204864502,0.0
1659374901145801067,1.100537896156311,-2.623009204864502,0.0
1659374901190912961,1.100537896156311,-2.623009204864502,0.0
1659374901254310607,1.100537896156311,-2.623009204864502,0.0
1659374901325030803,1.100537896156311,-2.623009204864502,0.0
1659374901325101613,1.1005178689956665,-2.6230247020721436,0.0
1659374901370010852,1.100537896156311,-2.623009204864502,0.0
1659374901375134706,1.100537896156311,-2.623009204864502,0.0
1659374901432062149,1.100537896156311,-2.623009204864502,0.0
1659374901482197761,1.100537896156311,-2.623009204864502,0.0
1659374901526426076,1.100537896156311,-2.623009204864502,0.0
1659374901575505495,1.100537896156311,-2.623009204864502,0.0
1659374901626338958,1.100537896156311,-2.623009204864502,0.0
1659374901674207925,1.100537896156311,-2.623009204864502,0.0
1659374901719744443,1.100537896156311,-2.623009204864502,0.0
1659374901762776374,1.099595069885254,-2.623734474182129,0.0
1659374901840734243,1.0972288846969604,-2.6255569458007812,0.0
1659374901840880393,1.091891884803772,-2.6296613216400146,0.0
1659374901891992092,1.087592363357544,-2.632955551147461,0.0
1659374901909057617,1.0799839496612549,-2.638756275177002,0.0
1659374901963940382,1.0750665664672852,-2.6424925327301025,0.0
1659374902010538816,1.068230390548706,-2.6476778984069824,0.0
1659374902054295063,1.063017725944519,-2.651611089706421,0.0
1659374902098221063,1.0545756816864014,-2.6579036712646484,0.0
1659374902146697521,1.0490906238555908,-2.6619374752044678,0.0
1659374902194225072,1.0413868427276611,-2.6675682067871094,0.0
1659374902238161087,1.0364205837249756,-2.671196460723877,0.0
1659374902286617994,1.028753399848938,-2.676748275756836,0.0
1659374902334933280,1.0234017372131348,-2.6805779933929443,0.0
1659374902335040569,1.0156409740447998,-2.6861298084259033,0.0
1659374902378865718,1.0101872682571411,-2.6900343894958496,0.0
1659374902406274080,1.001879096031189,-2.695908308029175,0.0
1659374902461357355,0.9959595799446106,-2.70003080368042,0.0
1659374902511844873,0.9850497841835022,-2.707347869873047,0.0
1659374902587996959,0.9789609313011169,-2.7111685276031494,0.0
1659374902633753538,0.9715006947517395,-2.715803384780884,0.0
1659374902682851076,0.965682864189148,-2.719484329223633,0.0
1659374902682957410,0.9562310576438904,-2.725421905517578,0.0
1659374902731583833,0.9501973390579224,-2.7292349338531494,0.0
1659374902782556056,0.9392777681350708,-2.7363533973693848,0.0
1659374902839473485,0.9339508414268494,-2.7399072647094727,0.0
1659374902886052370,0.9259687662124634,-2.745136022567749,0.0
1659374902930305719,0.9203568696975708,-2.748716354370117,0.0
1659374902973930835,0.9120463728904724,-2.75394868850708,0.0
1659374903022522211,0.906575620174408,-2.757373332977295,0.0
1659374903066368818,0.8968194723129272,-2.763444662094116,0.0
1659374903116791725,0.8912878036499023,-2.766867160797119,0.0
1659374903166180849,0.8838216066360474,-2.7714924812316895,0.0
1659374903214317560,0.8786443471908569,-2.774669885635376,0.0
1659374903258048534,0.8695257902145386,-2.7800848484039307,0.0
1659374903306677818,0.863910436630249,-2.783317804336548,0.0
1659374903306745290,0.8557121753692627,-2.7879996299743652,0.0
1659374903360598564,0.8497893214225769,-2.7913577556610107,0.0
1659374903393834352,0.8410922884941101,-2.7962889671325684,0.0
1659374903450134038,0.8349403738975525,-2.7997560501098633,0.0
1659374903496683359,0.8261604309082031,-2.8045907020568848,0.0
1659374903542478084,0.8203591108322144,-2.807750701904297,0.0
1659374903586494207,0.8099313974380493,-2.8134231567382812,0.0
1659374903634928226,0.8039175271987915,-2.81666898727417,0.0
1659374903682355165,0.7947709560394287,-2.8215172290802,0.0
1659374903727214097,0.7886039614677429,-2.824744462966919,0.0
1659374903770709276,0.7768343091011047,-2.8308582305908203,0.0
1659374903822904109,0.7707024812698364,-2.834043502807617,0.0
1659374903870064020,0.7620061039924622,-2.8386058807373047,0.0
1659374903914244890,0.7557621598243713,-2.841904401779175,0.0
1659374903962047815,0.7466054558753967,-2.846787452697754,0.0
1659374904014982700,0.7404723167419434,-2.850024700164795,0.0
1659374904062495470,0.7315109372138977,-2.8545141220092773,0.0
1659374904111540794,0.7251455187797546,-2.857571601867676,0.0
1659374904158276557,0.7158563137054443,-2.8619658946990967,0.0
1659374904207058668,0.7095723152160645,-2.8648393154144287,0.0
1659374904207247972,0.7003231644630432,-2.868701219558716,0.0
1659374904250885486,0.6941372752189636,-2.8710906505584717,0.0
1659374904273611783,0.6849412322044373,-2.8745367527008057,0.0
1659374904328355789,0.6790593862533569,-2.876655340194702,0.0
1659374904380734682,0.6678187847137451,-2.880392074584961,0.0
1659374904436524629,0.6618776917457581,-2.882169008255005,0.0
1659374904487157583,0.6533944010734558,-2.8845388889312744,0.0
1659374904530281782,0.6472099423408508,-2.886199712753296,0.0
1659374904578535795,0.6373555660247803,-2.888733386993408,0.0
1659374904623255252,0.6311357617378235,-2.890256643295288,0.0
1659374904670474529,0.6197712421417236,-2.8930110931396484,0.0
1659374904718338727,0.6137858629226685,-2.8945329189300537,0.0
1659374904767121553,0.6056111454963684,-2.896585464477539,0.0
1659374904816999197,0.5994533896446228,-2.8980419635772705,0.0
1659374904862428188,0.5894840955734253,-2.9003167152404785,0.0
1659374904911008358,0.5830453634262085,-2.901676654815674,0.0
1659374904911187410,0.5735881924629211,-2.903428316116333,0.0
1659374904955569267,0.567172110080719,-2.904499053955078,0.0
1659374905005885362,0.5548989176750183,-2.906451463699341,0.0
1659374905062211751,0.5485901832580566,-2.90739107131958,0.0
1659374905106055498,0.5404971837997437,-2.908548593521118,0.0
1659374905155006170,0.5339035987854004,-2.9094631671905518,0.0
1659374905202038526,0.5236862301826477,-2.9107768535614014,0.0
1659374905250816345,0.5171254277229309,-2.9115490913391113,0.0
1659374905294138431,0.5043216943740845,-2.912977457046509,0.0
1659374905342830419,0.49750369787216187,-2.9137282371520996,0.0
1659374905386343240,0.4874795079231262,-2.9147253036499023,0.0
1659374905430599451,0.48086223006248474,-2.9151580333709717,0.0
1659374905474307298,0.4717088043689728,-2.915564775466919,0.0
1659374905518498659,0.46520960330963135,-2.9158356189727783,0.0
1659374905567135334,0.4529152512550354,-2.9162397384643555,0.0
1659374905614593982,0.44620978832244873,-2.916398286819458,0.0
1659374905662480831,0.43313345313072205,-2.916891098022461,0.0
1659374905706946611,0.4268682897090912,-2.9172770977020264,0.0
1659374905750614643,0.41686955094337463,-2.9179744720458984,0.0
1659374905795174598,0.41028112173080444,-2.918457269668579,0.0
1659374905838113069,0.40106767416000366,-2.919135570526123,0.0
1659374905886100292,0.3953115940093994,-2.9195480346679688,0.0
1659374905930877447,0.38730588555336,-2.920081853866577,0.0
1659374905975262641,0.38182511925697327,-2.9204392433166504,0.0
1659374906022516012,0.3743523955345154,-2.920975923538208,0.0
1659374906066713094,0.36827269196510315,-2.92147159576416,0.0
1659374906114338874,0.3594764173030853,-2.92228102684021,0.0
1659374906160907268,0.35302799940109253,-2.92291522026062,0.0
1659374906210163116,0.3395804166793823,-2.924272298812866,0.0
1659374906254767417,0.33328452706336975,-2.924905776977539,0.0
1659374906302902936,0.32529714703559875,-2.925665855407715,0.0
1659374906346791028,0.31990277767181396,-2.926154851913452,0.0
1659374906346934556,0.3130197525024414,-2.926762819290161,0.0
1659374906400007486,0.3077772855758667,-2.9272451400756836,0.0
1659374906456176280,0.29808250069618225,-2.928229331970215,0.0
1659374906511602401,0.29236900806427,-2.928835153579712,0.0
1659374906558241128,0.28471818566322327,-2.9296534061431885,0.0
1659374906602314472,0.27873027324676514,-2.9303112030029297,0.0
1659374906646445751,0.2702077627182007,-2.931305408477783,0.0
1659374906690344810,0.2649594247341156,-2.9319674968719482,0.0
1659374906738461732,0.2572837769985199,-2.93300199508667,0.0
1659374906783509731,0.2521219849586487,-2.9337379932403564,0.0
1659374906830169200,0.24137714505195618,-2.9353034496307373,0.0
1659374906878415822,0.2361667901277542,-2.9360573291778564,0.0
1659374906926898956,0.22928348183631897,-2.9370906352996826,0.0
1659374906970526218,0.22473809123039246,-2.9378387928009033,0.0
1659374906970603942,0.2182905226945877,-2.93902325630188,0.0
1659374907025129318,0.21377377212047577,-2.9399282932281494,0.0
1659374907058595657,0.20720303058624268,-2.941274881362915,0.0
1659374907108112812,0.20286105573177338,-2.942150354385376,0.0
1659374907157390594,0.19339145720005035,-2.9441022872924805,0.0
1659374907212670564,0.18747399747371674,-2.9453580379486084,0.0
1659374907262428045,0.1797003149986267,-2.9470112323760986,0.0
1659374907306125402,0.17349448800086975,-2.9483706951141357,0.0
1659374907352007865,0.16295120120048523,-2.9508590698242188,0.0
1659374907399074792,0.1564197838306427,-2.9524927139282227,0.0
1659374907442055702,0.145406112074852,-2.955294609069824,0.0
1659374907490877866,0.13863615691661835,-2.957017421722412,0.0
1659374907538293361,0.12898914515972137,-2.959442377090454,0.0
1659374907582926273,0.12216372042894363,-2.9611523151397705,0.0
1659374907629930019,0.11149607598781586,-2.9638772010803223,0.0
1659374907674311876,0.10490915179252625,-2.9656002521514893,0.0
1659374907718145132,0.09260214120149612,-2.968655824661255,0.0
1659374907762542247,0.0859687402844429,-2.9701902866363525,0.0
1659374907816251277,0.07212483882904053,-2.973459243774414,0.0
1659374907863715171,0.06531627476215363,-2.9751319885253906,0.0
1659374907906270742,0.05551367253065109,-2.977560520172119,0.0
1659374907950996160,0.048755038529634476,-2.979224443435669,0.0
1659374907994574308,0.03968483954668045,-2.9814517498016357,0.0
1659374908038252830,0.03280235454440117,-2.9831418991088867,0.0
1659374908086737155,0.023763272911310196,-2.9852821826934814,0.0
1659374908134456872,0.01749284192919731,-2.9867007732391357,0.0
1659374908178229808,0.006173255387693644,-2.9893152713775635,0.0
1659374908230748653,4.4192569475853816e-05,-2.9907829761505127,0.0
1659374908274727344,-0.009627111256122589,-2.9931089878082275,0.0
1659374908323964118,-0.016373032703995705,-2.994717836380005,0.0
1659374908324039697,-0.026167357340455055,-2.9970736503601074,0.0
1659374908381687641,-0.03219042345881462,-2.998548984527588,0.0
1659374908403470039,-0.041120145469903946,-3.0008163452148438,0.0
1659374908460840463,-0.046818796545267105,-3.0023343563079834,0.0
1659374908506426572,-0.05588771775364876,-3.0048656463623047,0.0
1659374908551484346,-0.06147743761539459,-3.0064918994903564,0.0
1659374908598888158,-0.07093683630228043,-3.0094006061553955,0.0
1659374908645684719,-0.07555646449327469,-3.010909080505371,0.0
1659374908694253921,-0.08199101686477661,-3.013134717941284,0.0
1659374908742076635,-0.08603062480688095,-3.0146164894104004,0.0
1659374908790147304,-0.0908246785402298,-3.016464948654175,0.0
1659374908834589719,-0.09460174292325974,-3.0179944038391113,0.0
1659374908878272294,-0.10061316937208176,-3.02054500579834,0.0
1659374908924498081,-0.10454782843589783,-3.0222864151000977,0.0
1659374908970262050,-0.11163445562124252,-3.0255348682403564,0.0
1659374909014203071,-0.11551032215356827,-3.0274035930633545,0.0
1659374909058153629,-0.12221217155456543,-3.030919075012207,0.0
1659374909106353759,-0.1260056346654892,-3.033055067062378,0.0
1659374909154500246,-0.13345198333263397,-3.037419080734253,0.0
1659374909198522567,-0.13712774217128754,-3.039606809616089,0.0
1659374909246452331,-0.1406916379928589,-3.0417838096618652,0.0
1659374909296350240,-0.14101038873195648,-3.041990041732788,0.0
1659374909342936277,-0.13949480652809143,-3.040933132171631,0.0
1659374909387063741,-0.1375938057899475,-3.0395023822784424,0.0
1659374909440459489,-0.1333673745393753,-3.0361554622650146,0.0
1659374909486351013,-0.1305377185344696,-3.033818244934082,0.0
1659374909532165527,-0.12594760954380035,-3.029839515686035,0.0
1659374909580891609,-0.1226174458861351,-3.0268051624298096,0.0
1659374909581047534,-0.11753158271312714,-3.0219061374664307,0.0
1659374909631579160,-0.1142026036977768,-3.0185060501098633,0.0
1659374909682869911,-0.10863063484430313,-3.0123860836029053,0.0
1659374909738035202,-0.10547973960638046,-3.008653163909912,0.0
1659374909786990404,-0.10130717605352402,-3.0033371448516846,0.0
1659374909830250740,-0.09839963912963867,-2.9993488788604736,0.0
1659374909878239393,-0.0940868929028511,-2.9930379390716553,0.0
1659374909926558971,-0.09115096181631088,-2.9884860515594482,0.0
1659374909926659345,-0.08699578791856766,-2.9816815853118896,0.0
1659374909980490684,-0.08411062508821487,-2.9766838550567627,0.0
1659374910030807495,-0.0793927013874054,-2.968013048171997,0.0
1659374910085688352,-0.07702092826366425,-2.963369607925415,0.0
1659374910130201578,-0.07419256865978241,-2.957427740097046,0.0
1659374910174496650,-0.07221223413944244,-2.952906847000122,0.0
1659374910222267866,-0.06920134276151657,-2.945333242416382,0.0
1659374910266849279,-0.0673503652215004,-2.9402427673339844,0.0
1659374910314164161,-0.06387120485305786,-2.929823398590088,0.0
1659374910359073638,-0.06214815005660057,-2.924156904220581,0.0
1659374910407089471,-0.05997578799724579,-2.9162492752075195,0.0
1659374910450547695,-0.05855945125222206,-2.910524368286133,0.0
1659374910494258165,-0.05655311048030853,-2.9017140865325928,0.0
1659374910542819261,-0.055367860943078995,-2.896040439605713,0.0
1659374910586391210,-0.05341552197933197,-2.8854362964630127,0.0
1659374910637643814,-0.052496425807476044,-2.879662275314331,0.0
1659374910681765794,-0.05138341709971428,-2.8719208240509033,0.0
1659374910730654001,-0.05065948888659477,-2.866297721862793,0.0
1659374910773678541,-0.04963856562972069,-2.8566830158233643,0.0
1659374910817856788,-0.049147024750709534,-2.850780725479126,0.0
1659374910869053602,-0.048489637672901154,-2.8398916721343994,0.0
1659374910913843870,-0.04826086759567261,-2.8340494632720947,0.0
1659374910957817554,-0.04809143394231796,-2.8258252143859863,0.0
1659374911001668691,-0.04808589443564415,-2.819851875305176,0.0
1659374911050261259,-0.048242777585983276,-2.81119704246521,0.0
1659374911093833208,-0.048456162214279175,-2.8051769733428955,0.0
1659374911139341354,-0.049082428216934204,-2.793779134750366,0.0
1659374911182837486,-0.049542386084795,-2.787696599960327,0.0
1659374911229789733,-0.05029101297259331,-2.7795302867889404,0.0
1659374911277523040,-0.05093887820839882,-2.773541212081909,0.0
1659374911321761131,-0.05243577063083649,-2.762173652648926,0.0
1659374911367902040,-0.053376205265522,-2.7561466693878174,0.0
1659374911410147905,-0.054890453815460205,-2.747469663619995,0.0
1659374911453904628,-0.05605341121554375,-2.7413527965545654,0.0
1659374911497763156,-0.057961784303188324,-2.7318484783172607,0.0
1659374911545842409,-0.05922362208366394,-2.7258288860321045,0.0
1659374911594185829,-0.06171845272183418,-2.7148194313049316,0.0
1659374911647155523,-0.06314442306756973,-2.709070920944214,0.0
1659374911694681406,-0.06547475606203079,-2.700209856033325,0.0
1659374911738479375,-0.06714053452014923,-2.69413161277771,0.0
1659374911782076358,-0.0696442574262619,-2.6854758262634277,0.0
1659374911829921245,-0.0713929682970047,-2.679790735244751,0.0
1659374911875836849,-0.07477224618196487,-2.6695783138275146,0.0
1659374911922632694,-0.07683705538511276,-2.663731098175049,0.0
1659374911923048734,-0.07971473038196564,-2.655970811843872,0.0
1659374911979376316,-0.08202101290225983,-2.650078296661377,0.0
1659374912020111799,-0.08639687299728394,-2.6394529342651367,0.0
1659374912076235055,-0.08884281665086746,-2.6337544918060303,0.0
1659374912121941328,-0.09253197908401489,-2.6255059242248535,0.0
1659374912167674541,-0.09517345577478409,-2.619839668273926,0.0
1659374912210793495,-0.10035102069377899,-2.6092138290405273,0.0
1659374912276046514,-0.10314761847257614,-2.6037075519561768,0.0
1659374912327654361,-0.10764480382204056,-2.595176935195923,0.0
1659374912414609909,-0.11070799082517624,-2.5895824432373047,0.0
1659374912414680480,-0.11621013283729553,-2.5798416137695312,0.0
1659374912486029624,-0.11932577192783356,-2.5744800567626953,0.0
1659374912498398303,-0.12597177922725677,-2.563502550125122,0.0
1659374912555828809,-0.12938207387924194,-2.558112621307373,0.0
1659374912602719783,-0.13428159058094025,-2.5505807399749756,0.0
1659374912650672912,-0.1377171277999878,-2.5454182624816895,0.0
1659374912694113969,-0.14306819438934326,-2.537609577178955,0.0
1659374912742733240,-0.14678379893302917,-2.532363176345825,0.0
1659374912787380218,-0.15374794602394104,-2.5227811336517334,0.0
1659374912832833290,-0.1575155407190323,-2.517697334289551,0.0
1659374912880613565,-0.16245906054973602,-2.511122465133667,0.0
1659374912952077150,-0.16630636155605316,-2.506098747253418,0.0
1659374912952182292,-0.17233774065971375,-2.4984450340270996,0.0
1659374912998433351,-0.17646995186805725,-2.4933559894561768,0.0
1659374913046162366,-0.1841951310634613,-2.4841108322143555,0.0
1659374913095497131,-0.18862074613571167,-2.4789369106292725,0.0
1659374913138863563,-0.1941884160041809,-2.4725420475006104,0.0
1659374913182420730,-0.19864453375339508,-2.467528820037842,0.0
1659374913226702690,-0.2055262178182602,-2.4599313735961914,0.0
1659374913271179676,-0.20993563532829285,-2.4551491737365723,0.0
1659374913316055774,-0.21897518634796143,-2.445652723312378,0.0
1659374913372868776,-0.22344547510147095,-2.441102981567383,0.0
1659374913420969009,-0.22952397167682648,-2.435011386871338,0.0
1659374913467042446,-0.23412930965423584,-2.430453300476074,0.0
1659374913510176420,-0.2417292594909668,-2.42309308052063,0.0
1659374913554413318,-0.24644292891025543,-2.418647289276123,0.0
1659374913598914146,-0.25520074367523193,-2.4106338024139404,0.0
1659374913643265962,-0.2598530650138855,-2.4064955711364746,0.0
1659374913686241626,-0.2663622200489044,-2.400827646255493,0.0
1659374913731501102,-0.2712211310863495,-2.396695613861084,0.0
1659374913774373292,-0.27901825308799744,-2.39023756980896,0.0
1659374913818556785,-0.284015417098999,-2.386192798614502,0.0
1659374913866618633,-0.293175607919693,-2.378965139389038,0.0
1659374913910205841,-0.2981819212436676,-2.375136613845825,0.0
1659374913954352617,-0.30545517802238464,-2.36973237991333,0.0
1659374914000576019,-0.3104555904865265,-2.366107940673828,0.0
1659374914048765897,-0.3177658021450043,-2.3608832359313965,0.0
1659374914094467878,-0.3229864239692688,-2.3572187423706055,0.0
1659374914138698101,-0.33036258816719055,-2.3521769046783447,0.0
1659374914182313919,-0.3357583284378052,-2.3485894203186035,0.0
1659374914226102113,-0.34359878301620483,-2.3435144424438477,0.0
1659374914274314403,-0.34896722435951233,-2.3401174545288086,0.0
1659374914322337865,-0.35849642753601074,-2.334256410598755,0.0
1659374914366763353,-0.3639981150627136,-2.330979585647583,0.0
1659374914366885185,-0.3721619248390198,-2.3262887001037598,0.0
1659374914420544624,-0.3776947855949402,-2.32321834564209,0.0
1659374914452452898,-0.3853994607925415,-2.3190550804138184,0.0
1659374914503864049,-0.39108604192733765,-2.316056251525879,0.0
1659374914554957151,-0.4010787010192871,-2.3109700679779053,0.0
1659374914609862804,-0.40685349702835083,-2.3081448078155518,0.0
1659374914661791563,-0.4146091938018799,-2.3044745922088623,0.0
1659374914709947824,-0.42052221298217773,-2.3017637729644775,0.0
1659374914754398107,-0.42972543835639954,-2.2976675033569336,0.0
1659374914798424005,-0.4357166886329651,-2.295069932937622,0.0
1659374914842408418,-0.446891725063324,-2.2903683185577393,0.0
1659374914890550374,-0.4527311325073242,-2.2879974842071533,0.0
1659374914939254283,-0.46151864528656006,-2.284546375274658,0.0
1659374914982416391,-0.4676022529602051,-2.2822437286376953,0.0
1659374915026976346,-0.478821337223053,-2.2781383991241455,0.0
1659374915074344396,-0.4850662350654602,-2.275907516479492,0.0
1659374915122297525,-0.4945007562637329,-2.272599220275879,0.0
1659374915169169902,-0.5009636282920837,-2.2703781127929688,0.0
1659374915218868494,-0.5094144344329834,-2.267556667327881,0.0
1659374915262687683,-0.5158936977386475,-2.2654647827148438,0.0
1659374915262787103,-0.5251390933990479,-2.262549877166748,0.0
1659374915314295530,-0.5314512252807617,-2.260601043701172,0.0
1659374915337736606,-0.5400761365890503,-2.25799298286438,0.0
1659374915391871452,-0.5464339852333069,-2.256107807159424,0.0
1659374915439795255,-0.5554569363594055,-2.253507137298584,0.0
1659374915482148408,-0.5618941783905029,-2.2517151832580566,0.0
1659374915530126094,-0.5684140920639038,-2.2499372959136963,0.0
1659374915573966264,-0.5754064917564392,-2.2480645179748535,0.0
1659374915617862701,-0.5821653008460999,-2.246298313140869,0.0
1659374915668728351,-0.5924269556999207,-2.243723154067993,0.0
1659374915718092918,-0.5989224910736084,-2.2421555519104004,0.0
1659374915718213558,-0.6094501614570618,-2.239711284637451,0.0
1659374915766095638,-0.6160458922386169,-2.2382395267486572,0.0
1659374915793663501,-0.6248044967651367,-2.2363505363464355,0.0
1659374915849788188,-0.6313472390174866,-2.2349934577941895,0.0
1659374915894408702,-0.640673041343689,-2.233096122741699,0.0
1659374915937682151,-0.6472500562667847,-2.231780529022217,0.0
1659374915981976985,-0.6568412184715271,-2.2299201488494873,0.0
1659374916026005029,-0.6637558341026306,-2.228616952896118,0.0
1659374916069913148,-0.6760560870170593,-2.2263717651367188,0.0
1659374916113716363,-0.6829099655151367,-2.225158452987671,0.0
1659374916158015966,-0.6924648284912109,-2.2235219478607178,0.0
1659374916201662302,-0.6993572115898132,-2.222383737564087,0.0
1659374916245973587,-0.7100094556808472,-2.2207136154174805,0.0
1659374916291569948,-0.7171945571899414,-2.219644784927368,0.0
1659374916333868503,-0.7281594276428223,-2.2180099487304688,0.0
1659374916379889965,-0.7352416515350342,-2.216937780380249,0.0
1659374916421987771,-0.7450562715530396,-2.2154831886291504,0.0
1659374916465670108,-0.7519981265068054,-2.2145004272460938,0.0
1659374916509766817,-0.7623106241226196,-2.2131333351135254,0.0
1659374916554788351,-0.7694178223609924,-2.2122416496276855,0.0
1659374916598212003,-0.7826769351959229,-2.2105700969696045,0.0
1659374916641636610,-0.7896072864532471,-2.2096920013427734,0.0
1659374916685729503,-0.8001087307929993,-2.2084059715270996,0.0
1659374916730355501,-0.8071978688240051,-2.207575798034668,0.0
1659374916777851343,-0.8167232275009155,-2.2064409255981445,0.0
1659374916826104402,-0.8238305449485779,-2.205549955368042,0.0
1659374916874505519,-0.833719789981842,-2.2042648792266846,0.0
1659374916917750597,-0.8406692743301392,-2.2033376693725586,0.0
1659374916971565485,-0.8513348698616028,-2.2019379138946533,0.0
1659374917014788150,-0.8584405183792114,-2.2010338306427,0.0
1659374917063138723,-0.8705426454544067,-2.199493408203125,0.0
1659374917110285520,-0.8736811876296997,-2.19909405708313,0.0
1659374917110356569,-0.8760672211647034,-2.198796510696411,0.0
1659374917163697719,-0.8766701221466064,-2.1987221240997314,0.0
1659374917197604417,-0.8769464492797852,-2.19868803024292,0.0
1659374917252808809,-0.8769715428352356,-2.1986849308013916,0.0
1659374917302057981,-0.8769715428352356,-2.1986849308013916,0.0
1659374917350633382,-0.8769715428352356,-2.1986849308013916,0.0
1659374917398631095,-0.8769715428352356,-2.1986849308013916,0.0
1659374917442381620,-0.8769715428352356,-2.1986849308013916,0.0
1659374917488193988,-0.8769715428352356,-2.1986849308013916,0.0
1659374917538403987,-0.8769715428352356,-2.1986849308013916,0.0
1659374917582332134,-0.8769715428352356,-2.1986849308013916,0.0
1659374917629268884,-0.8769715428352356,-2.1986849308013916,0.0
1659374917629351615,-0.8769715428352356,-2.1986849308013916,0.0
1659374917682528257,-0.8769715428352356,-2.1986849308013916,0.0
1659374917730093479,-0.8769715428352356,-2.1986849308013916,0.0
1659374917781908273,-0.8769715428352356,-2.1986849308013916,0.0
1659374917826089143,-0.8769715428352356,-2.1986849308013916,0.0
1659374917874557495,-0.8769715428352356,-2.1986849308013916,0.0
1659374917918181180,-0.8769715428352356,-2.1986849308013916,0.0
1659374917962256908,-0.8769715428352356,-2.1986849308013916,0.0
1659374918006149768,-0.8769715428352356,-2.1986849308013916,0.0
1659374918050624847,-0.8769715428352356,-2.1986849308013916,0.0
1659374918094334602,-0.8769715428352356,-2.1986849308013916,0.0
1659374918142442941,-0.8769715428352356,-2.1986849308013916,0.0
1659374918186554908,-0.8769715428352356,-2.1986849308013916,0.0
1659374918230928421,-0.8769715428352356,-2.1986849308013916,0.0
1659374918231092929,-0.8769715428352356,-2.1986849308013916,0.0
1659374918294603586,-0.8769715428352356,-2.1986849308013916,0.0
1659374918311825752,-0.8769715428352356,-2.1986849308013916,0.0
1659374918370880842,-0.8769715428352356,-2.1986849308013916,0.0
1659374918414819478,-0.8769715428352356,-2.1986849308013916,0.0
1659374918462906122,-0.8769715428352356,-2.1986849308013916,0.0
1659374918512176990,-0.8769715428352356,-2.1986849308013916,0.0
1659374918562547206,-0.8769715428352356,-2.1986849308013916,0.0
1659374918610375165,-0.8769715428352356,-2.1986849308013916,0.0
1659374918658725261,-0.8769715428352356,-2.1986849308013916,0.0
1659374918702294826,-0.8769715428352356,-2.1986849308013916,0.0
1659374918746767520,-0.8769715428352356,-2.1986849308013916,0.0
1659374918746878862,-0.8769715428352356,-2.1986849308013916,0.0
1659374918791780948,-0.8769715428352356,-2.1986849308013916,0.0
1659374918820461750,-0.8769715428352356,-2.1986849308013916,0.0
1659374918876792430,-0.8769715428352356,-2.1986849308013916,0.0
1659374918923047065,-0.8769715428352356,-2.1986849308013916,0.0
1659374918977651119,-0.8769715428352356,-2.1986849308013916,0.0
1659374919027321577,-0.8769715428352356,-2.1986849308013916,0.0
1659374919074198484,-0.8769715428352356,-2.1986849308013916,0.0
1659374919117995023,-0.8769715428352356,-2.1986849308013916,0.0
1659374919167739868,-0.8769715428352356,-2.1986849308013916,0.0
1659374919211713552,-0.8769715428352356,-2.1986849308013916,0.0
1659374919254651069,-0.8769715428352356,-2.1986849308013916,0.0
1659374919302086830,-0.8769715428352356,-2.1986849308013916,0.0
1659374919346426010,-0.8769715428352356,-2.1986849308013916,0.0
1659374919390082836,-0.8769715428352356,-2.1986849308013916,0.0
1659374919438882112,-0.8769715428352356,-2.1986849308013916,0.0
1659374919486724376,-0.8769715428352356,-2.1986849308013916,0.0
1659374919532046079,-0.8769715428352356,-2.1986849308013916,0.0
1659374919532170057,-0.8769715428352356,-2.1986849308013916,0.0
1659374919589390277,-0.8769715428352356,-2.1986849308013916,0.0
1659374919625575065,-0.8769715428352356,-2.1986849308013916,0.0
1659374919676542520,-0.8769715428352356,-2.1986849308013916,0.0
1659374919722232580,-0.8769715428352356,-2.1986849308013916,0.0
1659374919766528367,-0.8769715428352356,-2.1986849308013916,0.0
1659374919810275316,-0.8769715428352356,-2.1986849308013916,0.0
1659374919855156660,-0.8769715428352356,-2.1986849308013916,0.0
1659374919898524522,-0.8769715428352356,-2.1986849308013916,0.0
1659374919942376375,-0.8769715428352356,-2.1986849308013916,0.0
1659374919986399412,-0.8769715428352356,-2.1986849308013916,0.0
1659374920030309438,-0.8769715428352356,-2.1986849308013916,0.0
1659374920077035427,-0.8769715428352356,-2.1986849308013916,0.0
1659374920077204704,-0.8769715428352356,-2.1986849308013916,0.0
1659374920127898454,-0.8769715428352356,-2.1986849308013916,0.0
1659374920156770706,-0.8769715428352356,-2.1986849308013916,0.0
1659374920213238000,-0.8769715428352356,-2.1986849308013916,0.0
1659374920258650779,-0.8769715428352356,-2.1986849308013916,0.0
1659374920302237033,-0.8769715428352356,-2.1986849308013916,0.0
1659374920346179246,-0.8769715428352356,-2.1986849308013916,0.0
1659374920394203424,-0.8769715428352356,-2.1986849308013916,0.0
1659374920439618349,-0.8769715428352356,-2.1986849308013916,0.0
1659374920439887285,-0.8769715428352356,-2.1986849308013916,0.0
1659374920494377136,-0.8769715428352356,-2.1986849308013916,0.0
1659374920521315336,-0.8769715428352356,-2.1986849308013916,0.0
1659374920576500415,-0.8769715428352356,-2.1986849308013916,0.0
1659374920626816749,-0.8769715428352356,-2.1986849308013916,0.0
1659374920681463718,-0.8769715428352356,-2.1986849308013916,0.0
1659374920726143598,-0.8769715428352356,-2.1986849308013916,0.0
1659374920770915269,-0.8769715428352356,-2.1986849308013916,0.0
1659374920818204164,-0.8769715428352356,-2.1986849308013916,0.0
1659374920868827342,-0.8769715428352356,-2.1986849308013916,0.0
1659374920914186477,-0.8769715428352356,-2.1986849308013916,0.0
1659374920958543777,-0.8769715428352356,-2.1986849308013916,0.0
1659374921007601261,-0.8769715428352356,-2.1986849308013916,0.0
1659374921054380178,-0.8769715428352356,-2.1986849308013916,0.0
1659374921098188638,-0.8769715428352356,-2.1986849308013916,0.0
1659374921146587133,-0.8769715428352356,-2.1986849308013916,0.0
1659374921190225124,-0.8769715428352356,-2.1986849308013916,0.0
1659374921237572431,-0.8769715428352356,-2.1986849308013916,0.0
1659374921286802768,-0.8769715428352356,-2.1986849308013916,0.0
1659374921330409288,-0.8769715428352356,-2.1986849308013916,0.0
1659374921374493598,-0.8769715428352356,-2.1986849308013916,0.0
1659374921418401956,-0.8769715428352356,-2.1986849308013916,0.0
1659374921462432622,-0.8769715428352356,-2.1986849308013916,0.0
1659374921510861396,-0.8769715428352356,-2.1986849308013916,0.0
1659374921554187059,-0.8769715428352356,-2.1986849308013916,0.0
1659374921603352546,-0.8769715428352356,-2.1986849308013916,0.0
1659374921603445053,-0.8769715428352356,-2.1986849308013916,0.0
1659374921651943206,-0.8769715428352356,-2.1986849308013916,0.0
1659374921681603908,-0.8769715428352356,-2.1986849308013916,0.0
1659374921737653732,-0.8769715428352356,-2.1986849308013916,0.0
1659374921782516241,-0.8769715428352356,-2.1986849308013916,0.0
1659374921838199853,-0.8769715428352356,-2.1986849308013916,0.0
1659374921882589578,-0.8769715428352356,-2.1986849308013916,0.0
1659374921931647539,-0.8769715428352356,-2.1986849308013916,0.0
1659374921974165678,-0.8769715428352356,-2.1986849308013916,0.0
1659374922018281459,-0.8769715428352356,-2.1986849308013916,0.0
1659374922066504716,-0.8769715428352356,-2.1986849308013916,0.0
1659374922114142179,-0.8769715428352356,-2.1986849308013916,0.0
1659374922158932209,-0.8769715428352356,-2.1986849308013916,0.0
1659374922159055948,-0.8769715428352356,-2.1986849308013916,0.0
1659374922210136651,-0.8769715428352356,-2.1986849308013916,0.0
1659374922230925321,-0.8769715428352356,-2.1986849308013916,0.0
1659374922287536621,-0.8769715428352356,-2.1986849308013916,0.0
1659374922337066650,-0.8769715428352356,-2.1986849308013916,0.0
1659374922382539749,-0.8769715428352356,-2.1986849308013916,0.0
1659374922430701255,-0.8769715428352356,-2.1986849308013916,0.0
1659374922479032039,-0.8769715428352356,-2.1986849308013916,0.0
1659374922479191303,-0.8769715428352356,-2.1986849308013916,0.0
1659374922528250217,-0.8769715428352356,-2.1986849308013916,0.0
1659374922561625957,-0.8769715428352356,-2.1986849308013916,0.0
1659374922616231679,-0.8769715428352356,-2.1986849308013916,0.0
1659374922662446022,-0.8769715428352356,-2.1986849308013916,0.0
1659374922711841821,-0.8769715428352356,-2.1986849308013916,0.0
1659374922753733634,-0.8769715428352356,-2.1986849308013916,0.0
1659374922800645828,-0.8769715428352356,-2.1986849308013916,0.0
1659374922849220752,-0.8769715428352356,-2.1986849308013916,0.0
1659374922893637657,-0.8769715428352356,-2.1986849308013916,0.0
1659374922938424587,-0.8769715428352356,-2.1986849308013916,0.0
1659374922986267089,-0.8769715428352356,-2.1986849308013916,0.0
1659374923030453920,-0.8769715428352356,-2.1986849308013916,0.0
1659374923074377059,-0.8769715428352356,-2.1986849308013916,0.0
1659374923120411396,-0.8769715428352356,-2.1986849308013916,0.0
1659374923166322708,-0.8769715428352356,-2.1986849308013916,0.0
1659374923210280895,-0.8769715428352356,-2.1986849308013916,0.0
1659374923253915548,-0.8769715428352356,-2.1986849308013916,0.0
1659374923334139108,-0.8769715428352356,-2.1986849308013916,0.0
1659374923334272146,-0.8769715428352356,-2.1986849308013916,0.0
1659374923414532184,-0.8769715428352356,-2.1986849308013916,0.0
1659374923414681911,-0.8769715428352356,-2.1986849308013916,0.0
1659374923458403825,-0.8769715428352356,-2.1986849308013916,0.0
1659374923487933635,-0.8769715428352356,-2.1986849308013916,0.0
1659374923543407678,-0.8769715428352356,-2.1986849308013916,0.0
1659374923586214303,-0.8769715428352356,-2.1986849308013916,0.0
1659374923637021303,-0.8769715428352356,-2.1986849308013916,0.0
1659374923682467222,-0.8769715428352356,-2.1986849308013916,0.0
1659374923726725101,-0.8769715428352356,-2.1986849308013916,0.0
1659374923774170160,-0.8769715428352356,-2.1986849308013916,0.0
1659374923822750091,-0.8769715428352356,-2.1986849308013916,0.0
1659374923866124629,-0.8769715428352356,-2.1986849308013916,0.0
1659374923911202907,-0.8769715428352356,-2.1986849308013916,0.0
1659374923954230546,-0.8769715428352356,-2.1986849308013916,0.0
1659374923998505830,-0.8769715428352356,-2.1986849308013916,0.0
1659374924043620347,-0.8769715428352356,-2.1986849308013916,0.0
1659374924087884426,-0.8769715428352356,-2.1986849308013916,0.0
1659374924087996482,-0.8769715428352356,-2.1986849308013916,0.0
1659374924139999151,-0.8769715428352356,-2.1986849308013916,0.0
1659374924184609174,-0.8769715428352356,-2.1986849308013916,0.0
1659374924239750623,-0.8769715428352356,-2.1986849308013916,0.0
1659374924288869857,-0.8769715428352356,-2.1986849308013916,0.0
1659374924334322929,-0.8769715428352356,-2.1986849308013916,0.0
1659374924378376483,-0.8769715428352356,-2.1986849308013916,0.0
1659374924422459363,-0.8769715428352356,-2.1986849308013916,0.0
1659374924470056295,-0.8769715428352356,-2.1986849308013916,0.0
1659374924514834880,-0.8769715428352356,-2.1986849308013916,0.0
1659374924558295726,-0.8769715428352356,-2.1986849308013916,0.0
1659374924608259439,-0.8769715428352356,-2.1986849308013916,0.0
1659374924608512163,-0.8769715428352356,-2.1986849308013916,0.0
1659374924656542062,-0.8769715428352356,-2.1986849308013916,0.0
1659374924707065105,-0.8769715428352356,-2.1986849308013916,0.0
1659374924761441469,-0.8769715428352356,-2.1986849308013916,0.0
1659374924821326494,-0.8769715428352356,-2.1986849308013916,0.0
1659374924866297006,-0.8769715428352356,-2.1986849308013916,0.0
1659374924914464235,-0.8769715428352356,-2.1986849308013916,0.0
1659374924958414793,-0.8769715428352356,-2.1986849308013916,0.0
1659374924958549737,-0.8769715428352356,-2.1986849308013916,0.0
1659374925012322187,-0.8769715428352356,-2.1986849308013916,0.0
1659374925056939840,-0.8769715428352356,-2.1986849308013916,0.0
1659374925113236665,-0.8769715428352356,-2.1986849308013916,0.0
1659374925158173322,-0.8769715428352356,-2.1986849308013916,0.0
1659374925207290410,-0.8769715428352356,-2.1986849308013916,0.0
1659374925254301071,-0.8769715428352356,-2.1986849308013916,0.0
1659374925299764394,-0.8769715428352356,-2.1986849308013916,0.0
1659374925346147775,-0.8769715428352356,-2.1986849308013916,0.0
1659374925394752025,-0.8769715428352356,-2.1986849308013916,0.0
1659374925394838571,-0.8769715428352356,-2.1986849308013916,0.0
1659374925452293395,-0.8769715428352356,-2.1986849308013916,0.0
1659374925475679397,-0.8769715428352356,-2.1986849308013916,0.0
1659374925529664516,-0.8769715428352356,-2.1986849308013916,0.0
1659374925574104785,-0.8769715428352356,-2.1986849308013916,0.0
1659374925628769397,-0.8769715428352356,-2.1986849308013916,0.0
1659374925674378395,-0.8769715428352356,-2.1986849308013916,0.0
1659374925720485210,-0.8769715428352356,-2.1986849308013916,0.0
1659374925766479969,-0.8769715428352356,-2.1986849308013916,0.0
1659374925814513444,-0.8769715428352356,-2.1986849308013916,0.0
1659374925858337879,-0.8769715428352356,-2.1986849308013916,0.0
1659374925902489423,-0.8769715428352356,-2.1986849308013916,0.0
1659374925950137853,-0.8769715428352356,-2.1986849308013916,0.0
1659374925994636535,-0.8769715428352356,-2.1986849308013916,0.0
1659374926038175821,-0.8769715428352356,-2.1986849308013916,0.0
1659374926082684755,-0.8769715428352356,-2.1986849308013916,0.0
1659374926130178451,-0.8769715428352356,-2.1986849308013916,0.0
1659374926178193330,-0.8769715428352356,-2.1986849308013916,0.0
1659374926222182512,-0.8769715428352356,-2.1986849308013916,0.0
1659374926268377304,-0.8769715428352356,-2.1986849308013916,0.0
1659374926268706798,-0.8769715428352356,-2.1986849308013916,0.0
1659374926317746877,-0.8769715428352356,-2.1986849308013916,0.0
1659374926340779304,-0.8769715428352356,-2.1986849308013916,0.0
1659374926396920919,-0.8769715428352356,-2.1986849308013916,0.0
1659374926446548461,-0.8769715428352356,-2.1986849308013916,0.0
1659374926495678663,-0.8769715428352356,-2.1986849308013916,0.0
1659374926542557716,-0.8769715428352356,-2.1986849308013916,0.0
1659374926590371608,-0.8769715428352356,-2.1986849308013916,0.0
1659374926637446880,-0.8769715428352356,-2.1986849308013916,0.0
1659374926690715074,-0.8769715428352356,-2.1986849308013916,0.0
1659374926740310668,-0.8769715428352356,-2.1986849308013916,0.0
1659374926790170669,-0.8769715428352356,-2.1986849308013916,0.0
1659374926790261268,-0.8769715428352356,-2.1986849308013916,0.0
1659374926838443517,-0.8769715428352356,-2.1986849308013916,0.0
1659374926861382246,-0.8769715428352356,-2.1986849308013916,0.0
1659374926919661283,-0.8769715428352356,-2.1986849308013916,0.0
1659374926966114521,-0.8769715428352356,-2.1986849308013916,0.0
1659374927014942646,-0.8769715428352356,-2.1986849308013916,0.0
1659374927057843923,-0.8769715428352356,-2.1986849308013916,0.0
1659374927101728677,-0.8769715428352356,-2.1986849308013916,0.0
1659374927152483701,-0.8769715428352356,-2.1986849308013916,0.0
1659374927200455904,-0.8769715428352356,-2.1986849308013916,0.0
1659374927246291399,-0.8769715428352356,-2.1986849308013916,0.0
1659374927295993328,-0.8769715428352356,-2.1986849308013916,0.0
1659374927348097801,-0.8769715428352356,-2.1986849308013916,0.0
1659374927393673658,-0.8769715428352356,-2.1986849308013916,0.0
1659374927443051338,-0.8770971894264221,-2.198669672012329,0.0
1659374927485872268,-0.8772228956222534,-2.198654890060425,0.0
1659374927533524274,-0.8773236870765686,-2.1986453533172607,0.0
1659374927579696178,-0.8774247169494629,-2.198638916015625,0.0
1659374927626831769,-0.8775258660316467,-2.1986351013183594,0.0
1659374927670722961,-0.877373993396759,-2.198636054992676,0.0
1659374927717890501,-0.8774498701095581,-2.198638439178467,0.0
1659374927766749858,-0.8774498701095581,-2.198638439178467,0.0
1659374927814369201,-0.8775504231452942,-2.198650360107422,0.0
1659374927858369827,-0.8775254487991333,-2.198646306991577,0.0
1659374927906052589,-0.8776246309280396,-2.198666572570801,0.0
1659374927951520442,-0.8776738047599792,-2.198678493499756,0.0
1659374927995430469,-0.8776494860649109,-2.198671579360962,0.0
1659374928038969993,-0.8777217864990234,-2.198694944381714,0.0
1659374928086808204,-0.8776503801345825,-2.198668956756592,0.0
1659374928131786346,-0.8776738047599792,-2.198678493499756,0.0
1659374928179062366,-0.8776508569717407,-2.1986677646636963,0.0
1659374928221899747,-0.8776732683181763,-2.1986794471740723,0.0
1659374928265899181,-0.8776952624320984,-2.1986918449401855,0.0
1659374928316277503,-0.8776952624320984,-2.1986918449401855,0.0
1659374928357911825,-0.8776952624320984,-2.1986918449401855,0.0
1659374928357991218,-0.8776952624320984,-2.1986918449401855,0.0
1659374928406229734,-0.8777150511741638,-2.1987075805664062,0.0
1659374928433859348,-0.8777341842651367,-2.1987240314483643,0.0
1659374928490951061,-0.8776972889900208,-2.1986894607543945,0.0
1659374928537708282,-0.8777684569358826,-2.198761463165283,0.0
1659374928585061550,-0.8777169585227966,-2.1987056732177734,0.0
1659374928629805803,-0.8777998685836792,-2.198801279067993,0.0
1659374928674331188,-0.8778318166732788,-2.198840618133545,0.0
1659374928722343921,-0.8778318166732788,-2.198840618133545,0.0
1659374928765797853,-0.8778463006019592,-2.1988613605499268,0.0
1659374928810003757,-0.8777921199798584,-2.1987757682800293,0.0
1659374928855597972,-0.8777921199798584,-2.1987757682800293,0.0
1659374928902281284,-0.8777921199798584,-2.1987757682800293,0.0
1659374928902492761,-0.8777586221694946,-2.1987075805664062,0.0
1659374928948949575,-0.8777483105659485,-2.1986844539642334,0.0
1659374928971948385,-0.8777108788490295,-2.1985902786254883,0.0
1659374929029054403,-0.8777024745941162,-2.198566436767578,0.0
1659374929078821659,-0.8776730298995972,-2.198469638824463,0.0
1659374929121946811,-0.8776730298995972,-2.198469638824463,0.0
1659374929169637441,-0.8776782155036926,-2.1984944343566895,0.0
1659374929217365503,-0.8776782155036926,-2.1984944343566895,0.0
1659374929264364004,-0.8776898980140686,-2.1985950469970703,0.0
1659374929314664602,-0.8776839375495911,-2.198519229888916,0.0
1659374929362255811,-0.8776894807815552,-2.19864559173584,0.0
1659374929406954050,-0.8776896595954895,-2.1986708641052246,0.0
1659374929454567909,-0.8776847720146179,-2.1987972259521484,0.0
1659374929508896827,-0.8776869177818298,-2.1987719535827637,0.0
1659374929554758310,-0.8776869177818298,-2.1987719535827637,0.0
1659374929601558208,-0.8776910305023193,-2.198746919631958,0.0
1659374929601657867,-0.8776960968971252,-2.1987221240997314,0.0
1659374929651362895,-0.8777080178260803,-2.1986730098724365,0.0
1659374929680932044,-0.8777287006378174,-2.1986000537872314,0.0
1659374929737339735,-0.8777443766593933,-2.198551893234253,0.0
1659374929786295652,-0.877726674079895,-2.198599338531494,0.0
1659374929834550857,-0.877726674079895,-2.198599338531494,0.0
1659374929880091667,-0.8777914643287659,-2.1984620094299316,0.0
1659374929926317930,-0.8777446746826172,-2.198551893234253,0.0
1659374929970127344,-0.8777955174446106,-2.1984643936157227,0.0
1659374930017225980,-0.8777955174446106,-2.1984643936157227,0.0
1659374930062479019,-0.8777955174446106,-2.1984643936157227,0.0
1659374930111072778,-0.8777801394462585,-2.198484420776367,0.0
1659374930111198425,-0.8777639269828796,-2.1985039710998535,0.0
1659374930164060354,-0.8777469396591187,-2.1985228061676025,0.0
1659374930192182779,-0.8777999877929688,-2.1984684467315674,0.0
1659374930242781400,-0.877726674079895,-2.198538303375244,0.0
1659374930292727947,-0.8777076005935669,-2.1985549926757812,0.0
1659374930349905729,-0.8777670860290527,-2.198507785797119,0.0
1659374930398313045,-0.8777670860290527,-2.198507785797119,0.0
1659374930442531585,-0.877746045589447,-2.198521852493286,0.0
1659374930486786365,-0.8777891993522644,-2.198495388031006,0.0
1659374930530966281,-0.8777891993522644,-2.198495388031006,0.0
1659374930574671268,-0.8777441382408142,-2.1985185146331787,0.0
1659374930618267297,-0.8777441382408142,-2.1985185146331787,0.0
1659374930666979551,-0.8776741027832031,-2.198547840118408,0.0
1659374930710627079,-0.8776978254318237,-2.1985390186309814,0.0
1659374930710801124,-0.8776257038116455,-2.1985628604888916,0.0
1659374930767080307,-0.8776500225067139,-2.1985559463500977,0.0
1659374930815729856,-0.8776254653930664,-2.1985621452331543,0.0
1659374930858423948,-0.8775759935379028,-2.198572874069214,0.0
1659374930907711744,-0.877600908279419,-2.198568344116211,0.0
1659374930950765371,-0.8775507211685181,-2.198575019836426,0.0
1659374930994716405,-0.8775002956390381,-2.1985795497894287,0.0
1659374930994864225,-0.8775002956390381,-2.1985795497894287,0.0
1659374931048768997,-0.8774243593215942,-2.198580026626587,0.0
1659374931095268726,-0.8773737549781799,-2.198578119277954,0.0
1659374931151828289,-0.8774241805076599,-2.198582410812378,0.0
1659374931198375463,-0.8773990869522095,-2.1985793113708496,0.0
1659374931248148202,-0.8773990869522095,-2.1985793113708496,0.0
1659374931297708034,-0.8773990869522095,-2.1985793113708496,0.0
1659374931365505456,-0.8774235844612122,-2.1985855102539062,0.0
1659374931410272359,-0.8773993849754333,-2.198578119277954,0.0
1659374931458130121,-0.8773993849754333,-2.198578119277954,0.0
1659374931458238363,-0.8774462342262268,-2.1985974311828613,0.0
1659374931506359577,-0.8774922490119934,-2.1986184120178223,0.0
1659374931532494068,-0.8775147795677185,-2.198629856109619,0.0
1659374931590635538,-0.8776028156280518,-2.1986799240112305,0.0
1659374931637744426,-0.8776456117630005,-2.198706865310669,0.0
1659374931682017564,-0.8776248097419739,-2.1986923217773438,0.0
1659374931730560779,-0.8776248097419739,-2.1986923217773438,0.0
1659374931777806282,-0.8775852918624878,-2.1986606121063232,0.0
1659374931825922012,-0.8776237964630127,-2.1986935138702393,0.0
1659374931870795965,-0.877568244934082,-2.198641777038574,0.0
1659374931918950557,-0.8775327801704407,-2.19860577583313,0.0
1659374931919247150,-0.8774988055229187,-2.198568344116211,0.0
1659374931976216316,-0.8775473833084106,-2.198626756668091,0.0
1659374931993190050,-0.877516508102417,-2.1985867023468018,0.0
1659374932050373077,-0.8775458931922913,-2.1986279487609863,0.0
1659374932094947814,-0.877587080001831,-2.1986918449401855,0.0
1659374932152484178,-0.8775743246078491,-2.198669910430908,0.0
1659374932202651977,-0.8775743246078491,-2.198669910430908,0.0
1659374932246488094,-0.8776068091392517,-2.1987385749816895,0.0
1659374932290526866,-0.8776360154151917,-2.1988086700439453,0.0
1659374932337975502,-0.8776360154151917,-2.1988086700439453,0.0
1659374932382488250,-0.8776360154151917,-2.1988086700439453,0.0
1659374932426903486,-0.877649188041687,-2.198857545852661,0.0
1659374932475890636,-0.8776435852050781,-2.1988327503204346,0.0
1659374932525326013,-0.8776253461837769,-2.19873309135437,0.0
1659374932570290327,-0.8776149153709412,-2.198657989501953,0.0
1659374932614280700,-0.8776198029518127,-2.1987082958221436,0.0
1659374932670111179,-0.8776156902313232,-2.1986324787139893,0.0
1659374932714495182,-0.8776151537895203,-2.1985819339752197,0.0
1659374932758605718,-0.8776136636734009,-2.1986324787139893,0.0
1659374932802117586,-0.8776136636734009,-2.1986324787139893,0.0
1659374932848486661,-0.8776082396507263,-2.1986827850341797,0.0
1659374932894741296,-0.8776117563247681,-2.198657751083374,0.0
1659374932938492774,-0.8775896430015564,-2.198782444000244,0.0
1659374932982500314,-0.8775950074195862,-2.1987576484680176,0.0
1659374933026452064,-0.8775694370269775,-2.1988556385040283,0.0
1659374933070868968,-0.8775469064712524,-2.198928117752075,0.0
1659374933114028453,-0.8775637149810791,-2.198880434036255,0.0
1659374933159621238,-0.8775451183319092,-2.198927402496338,0.0
1659374933206210851,-0.8775756359100342,-2.1988577842712402,0.0
1659374933250645160,-0.8776196241378784,-2.1987667083740234,0.0
1659374933295888423,-0.8776315450668335,-2.198744297027588,0.0
1659374933342049360,-0.8776443004608154,-2.1987223625183105,0.0
1659374933386785268,-0.8777123689651489,-2.198615550994873,0.0
1659374933430872678,-0.877741277217865,-2.1985740661621094,0.0
1659374933431005477,-0.8777564764022827,-2.1985538005828857,0.0
1659374933479200363,-0.8778361082077026,-2.198455333709717,0.0
1659374933516616106,-0.8778361082077026,-2.198455333709717,0.0
1659374933567175865,-0.8778185844421387,-2.1984736919403076,0.0
1659374933618106126,-0.8777089715003967,-2.1985788345336914,0.0
1659374933668551445,-0.8777279257774353,-2.1985621452331543,0.0
1659374933715202093,-0.8776689767837524,-2.1986100673675537,0.0
1659374933758321046,-0.8776283860206604,-2.1986403465270996,0.0
1659374933808000564,-0.8776493668556213,-2.1986260414123535,0.0
1659374933854429721,-0.8776061534881592,-2.198652505874634,0.0
1659374933898500204,-0.8775618076324463,-2.1986770629882812,0.0
1659374933942617893,-0.8775844573974609,-2.1986658573150635,0.0
1659374933987102746,-0.8775844573974609,-2.1986658573150635,0.0
1659374934034457683,-0.8775609731674194,-2.1986753940582275,0.0
1659374934079108238,-0.8775847554206848,-2.198666572570801,0.0
1659374934122476577,-0.8775367140769958,-2.1986825466156006,0.0
1659374934170651435,-0.8775852918624878,-2.1986682415008545,0.0
1659374934170778989,-0.8774870038032532,-2.1986923217773438,0.0
1659374934227165937,-0.8775117993354797,-2.1986873149871826,0.0
1659374934244819641,-0.8775117993354797,-2.1986873149871826,0.0
1659374934299543380,-0.877536952495575,-2.1986844539642334,0.0
1659374934360996007,-0.8776127099990845,-2.198679208755493,0.0
1659374934407780647,-0.8775873780250549,-2.1986799240112305,0.0
1659374934466267824,-0.8776379823684692,-2.1986804008483887,0.0
1659374934549364328,-0.8776379823684692,-2.1986804008483887,0.0
1659374934549526214,-0.8776379823684692,-2.1986804008483887,0.0
1659374934620989322,-0.8775624632835388,-2.1986725330352783,0.0
1659374934621112585,-0.8776126503944397,-2.198679208755493,0.0
1659374934667374849,-0.8776625990867615,-2.1986875534057617,0.0
1659374934697733879,-0.8776377439498901,-2.1986827850341797,0.0
1659374934746828079,-0.8776377439498901,-2.1986827850341797,0.0
1659374934795773983,-0.8776132464408875,-2.198676586151123,0.0
1659374934795934438,-0.877515971660614,-2.198648452758789,0.0
1659374934844027757,-0.8774918913841248,-2.198640823364258,0.0
1659374934895589113,-0.8775157928466797,-2.1986491680145264,0.0
1659374934946581840,-0.8775157928466797,-2.1986491680145264,0.0
1659374934990366220,-0.8774921298027039,-2.1986401081085205,0.0
1659374935036343336,-0.8775157332420349,-2.1986491680145264,0.0
1659374935086939811,-0.8775157332420349,-2.1986491680145264,0.0
1659374935137501239,-0.8774921298027039,-2.1986401081085205,0.0
1659374935182560205,-0.8774921298027039,-2.1986401081085205,0.0
1659374935226566553,-0.8774921298027039,-2.1986401081085205,0.0
1659374935286969423,-0.8775157332420349,-2.1986491680145264,0.0
1659374935287119865,-0.8774921298027039,-2.1986401081085205,0.0
1659374935331180810,-0.8774921298027039,-2.1986401081085205,0.0
1659374935381094217,-0.8774921298027039,-2.1986401081085205,0.0
1659374935427178144,-0.8774921298027039,-2.1986401081085205,0.0
1659374935470523118,-0.8774921298027039,-2.1986401081085205,0.0
1659374935522528409,-0.8775157332420349,-2.1986491680145264,0.0
1659374935567181348,-0.8774921298027039,-2.1986401081085205,0.0
1659374935612381219,-0.8774921298027039,-2.1986401081085205,0.0
1659374935662492275,-0.8774921298027039,-2.1986401081085205,0.0
1659374935783378839,-0.8774921298027039,-2.1986401081085205,0.0
1659374935783552169,-0.8774921298027039,-2.1986401081085205,0.0
1659374935832510948,-0.8774921298027039,-2.1986401081085205,0.0
1659374935832576513,-0.8774921298027039,-2.1986401081085205,0.0
1659374935843091487,-0.8774921298027039,-2.1986401081085205,0.0
1659374935900118350,-0.8774921298027039,-2.1986401081085205,0.0
1659374935946587324,-0.8774921298027039,-2.1986401081085205,0.0
1659374936009834527,-0.8774921298027039,-2.1986401081085205,0.0
1659374936091129064,-0.8774921298027039,-2.1986401081085205,0.0
1659374936091258287,-0.8774921298027039,-2.1986401081085205,0.0
1659374936138040781,-0.8774921298027039,-2.1986401081085205,0.0
1659374936181257009,-0.8774921298027039,-2.1986401081085205,0.0
1659374936230277299,-0.8774921298027039,-2.1986401081085205,0.0
1659374936274059534,-0.8774921298027039,-2.1986401081085205,0.0
1659374936323721885,-0.8774921298027039,-2.1986401081085205,0.0
1659374936367858886,-0.8774921298027039,-2.1986401081085205,0.0
1659374936414134263,-0.8774921298027039,-2.1986401081085205,0.0
1659374936458507537,-0.8777046203613281,-2.1987221240997314,0.0
1659374936516940116,-0.8795919418334961,-2.199455499649048,0.0
1659374936562461137,-0.8817360401153564,-2.2002968788146973,0.0
1659374936610096454,-0.8866477012634277,-2.202261447906494,0.0
1659374936658699989,-0.8899949789047241,-2.2036383152008057,0.0
1659374936705613613,-0.8967897295951843,-2.206545829772949,0.0
1659374936753429412,-0.9004899859428406,-2.208191394805908,0.0
1659374936753845453,-0.9062379598617554,-2.2108371257781982,0.0
1659374936798320293,-0.9101897478103638,-2.2127230167388916,0.0
1659374936847785711,-0.9189794659614563,-2.2171030044555664,0.0
1659374936897977828,-0.9233388900756836,-2.219362735748291,0.0
1659374936944267272,-0.9305732846260071,-2.223224639892578,0.0
1659374936989956378,-0.9354974031448364,-2.225931167602539,0.0
1659374937038456916,-0.9466860890388489,-2.2323687076568604,0.0
1659374937085044145,-0.951624870300293,-2.235353708267212,0.0
1659374937130268573,-0.9604672789573669,-2.2408814430236816,0.0
1659374937178266525,-0.9651734232902527,-2.2439048290252686,0.0
1659374937224803924,-0.9736319780349731,-2.2495601177215576,0.0
1659374937270545482,-0.9782524704933167,-2.2528018951416016,0.0
1659374937318217277,-0.985480785369873,-2.2580535411834717,0.0
1659374937367397546,-0.989967942237854,-2.2613933086395264,0.0
1659374937414844274,-0.9983928799629211,-2.267876148223877,0.0
1659374937458235502,-1.0028215646743774,-2.271416187286377,0.0
1659374937502404212,-1.009842872619629,-2.277223587036133,0.0
1659374937575726747,-1.0142260789871216,-2.280977249145508,0.0
1659374937618368625,-1.023600459098816,-2.289212942123413,0.0
1659374937666600942,-1.0282396078109741,-2.293365716934204,0.0
1659374937666689634,-1.035274863243103,-2.2998123168945312,0.0
1659374937711905479,-1.0398352146148682,-2.304088592529297,0.0
1659374937740017652,-1.0473023653030396,-2.311185121536255,0.0
1659374937789865970,-1.0518475770950317,-2.3155510425567627,0.0
1659374937843684911,-1.0604150295257568,-2.3239495754241943,0.0
1659374937906514644,-1.064855694770813,-2.3284218311309814,0.0
1659374937950395345,-1.0721262693405151,-2.335897207260132,0.0
1659374937994320154,-1.0764892101287842,-2.3404452800750732,0.0
1659374938038243770,-1.083310604095459,-2.3475801944732666,0.0
1659374938082328081,-1.0876739025115967,-2.3521628379821777,0.0
1659374938131490707,-1.092311143875122,-2.357078790664673,0.0
1659374938131656169,-1.0987062454223633,-2.363954782485962,0.0
1659374938176168918,-1.1029021739959717,-2.368520736694336,0.0
1659374938201460123,-1.1097058057785034,-2.3760523796081543,0.0
1659374938250541210,-1.1138304471969604,-2.3807168006896973,0.0
1659374938304407596,-1.1232702732086182,-2.3914926052093506,0.0
1659374938355654239,-1.1277660131454468,-2.396639347076416,0.0
