%time,field.x,field.y,field.z
1659367194674066066,-1.6359792947769165,0.8766272068023682,0.0
1659367194719440221,-1.6359792947769165,0.8766272068023682,0.0
1659367194775970220,-1.6359792947769165,0.8766272068023682,0.0
1659367194803506612,-1.6359792947769165,0.8766272068023682,0.0
1659367194858564138,-1.6359792947769165,0.8766272068023682,0.0
1659367194887142896,-1.6359792947769165,0.8766272068023682,0.0
1659367194946285724,-1.6359792947769165,0.8766272068023682,0.0
1659367194971444368,-1.6359792947769165,0.8766272068023682,0.0
1659367195028680086,-1.6359792947769165,0.8766272068023682,0.0
1659367195051872730,-1.6359792947769165,0.8766272068023682,0.0
1659367195110185384,-1.6359792947769165,0.8766272068023682,0.0
1659367195140646696,-1.6359792947769165,0.8766272068023682,0.0
1659367195196205377,-1.6359792947769165,0.8766272068023682,0.0
1659367195237006187,-1.6359792947769165,0.8766272068023682,0.0
1659367195292571306,-1.6359792947769165,0.8766272068023682,0.0
1659367195338107585,-1.6359792947769165,0.8766272068023682,0.0
1659367195396972656,-1.6359792947769165,0.8766272068023682,0.0
1659367195441754341,-1.6359792947769165,0.8766272068023682,0.0
1659367195485659837,-1.6359792947769165,0.8766272068023682,0.0
1659367195530089378,-1.6359792947769165,0.8766272068023682,0.0
1659367195574336528,-1.6359792947769165,0.8766272068023682,0.0
1659367195617694377,-1.6359792947769165,0.8766272068023682,0.0
1659367195664620876,-1.6359792947769165,0.8766272068023682,0.0
1659367195709886312,-1.6359792947769165,0.8766272068023682,0.0
1659367195754362344,-1.6359792947769165,0.8766272068023682,0.0
1659367195797943115,-1.6359792947769165,0.8766272068023682,0.0
1659367195845595359,-1.6359792947769165,0.8766272068023682,0.0
1659367195892053842,-1.6359792947769165,0.8766272068023682,0.0
1659367195940246105,-1.6359792947769165,0.8766272068023682,0.0
1659367195940536499,-1.6359792947769165,0.8766272068023682,0.0
1659367195988227367,-1.6359792947769165,0.8766272068023682,0.0
1659367196016464948,-1.6359792947769165,0.8766272068023682,0.0
1659367196075135469,-1.6359792947769165,0.8766272068023682,0.0
1659367196118960618,-1.6359792947769165,0.8766272068023682,0.0
1659367196176647424,-1.6359792947769165,0.8766272068023682,0.0
1659367196221874952,-1.6359549760818481,0.876634418964386,0.0
1659367196269485712,-1.6359792947769165,0.8766272068023682,0.0
1659367196313605070,-1.6359792947769165,0.8766272068023682,0.0
1659367196357737064,-1.6359792947769165,0.8766272068023682,0.0
1659367196402796745,-1.6359792947769165,0.8766272068023682,0.0
1659367196449973821,-1.6359549760818481,0.876634418964386,0.0
1659367196560218334,-1.6359792947769165,0.8766272068023682,0.0
1659367196560356616,-1.6359792947769165,0.8766272068023682,0.0
1659367196565153837,-1.6359792947769165,0.8766272068023682,0.0
1659367196598304271,-1.6359792947769165,0.8766272068023682,0.0
1659367196647413730,-1.6359792947769165,0.8766272068023682,0.0
1659367196713203191,-1.6359792947769165,0.8766272068023682,0.0
1659367196758837699,-1.6359792947769165,0.8766272068023682,0.0
1659367196808953046,-1.6359792947769165,0.8766272068023682,0.0
1659367196854378461,-1.6359792947769165,0.8766272068023682,0.0
1659367196897734403,-1.6359792947769165,0.8766272068023682,0.0
1659367196941802740,-1.6359792947769165,0.8766272068023682,0.0
1659367196985760450,-1.6359792947769165,0.8766272068023682,0.0
1659367197029729127,-1.6341361999511719,0.877177894115448,0.0
1659367197078262090,-1.631012201309204,0.8781272172927856,0.0
1659367197122292518,-1.6244666576385498,0.8801775574684143,0.0
1659367197167323827,-1.6192190647125244,0.8818828463554382,0.0
1659367197210343360,-1.6107553243637085,0.884745180606842,0.0
1659367197254235982,-1.6047354936599731,0.8868533372879028,0.0
1659367197300930261,-1.5962094068527222,0.8899213671684265,0.0
1659367197346337318,-1.5900073051452637,0.8921961784362793,0.0
1659367197390311002,-1.5805824995040894,0.8956806659698486,0.0
1659367197435003757,-1.573961615562439,0.8981366157531738,0.0
1659367197478487730,-1.5642083883285522,0.9017545580863953,0.0
1659367197522424936,-1.5576542615890503,0.904171884059906,0.0
1659367197566179275,-1.5461773872375488,0.9084557890892029,0.0
1659367197610437631,-1.5396950244903564,0.9109205603599548,0.0
1659367197654278755,-1.528387427330017,0.9152230024337769,0.0
1659367197698981046,-1.521740436553955,0.917753279209137,0.0
1659367197742282390,-1.5125356912612915,0.9212480187416077,0.0
1659367197786512613,-1.5060032606124878,0.9237236380577087,0.0
1659367197829945802,-1.4969682693481445,0.9271662831306458,0.0
1659367197876392841,-1.4907052516937256,0.9295669794082642,0.0
1659367197921902656,-1.4849450588226318,0.9317944049835205,0.0
1659367197966318130,-1.4777625799179077,0.9346239566802979,0.0
1659367198010268688,-1.4717752933502197,0.9370342493057251,0.0
1659367198010369777,-1.4615572690963745,0.9412024617195129,0.0
1659367198058394670,-1.455389380455017,0.943638026714325,0.0
1659367198086807966,-1.4461252689361572,0.9471189975738525,0.0
1659367198142281532,-1.4398126602172852,0.9494596719741821,0.0
1659367198187151908,-1.4278390407562256,0.9539327621459961,0.0
1659367198242749214,-1.421347737312317,0.956373929977417,0.0
1659367198286822080,-1.4116744995117188,0.9599891304969788,0.0
1659367198335142374,-1.4050304889678955,0.9624552726745605,0.0
1659367198382262945,-1.396430492401123,0.9656888246536255,0.0
1659367198430166959,-1.3895999193191528,0.9683060050010681,0.0
1659367198482052087,-1.3796390295028687,0.9721618890762329,0.0
1659367198532140016,-1.3731790781021118,0.9746846556663513,0.0
1659367198532243251,-1.3638732433319092,0.9783391356468201,0.0
1659367198584678888,-1.3574037551879883,0.9809067845344543,0.0
1659367198610727787,-1.3489395380020142,0.984211802482605,0.0
1659367198664496660,-1.3423045873641968,0.9867025017738342,0.0
1659367198710023164,-1.333125352859497,0.9900480508804321,0.0
1659367198760036945,-1.326499342918396,0.9924159646034241,0.0
1659367198806217193,-1.317184329032898,0.995682418346405,0.0
1659367198850239038,-1.3106939792633057,0.9979013800621033,0.0
1659367198895123004,-1.3021392822265625,1.0008108615875244,0.0
1659367198941194772,-1.2957876920700073,1.002966284751892,0.0
1659367198986058473,-1.286220669746399,1.0062007904052734,0.0
1659367199034598588,-1.279429316520691,1.008477807044983,0.0
1659367199034707784,-1.269730567932129,1.0116366147994995,0.0
1659367199080845117,-1.2633898258209229,1.0136631727218628,0.0
1659367199133735418,-1.2510409355163574,1.0175927877426147,0.0
1659367199188151836,-1.244284987449646,1.0197335481643677,0.0
1659367199234220504,-1.235310673713684,1.0225824117660522,0.0
1659367199278908729,-1.22859787940979,1.0246917009353638,0.0
1659367199322925806,-1.2218694686889648,1.0267505645751953,0.0
1659367199366515874,-1.2139428853988647,1.0290426015853882,0.0
1659367199410817861,-1.2072898149490356,1.0308128595352173,0.0
1659367199455147027,-1.1973108053207397,1.0333698987960815,0.0
1659367199498583078,-1.1907410621643066,1.035058617591858,0.0
1659367199542014122,-1.1802197694778442,1.0377429723739624,0.0
1659367199586465835,-1.1736912727355957,1.0393882989883423,0.0
1659367199586563348,-1.164472222328186,1.041646122932434,0.0
1659367199641234159,-1.1578693389892578,1.043199896812439,0.0
1659367199663990497,-1.148572325706482,1.045348882675171,0.0
1659367199720149517,-1.1418153047561646,1.046910285949707,0.0
1659367199765730619,-1.1321059465408325,1.0491857528686523,0.0
1659367199817964315,-1.1254339218139648,1.0507771968841553,0.0
1659367199862360715,-1.1120800971984863,1.0539189577102661,0.0
1659367199916223526,-1.1053144931793213,1.0554429292678833,0.0
1659367199966408729,-1.0961321592330933,1.0574078559875488,0.0
1659367200010071992,-1.0893429517745972,1.0588231086730957,0.0
1659367200054414987,-1.0792572498321533,1.0609204769134521,0.0
1659367200098237991,-1.072622299194336,1.0623313188552856,0.0
1659367200144529342,-1.0599230527877808,1.06515634059906,0.0
1659367200194206953,-1.0530610084533691,1.0667128562927246,0.0
1659367200242908716,-1.0437126159667969,1.0688642263412476,0.0
1659367200286305189,-1.0371357202529907,1.070417881011963,0.0
1659367200330178499,-1.026612401008606,1.0729892253875732,0.0
1659367200375857114,-1.0198335647583008,1.0746769905090332,0.0
1659367200418205022,-1.0101081132888794,1.077101230621338,0.0
1659367200462291717,-1.0032572746276855,1.078813910484314,0.0
1659367200506053209,-0.9891968965530396,1.0822651386260986,0.0
1659367200555963039,-0.9823260307312012,1.0838955640792847,0.0
1659367200602432250,-0.9730735421180725,1.0860122442245483,0.0
1659367200650161743,-0.9663991928100586,1.0874801874160767,0.0
1659367200698222160,-0.9557020664215088,1.0897449254989624,0.0
1659367200742180347,-0.9488862752914429,1.0911566019058228,0.0
1659367200790470838,-0.9360227584838867,1.0938196182250977,0.0
1659367200833903789,-0.9292786121368408,1.0952028036117554,0.0
1659367200885390996,-0.9198790788650513,1.0971184968948364,0.0
1659367200930217742,-0.9130059480667114,1.098502278327942,0.0
1659367200974509716,-0.9021435379981995,1.1005874872207642,0.0
1659367201022156953,-0.8951946496963501,1.1018446683883667,0.0
1659367201066287040,-0.8828198909759521,1.103803038597107,0.0
1659367201124628305,-0.8759986162185669,1.104734182357788,0.0
1659367201170474052,-0.8658133149147034,1.1060974597930908,0.0
1659367201218373537,-0.8588388562202454,1.1070287227630615,0.0
1659367201218488931,-0.8496735692024231,1.108188509941101,0.0
1659367201266223669,-0.8430877327919006,1.1089648008346558,0.0
1659367201282068252,-0.8329557180404663,1.110142469406128,0.0
1659367201337050676,-0.8261931538581848,1.11093270778656,0.0
1659367201382252216,-0.813924252986908,1.1123597621917725,0.0
1659367201438899040,-0.8069873452186584,1.1131846904754639,0.0
1659367201483261108,-0.7978175282478333,1.1143081188201904,0.0
1659367201526638031,-0.7908855676651001,1.115173578262329,0.0
1659367201570354223,-0.780514657497406,1.116483449935913,0.0
1659367201614275932,-0.7741355299949646,1.1172820329666138,0.0
1659367201662206411,-0.7642624974250793,1.1184935569763184,0.0
1659367201706985235,-0.7574531435966492,1.1193188428878784,0.0
1659367201750993967,-0.7452094554901123,1.1207436323165894,0.0
1659367201798920869,-0.7382895946502686,1.121494174003601,0.0
1659367201842396259,-0.7279388308525085,1.1225324869155884,0.0
1659367201886517047,-0.7209594249725342,1.1231976747512817,0.0
1659367201930232048,-0.7115820050239563,1.12404465675354,0.0
1659367201974533796,-0.7048981189727783,1.1246052980422974,0.0
1659367202018835783,-0.6952852606773376,1.1253716945648193,0.0
1659367202062500953,-0.6885225772857666,1.1258995532989502,0.0
1659367202110204458,-0.6789906620979309,1.1267234086990356,0.0
1659367202154529094,-0.6721116900444031,1.127375602722168,0.0
1659367202198570489,-0.6624301075935364,1.1282308101654053,0.0
1659367202242190122,-0.6557698845863342,1.1287702322006226,0.0
1659367202290331125,-0.6435061693191528,1.1297271251678467,0.0
1659367202334544658,-0.6365146040916443,1.130249261856079,0.0
1659367202378327608,-0.6268472671508789,1.1309678554534912,0.0
1659367202436938047,-0.619880735874176,1.131485939025879,0.0
1659367202437387228,-0.6102867722511292,1.1321663856506348,0.0
1659367202482709646,-0.6033424735069275,1.132639765739441,0.0
1659367202509996891,-0.5932993292808533,1.1334233283996582,0.0
1659367202567123174,-0.5865675806999207,1.1340175867080688,0.0
1659367202611833572,-0.573386549949646,1.1352391242980957,0.0
1659367202667093753,-0.5665601491928101,1.1359091997146606,0.0
1659367202710384845,-0.5567857623100281,1.1368604898452759,0.0
1659367202754546880,-0.5497322678565979,1.1375490427017212,0.0
1659367202798507452,-0.5394865870475769,1.138619303703308,0.0
1659367202846505403,-0.5324177742004395,1.1394046545028687,0.0
1659367202890567779,-0.5257542133331299,1.1401697397232056,0.0
1659367202938204526,-0.519214391708374,1.1409027576446533,0.0
1659367202983028411,-0.5125728249549866,1.1416369676589966,0.0
1659367202983173370,-0.5021124482154846,1.1428393125534058,0.0
1659367203027327537,-0.495275616645813,1.1436480283737183,0.0
1659367203056687116,-0.48419713973999023,1.145011067390442,0.0
1659367203114727020,-0.4773181080818176,1.1458914279937744,0.0
1659367203164125204,-0.4642123281955719,1.1475648880004883,0.0
1659367203215137481,-0.45712968707084656,1.1484490633010864,0.0
1659367203262395381,-0.44780433177948,1.1495511531829834,0.0
1659367203310769557,-0.4407082796096802,1.1503201723098755,0.0
1659367203354379177,-0.4308597147464752,1.1512929201126099,0.0
1659367203402710676,-0.4236278831958771,1.1519776582717896,0.0
1659367203447854042,-0.41054847836494446,1.1531983613967896,0.0
1659367203494159698,-0.4037487804889679,1.1538811922073364,0.0
1659367203538416624,-0.3938084840774536,1.1551663875579834,0.0
1659367203582129001,-0.38685205578804016,1.1562241315841675,0.0
1659367203626448631,-0.3741209805011749,1.1581977605819702,0.0
1659367203672534942,-0.3670901656150818,1.159271240234375,0.0
1659367203718388795,-0.356280654668808,1.1609179973602295,0.0
1659367203766121625,-0.3491525948047638,1.1620252132415771,0.0
1659367203810269355,-0.33880898356437683,1.1635355949401855,0.0
1659367203856352806,-0.3320206105709076,1.164322853088379,0.0
1659367203908102035,-0.32189542055130005,1.1653274297714233,0.0
1659367203959038734,-0.31484270095825195,1.1660236120224,0.0
1659367203959136009,-0.3050991892814636,1.1670290231704712,0.0
1659367204003727912,-0.29818299412727356,1.167812705039978,0.0
1659367204032469272,-0.28885939717292786,1.168691873550415,0.0
1659367204087812900,-0.2828749418258667,1.1691042184829712,0.0
1659367204130336046,-0.2747144103050232,1.1695961952209473,0.0
1659367204174481630,-0.26854854822158813,1.1699466705322266,0.0
1659367204222044706,-0.2591516077518463,1.1705389022827148,0.0
1659367204266314268,-0.2526111304759979,1.1709818840026855,0.0
1659367204315526485,-0.24331191182136536,1.171512246131897,0.0
1659367204362328767,-0.23651090264320374,1.1718330383300781,0.0
1659367204406262159,-0.2253350466489792,1.1723395586013794,0.0
1659367204450289487,-0.21827906370162964,1.1726230382919312,0.0
1659367204494055986,-0.20550327003002167,1.1730177402496338,0.0
1659367204538858413,-0.19841749966144562,1.1731491088867188,0.0
1659367204582093477,-0.18530750274658203,1.1733059883117676,0.0
1659367204632293224,-0.1782463639974594,1.1733931303024292,0.0
1659367204682399988,-0.16807211935520172,1.173507571220398,0.0
1659367204726120710,-0.1609601080417633,1.1735724210739136,0.0
1659367204770356893,-0.15098842978477478,1.1736935377120972,0.0
1659367204816444396,-0.14377617835998535,1.1738301515579224,0.0
1659367204862547874,-0.1340612918138504,1.1741232872009277,0.0
1659367204913944721,-0.12705691158771515,1.1744292974472046,0.0
1659367204914024114,-0.11777990311384201,1.1749016046524048,0.0
1659367204964510440,-0.11067825555801392,1.175290822982788,0.0
1659367204989479780,-0.10072265565395355,1.1758695840835571,0.0
1659367205053246498,-0.09382398426532745,1.1762619018554688,0.0
1659367205102306842,-0.08320873230695724,1.1768308877944946,0.0
1659367205146322488,-0.07615601271390915,1.1771866083145142,0.0
1659367205190131664,-0.06450106203556061,1.1777430772781372,0.0
1659367205234637737,-0.057320572435855865,1.1780767440795898,0.0
1659367205278022050,-0.044455140829086304,1.1787519454956055,0.0
1659367205324110507,-0.03791295737028122,1.1791690587997437,0.0
1659367205370893001,-0.028393900021910667,1.1798322200775146,0.0
1659367205414326429,-0.02150159701704979,1.180323839187622,0.0
1659367205457937479,-0.011199184693396091,1.1810325384140015,0.0
1659367205532973766,-0.004151484929025173,1.1814767122268677,0.0
1659367205533066987,0.005197931081056595,1.1820160150527954,0.0
1659367205580038309,0.01214759424328804,1.1824032068252563,0.0
1659367205643845081,0.023087091743946075,1.1830655336380005,0.0
1659367205729576587,0.02969767153263092,1.1835906505584717,0.0
1659367205730096340,0.041903115808963776,1.1849019527435303,0.0
1659367205778931856,0.04851009324193001,1.1857141256332397,0.0
1659367205788441181,0.05875468626618385,1.1870142221450806,0.0
1659367205847253561,0.06570904701948166,1.1879040002822876,0.0
1659367205890572547,0.07241059839725494,1.1887753009796143,0.0
1659367205934800624,0.07895457744598389,1.1896790266036987,0.0
1659367205983416795,0.09522055089473724,1.1921457052230835,0.0
1659367206030647277,0.10206802934408188,1.1932448148727417,0.0
1659367206075866460,0.1117396205663681,1.1947963237762451,0.0
1659367206160500288,0.11864244192838669,1.1958695650100708,0.0
1659367206160602331,0.12768420577049255,1.1971864700317383,0.0
1659367206210617303,0.13452903926372528,1.1981319189071655,0.0
1659367206226784944,0.1442113071680069,1.1994377374649048,0.0
1659367206280043125,0.15141113102436066,1.2004024982452393,0.0
1659367206326205968,0.16069179773330688,1.2016561031341553,0.0
1659367206371086597,0.16746242344379425,1.2025837898254395,0.0
1659367206429076433,0.17959807813167572,1.204256296157837,0.0
1659367206506005764,0.18654678761959076,1.2051892280578613,0.0
1659367206506168127,0.19653300940990448,1.2065136432647705,0.0
1659367206554875850,0.20328180491924286,1.207413911819458,0.0
1659367206578694105,0.21271315217018127,1.2086864709854126,0.0
1659367206633700132,0.2194824367761612,1.20962393283844,0.0
1659367206682731866,0.22937341034412384,1.2110810279846191,0.0
1659367206781505823,0.23587408661842346,1.2121046781539917,0.0
1659367206781672000,0.24425376951694489,1.2133991718292236,0.0
1659367206826565265,0.2510104179382324,1.214423656463623,0.0
1659367206831106901,0.26105764508247375,1.216030478477478,0.0
1659367206886528253,0.2676963210105896,1.217151403427124,0.0
1659367206934197425,0.2736300230026245,1.2181901931762695,0.0
1659367206982261180,0.28015708923339844,1.2193619012832642,0.0
1659367207031151771,0.286831259727478,1.2205735445022583,0.0
1659367207031261444,0.29667505621910095,1.2223210334777832,0.0
1659367207087887763,0.30354222655296326,1.223456621170044,0.0
1659367207112162828,0.315015971660614,1.2251101732254028,0.0
1659367207168456077,0.32182154059410095,1.225966215133667,0.0
1659367207214496612,0.3317515552043915,1.2271277904510498,0.0
1659367207262818098,0.33809027075767517,1.227837324142456,0.0
1659367207306457042,0.34996750950813293,1.2291232347488403,0.0
1659367207353972911,0.3565889298915863,1.229807734489441,0.0
1659367207398394823,0.3661377727985382,1.230724573135376,0.0
1659367207446389913,0.3729197680950165,1.2313257455825806,0.0
1659367207494235992,0.3831312358379364,1.2322232723236084,0.0
1659367207630357503,0.3901885747909546,1.2328709363937378,0.0
1659367207630507469,0.40308070182800293,1.2341864109039307,0.0
1659367207716194391,0.4101972281932831,1.2350002527236938,0.0
1659367207716306686,0.4197256863117218,1.2361091375350952,0.0
1659367207720103979,0.4264126121997833,1.2368924617767334,0.0
1659367207736484050,0.4364880919456482,1.23811674118042,0.0
1659367207792378187,0.4433956742286682,1.2389729022979736,0.0
1659367207838364124,0.452643483877182,1.2400842905044556,0.0
1659367207886305332,0.4595821499824524,1.2408939599990845,0.0
1659367207933975458,0.4702356457710266,1.2421873807907104,0.0
1659367207979474544,0.4768628776073456,1.2430412769317627,0.0
1659367208023137331,0.4895382523536682,1.244874119758606,0.0
1659367208066582679,0.49618256092071533,1.24596107006073,0.0
1659367208110370635,0.5053170323371887,1.2476484775543213,0.0
1659367208157351493,0.5121653079986572,1.2490274906158447,0.0
1659367208206439495,0.5223826766014099,1.251112937927246,0.0
1659367208250259399,0.5289572477340698,1.2524408102035522,0.0
1659367208294445753,0.5391914248466492,1.2544419765472412,0.0
1659367208342414140,0.5457262992858887,1.2557096481323242,0.0
1659367208386196374,0.5568326711654663,1.2579954862594604,0.0
1659367208430574893,0.5626868009567261,1.2593042850494385,0.0
1659367208474085807,0.5718491673469543,1.261473298072815,0.0
1659367208518295526,0.5781747698783875,1.26298987865448,0.0
1659367208565240621,0.5870205163955688,1.2650679349899292,0.0
1659367208610713005,0.5936333537101746,1.2665787935256958,0.0
1659367208654161930,0.604873776435852,1.2690846920013428,0.0
1659367208698990821,0.6113994717597961,1.2705215215682983,0.0
1659367208742234706,0.6233171820640564,1.2731294631958008,0.0
1659367208796402454,0.6298488974571228,1.2745388746261597,0.0
1659367208842463731,0.6395576000213623,1.2765841484069824,0.0
1659367208886770009,0.6453601717948914,1.27777099609375,0.0
1659367208886949062,0.6537359952926636,1.279383897781372,0.0
1659367208951307058,0.6595605611801147,1.280457615852356,0.0
1659367208986588954,0.6698915958404541,1.282210111618042,0.0
1659367209044092893,0.6751739382743835,1.282996654510498,0.0
1659367209090055465,0.6829978227615356,1.2840683460235596,0.0
1659367209138885259,0.6878167390823364,1.2846962213516235,0.0
1659367209182328462,0.696610689163208,1.2857654094696045,0.0
1659367209227733135,0.7012186646461487,1.2862352132797241,0.0
1659367209270982503,0.7058619856834412,1.2865943908691406,0.0
1659367209314480543,0.7107138633728027,1.2868690490722656,0.0
1659367209357987880,0.7150879502296448,1.287070870399475,0.0
1659367209402300834,0.7219412326812744,1.2873554229736328,0.0
1659367209446325778,0.7253817915916443,1.2874629497528076,0.0
1659367209490735530,0.7267232537269592,1.2874633073806763,0.0
1659367209536414861,0.7261413335800171,1.2874799966812134,0.0
1659367209578798532,0.7277837991714478,1.2873848676681519,0.0
1659367209636422395,0.7297750115394592,1.2872028350830078,0.0
1659367209682796001,0.7340249419212341,1.2867178916931152,0.0
1659367209726032018,0.7374883890151978,1.2862656116485596,0.0
1659367209774409532,0.7434766292572021,1.2854087352752686,0.0
1659367209821866273,0.7471249103546143,1.2848206758499146,0.0
1659367209870530128,0.7541357278823853,1.283481240272522,0.0
1659367209919026136,0.7583363652229309,1.282549262046814,0.0
1659367209966807365,0.7638444900512695,1.2812057733535767,0.0
1659367210014470815,0.7677479982376099,1.2802268266677856,0.0
1659367210058481931,0.7728389501571655,1.278885841369629,0.0
1659367210103298664,0.7731794118881226,1.278787612915039,0.0
1659367210103477239,0.7711498737335205,1.2794209718704224,0.0
1659367210158601045,0.769521951675415,1.2799795866012573,0.0
1659367210186308860,0.7691431045532227,1.2801226377487183,0.0
1659367210242087841,0.7696585655212402,1.2799121141433716,0.0
1659367210286431312,0.7674785852432251,1.28086519241333,0.0
1659367210343769311,0.7650216817855835,1.2820045948028564,0.0
1659367210386329889,0.7601874470710754,1.284333348274231,0.0
1659367210430397987,0.7562498450279236,1.2863059043884277,0.0
1659367210474575757,0.7502002716064453,1.2894846200942993,0.0
1659367210522717237,0.7458336353302002,1.2918918132781982,0.0
1659367210566377639,0.7392289042472839,1.2957396507263184,0.0
1659367210613271713,0.7352182865142822,1.298205018043518,0.0
1659367210658424139,0.7295843362808228,1.3018447160720825,0.0
1659367210702361583,0.7253944873809814,1.3046855926513672,0.0
1659367210750417709,0.7191765308380127,1.3090877532958984,0.0
1659367210793926477,0.7149441242218018,1.3122186660766602,0.0
1659367210838680982,0.7069516777992249,1.3184744119644165,0.0
1659367210882108449,0.7029395699501038,1.321804404258728,0.0
1659367210926153659,0.6975142359733582,1.3265584707260132,0.0
1659367210969973802,0.6936861872673035,1.3300985097885132,0.0
1659367211014394521,0.6884273290634155,1.335219144821167,0.0
1659367211058056354,0.684851348400116,1.338873267173767,0.0
1659367211102425813,0.679848313331604,1.3442095518112183,0.0
1659367211147872686,0.6765034198760986,1.3479413986206055,0.0
1659367211195084333,0.6705520749092102,1.3550405502319336,0.0
1659367211238665580,0.6675764322280884,1.3588505983352661,0.0
1659367211286168575,0.6636261343955994,1.364208459854126,0.0
1659367211332336664,0.6610082387924194,1.367967963218689,0.0
1659367211332431316,0.6574307084083557,1.3734309673309326,0.0
1659367211383697748,0.6550378203392029,1.3773375749588013,0.0
1659367211412895441,0.6517260074615479,1.383170247077942,0.0
1659367211468640089,0.6494064927101135,1.3875840902328491,0.0
1659367211515902757,0.6452347040176392,1.3961659669876099,0.0
1659367211572362184,0.643075704574585,1.4009398221969604,0.0
1659367211618263721,0.63982093334198,1.4085770845413208,0.0
1659367211663143634,0.6377569437026978,1.4137215614318848,0.0
1659367211708401918,0.6341335773468018,1.4233647584915161,0.0
1659367211757376909,0.6322253346443176,1.4287573099136353,0.0
1659367211802324056,0.6296701431274414,1.4363363981246948,0.0
1659367211847370862,0.6280719041824341,1.4414056539535522,0.0
1659367211890017271,0.6260818243026733,1.4483128786087036,0.0
1659367211933771610,0.624811053276062,1.4531867504119873,0.0
1659367211977669239,0.6233819127082825,1.4592469930648804,0.0
1659367212022002935,0.6243388056755066,1.4547408819198608,0.0
1659367212070328474,0.6230223178863525,1.4616529941558838,0.0
1659367212118911027,0.6221048831939697,1.4669655561447144,0.0
1659367212166525840,0.6207776665687561,1.475545048713684,0.0
1659367212211301565,0.6199952363967896,1.481313705444336,0.0
1659367212211412429,0.6190728545188904,1.4890800714492798,0.0
1659367212255053281,0.6185232400894165,1.4943922758102417,0.0
1659367212305682659,0.6176034808158875,1.5046526193618774,0.0
1659367212357656002,0.6171789765357971,1.5101032257080078,0.0
1659367212402346611,0.6166317462921143,1.5187674760818481,0.0
1659367212446165084,0.616386353969574,1.5241024494171143,0.0
1659367212490405321,0.6161613464355469,1.5331355333328247,0.0
1659367212538555383,0.6161492466926575,1.5379952192306519,0.0
1659367212592234611,0.6163237690925598,1.5468522310256958,0.0
1659367212637778997,0.6165067553520203,1.5512778759002686,0.0
1659367212685913324,0.6169809699058533,1.5589323043823242,0.0
1659367212729722738,0.6173999309539795,1.5640532970428467,0.0
1659367212773854970,0.6184940338134766,1.574779987335205,0.0
1659367212818093538,0.6191398501396179,1.5801068544387817,0.0
1659367212861737966,0.6205693483352661,1.5906152725219727,0.0
1659367212909713506,0.6213866472244263,1.5960721969604492,0.0
1659367212954931735,0.6227529644966125,1.604440450668335,0.0
1659367212997837305,0.6237552762031555,1.610097885131836,0.0
1659367213042008161,0.6255083680152893,1.6192457675933838,0.0
1659367213085920572,0.6266482472419739,1.6247737407684326,0.0
1659367213129730701,0.6292575001716614,1.6366912126541138,0.0
1659367213174473524,0.6305571794509888,1.642313838005066,0.0
1659367213218284368,0.6326715350151062,1.6508904695510864,0.0
1659367213266069650,0.6340623497962952,1.656151533126831,0.0
1659367213310412406,0.636147141456604,1.6636106967926025,0.0
1659367213358273983,0.637612521648407,1.6686145067214966,0.0
1659367213402482509,0.6406559944152832,1.6782970428466797,0.0
1659367213446153640,0.6423642635345459,1.6833302974700928,0.0
1659367213490551710,0.645408034324646,1.6917035579681396,0.0
1659367213534247875,0.647408127784729,1.6968731880187988,0.0
1659367213585004329,0.6510732173919678,1.7059842348098755,0.0
1659367213634811162,0.6530802249908447,1.7107690572738647,0.0
1659367213634914398,0.6563597321510315,1.718230128288269,0.0
1659367213684805393,0.6588048338890076,1.7235411405563354,0.0
1659367213710915803,0.6628191471099854,1.7318055629730225,0.0
1659367213761812448,0.6651933193206787,1.7364760637283325,0.0
1659367213810682535,0.6689375638961792,1.7435437440872192,0.0
1659367213854025840,0.6716799736022949,1.74850594997406,0.0
1659367213902283430,0.6753162741661072,1.7548528909683228,0.0
1659367213946273565,0.6782404184341431,1.7597692012786865,0.0
1659367213994811534,0.6826729774475098,1.7669081687927246,0.0
1659367214039486169,0.6858688592910767,1.771834373474121,0.0
1659367214082674741,0.6919839382171631,1.7809597253799438,0.0
1659367214126729249,0.6953820586204529,1.7859030961990356,0.0
1659367214170709133,0.7005212903022766,1.7931808233261108,0.0
1659367214214120388,0.7042140960693359,1.7982566356658936,0.0
1659367214258518457,0.7091677188873291,1.8049187660217285,0.0
1659367214302509546,0.71260005235672,1.8094631433486938,0.0
1659367214350320816,0.7193295955657959,1.8182092905044556,0.0
1659367214394314289,0.7233261466026306,1.8233095407485962,0.0
1659367214438917398,0.7289315462112427,1.8302996158599854,0.0
1659367214482230424,0.7329035401344299,1.8351274728775024,0.0
1659367214527413129,0.7365562319755554,1.8394966125488281,0.0
1659367214527575492,0.740407407283783,1.8440295457839966,0.0
1659367214574717521,0.744537889957428,1.848823070526123,0.0
1659367214599585771,0.7506383061408997,1.855760931968689,0.0
1659367214656436443,0.7547729015350342,1.8603484630584717,0.0
1659367214736592054,0.7613142132759094,1.867434024810791,0.0
1659367214736758708,0.7655004262924194,1.8718706369400024,0.0
1659367214781958103,0.769451379776001,1.875972032546997,0.0
1659367214803306341,0.7732729315757751,1.879846215248108,0.0
1659367214855492591,0.7770719528198242,1.8835997581481934,0.0
1659367214902594327,0.7830238342285156,1.8892779350280762,0.0
1659367214946719169,0.7872599959373474,1.8931968212127686,0.0
1659367214994438648,0.793728768825531,1.8990625143051147,0.0
1659367215038143157,0.7982578277587891,1.9031107425689697,0.0
1659367215082462549,0.8057870864868164,1.9096883535385132,0.0
1659367215126560688,0.810390830039978,1.9136124849319458,0.0
1659367215126640558,0.8168691992759705,1.9190040826797485,0.0
1659367215172971010,0.8215045928955078,1.9227715730667114,0.0
1659367215223142862,0.8302406072616577,1.9297194480895996,0.0
1659367215273255586,0.8348498940467834,1.9333165884017944,0.0
1659367215318571329,0.8422053456306458,1.938948154449463,0.0
1659367215367916345,0.8473164439201355,1.9427638053894043,0.0
1659367215414352416,0.8540166616439819,1.9476656913757324,0.0
1659367215462685108,0.8590954542160034,1.9513112306594849,0.0
1659367215515661001,0.8662881851196289,1.9563512802124023,0.0
1659367215564424991,0.871303141117096,1.9597792625427246,0.0
1659367215610517024,0.876436173915863,1.963213324546814,0.0
1659367215610643386,0.8830257058143616,1.9675191640853882,0.0
1659367215655936241,0.8882716298103333,1.9708729982376099,0.0
1659367215669031620,0.8968740701675415,1.9762592315673828,0.0
1659367215719610929,0.901813805103302,1.9792914390563965,0.0
1659367215769903421,0.9115462303161621,1.9851101636886597,0.0
1659367215819510698,0.9165951609611511,1.9880585670471191,0.0
1659367215862416028,0.9241672158241272,1.9924076795578003,0.0
1659367215910351276,0.9291023015975952,1.9951986074447632,0.0
1659367215954459190,0.938503623008728,2.0003740787506104,0.0
1659367215998440742,0.9437091946601868,2.003145694732666,0.0
1659367216043128490,0.9531063437461853,2.0080065727233887,0.0
1659367216094651222,0.9581689834594727,2.010558843612671,0.0
1659367216144256353,0.9664957523345947,2.014676094055176,0.0
1659367216194299221,0.9715961217880249,2.0171520709991455,0.0
1659367216238218307,0.9811316132545471,2.0216174125671387,0.0
1659367216286325216,0.9863962531089783,2.0239808559417725,0.0
1659367216334375143,0.9953293204307556,2.027874231338501,0.0
1659367216378554821,1.0003628730773926,2.030007839202881,0.0
1659367216426193475,1.0092114210128784,2.0335793495178223,0.0
1659367216475344896,1.0141048431396484,2.035451650619507,0.0
1659367216475546598,1.0216882228851318,2.0382235050201416,0.0
1659367216528406620,1.0271399021148682,2.0401158332824707,0.0
1659367216560072898,1.0356478691101074,2.0429255962371826,0.0
1659367216609694480,1.0406445264816284,2.044501543045044,0.0
1659367216656263589,1.0483078956604004,2.0467915534973145,0.0
1659367216702311754,1.0535002946853638,2.0482420921325684,0.0
1659367216745984315,1.0612879991531372,2.0502755641937256,0.0
1659367216794511556,1.0667939186096191,2.0516278743743896,0.0
1659367216838256835,1.0788987874984741,2.054441452026367,0.0
1659367216882367849,1.084533929824829,2.0556857585906982,0.0
1659367216928406238,1.0957612991333008,2.058011770248413,0.0
1659367216980106592,1.1017013788223267,2.0591559410095215,0.0
1659367217026608228,1.1109645366668701,2.0608434677124023,0.0
1659367217074551343,1.1168491840362549,2.061868906021118,0.0
1659367217122279405,1.1268545389175415,2.0635738372802734,0.0
1659367217172359943,1.1327468156814575,2.0645546913146973,0.0
1659367217218611240,1.1435490846633911,2.0662479400634766,0.0
1659367217262492179,1.1499868631362915,2.0671796798706055,0.0
1659367217306615114,1.1622072458267212,2.068791627883911,0.0
1659367217350451231,1.1680117845535278,2.069493293762207,0.0
1659367217398394584,1.1785519123077393,2.0706655979156494,0.0
1659367217442436456,1.1844953298568726,2.0712621212005615,0.0
1659367217486139059,1.1945546865463257,2.072155475616455,0.0
1659367217534314393,1.200560450553894,2.0726234912872314,0.0
1659367217582319974,1.2111153602600098,2.0733489990234375,0.0
1659367217626709461,1.2171282768249512,2.0737133026123047,0.0
1659367217626955986,1.2269363403320312,2.074209451675415,0.0
1659367217674857139,1.2325509786605835,2.0744287967681885,0.0
1659367217733019590,1.245456337928772,2.074709177017212,0.0
1659367217784924268,1.2508221864700317,2.074720621109009,0.0
1659367217841114282,1.2630449533462524,2.0744833946228027,0.0
1659367217889905691,1.2678499221801758,2.074284553527832,0.0
1659367217947385311,1.2729283571243286,2.0739822387695312,0.0
1659367217990173101,1.2789311408996582,2.0734777450561523,0.0
1659367218034233093,1.2837638854980469,2.0729665756225586,0.0
1659367218078402996,1.2923519611358643,2.0718822479248047,0.0
1659367218131342411,1.2975400686264038,2.0711512565612793,0.0
1659367218174173116,1.308559775352478,2.0695416927337646,0.0
1659367218218346595,1.3141201734542847,2.068732500076294,0.0
1659367218262357950,1.3225469589233398,2.0675864219665527,0.0
1659367218306399822,1.3280713558197021,2.0668880939483643,0.0
1659367218353253364,1.3339489698410034,2.0661587715148926,0.0
1659367218353355169,1.341257929801941,2.065248489379883,0.0
1659367218402468442,1.346480369567871,2.0645837783813477,0.0
1659367218424965143,1.3555353879928589,2.063361167907715,0.0
1659367218474798679,1.3601458072662354,2.0627031326293945,0.0
1659367218524248123,1.3679792881011963,2.061520576477051,0.0
1659367218657507181,1.3726783990859985,2.0607714653015137,0.0
1659367218657689809,1.3807393312454224,2.05940842628479,0.0
1659367218705291748,1.3863681554794312,2.0583901405334473,0.0
1659367218705430746,1.3957126140594482,2.0565872192382812,0.0
1659367218750417470,1.4015171527862549,2.055410385131836,0.0
1659367218791046619,1.4163014888763428,2.052412509918213,0.0
1659367218842338323,1.4226810932159424,2.0511419773101807,0.0
1659367218897478580,1.4292339086532593,2.0498344898223877,0.0
1659367218942185401,1.438585877418518,2.0479393005371094,0.0
1659367218986293792,1.444635272026062,2.046696424484253,0.0
1659367219030227899,1.4559578895568848,2.0443315505981445,0.0
1659367219074509382,1.4621469974517822,2.0430147647857666,0.0
1659367219118408441,1.4718127250671387,2.0408902168273926,0.0
1659367219162199258,1.4779094457626343,2.0395069122314453,0.0
1659367219206212282,1.4843944311141968,2.0380048751831055,0.0
1659367219250525236,1.4932588338851929,2.035895586013794,0.0
1659367219296029329,1.4994293451309204,2.034383773803711,0.0
1659367219296148538,1.5099848508834839,2.031731605529785,0.0
1659367219343569755,1.5157965421676636,2.030245780944824,0.0
1659367219390080213,1.5251429080963135,2.0277702808380127,0.0
1659367219440986156,1.530901312828064,2.0261824131011963,0.0
1659367219486215114,1.5394139289855957,2.023730516433716,0.0
1659367219530397891,1.5449635982513428,2.0220582485198975,0.0
1659367219578860998,1.554262638092041,2.0191454887390137,0.0
1659367219624936103,1.558982014656067,2.0176165103912354,0.0
1659367219670235395,1.5646693706512451,2.015709161758423,0.0
1659367219714431047,1.5664632320404053,2.0150883197784424,0.0
1659367219758186578,1.567991852760315,2.014552116394043,0.0
1659367219802089691,1.5681828260421753,2.0144846439361572,0.0
1659367219846290588,1.5682305097579956,2.014467716217041,0.0
1659367219890354156,1.5682305097579956,2.014467716217041,0.0
1659367219990370035,1.5682305097579956,2.014467716217041,0.0
1659367219990438461,1.5682305097579956,2.014467716217041,0.0
1659367220039623260,1.5682305097579956,2.014467716217041,0.0
1659367220040094137,1.5682305097579956,2.014467716217041,0.0
1659367220098941087,1.5682305097579956,2.014467716217041,0.0
1659367220121854305,1.5682543516159058,2.0144593715667725,0.0
1659367220173392057,1.5682305097579956,2.014467716217041,0.0
1659367220226526021,1.5682305097579956,2.014467716217041,0.0
1659367220276544809,1.5682305097579956,2.014467716217041,0.0
1659367220322481393,1.5682305097579956,2.014467716217041,0.0
1659367220370309114,1.5686839818954468,2.014307737350464,0.0
1659367220414372682,1.5735517740249634,2.0125856399536133,0.0
1659367220459698200,1.5776054859161377,2.0111429691314697,0.0
1659367220506076097,1.585325837135315,2.0083775520324707,0.0
1659367220550543069,1.5908043384552002,2.006408929824829,0.0
1659367220594162464,1.5999408960342407,2.003169059753418,0.0
1659367220642244100,1.6058909893035889,2.001091480255127,0.0
1659367220690305709,1.6155844926834106,1.9977574348449707,0.0
1659367220758236646,1.6216304302215576,1.9957255125045776,0.0
1659367220802596569,1.6327093839645386,1.9920642375946045,0.0
1659367220802667379,1.638769268989563,1.9900742769241333,0.0
1659367220853088617,1.6480263471603394,1.9870307445526123,0.0
1659367220876298666,1.6540859937667847,1.9850399494171143,0.0
1659367220926111936,1.6659023761749268,1.9812730550765991,0.0
1659367220971957683,1.6719025373458862,1.9794292449951172,0.0
1659367221017701864,1.6814967393875122,1.9765287637710571,0.0
1659367221063749790,1.687464952468872,1.9747542142868042,0.0
1659367221106359720,1.696101427078247,1.9722747802734375,0.0
1659367221150189638,1.7020066976547241,1.9706482887268066,0.0
1659367221195140123,1.7134335041046143,1.9676244258880615,0.0
1659367221239787340,1.7193444967269897,1.9661179780960083,0.0
1659367221281975507,1.728157877922058,1.9639068841934204,0.0
1659367221330155849,1.734498143196106,1.9623435735702515,0.0
1659367221378360271,1.7430391311645508,1.960296869277954,0.0
1659367221422358512,1.748956322669983,1.9589232206344604,0.0
1659367221470264911,1.7550086975097656,1.957573413848877,0.0
1659367221514208316,1.7625395059585571,1.955994963645935,0.0
1659367221558694601,1.7685997486114502,1.954805850982666,0.0
1659367221558796405,1.7795945405960083,1.9528809785842896,0.0
1659367221604507207,1.785396933555603,1.9519789218902588,0.0
1659367221650387763,1.7969982624053955,1.950323224067688,0.0
1659367221701352119,1.8027210235595703,1.9495798349380493,0.0
1659367221746155738,1.810995101928711,1.9486407041549683,0.0
1659367221790579319,1.816136360168457,1.9481627941131592,0.0
1659367221836191654,1.8217638731002808,1.9477275609970093,0.0
1659367221882584571,1.8295717239379883,1.9472733736038208,0.0
1659367221926573514,1.8352872133255005,1.9470423460006714,0.0
1659367221970247030,1.8452569246292114,1.94680917263031,0.0
1659367222014138936,1.8515084981918335,1.9467600584030151,0.0
1659367222058656692,1.857886791229248,1.946763277053833,0.0
1659367222058742284,1.8657833337783813,1.9468376636505127,0.0
1659367222107997417,1.8718820810317993,1.9469523429870605,0.0
1659367222130739450,1.882002353668213,1.9472378492355347,0.0
1659367222188909769,1.8879719972610474,1.947447657585144,0.0
1659367222234265565,1.8994503021240234,1.9479875564575195,0.0
1659367222279073476,1.9054123163223267,1.9483540058135986,0.0
1659367222322432994,1.915282130241394,1.949079990386963,0.0
1659367222367083787,1.921133279800415,1.9495757818222046,0.0
1659367222411183118,1.9338027238845825,1.950829267501831,0.0
1659367222463948488,1.9398126602172852,1.9515174627304077,0.0
1659367222510335206,1.9493769407272339,1.9527500867843628,0.0
1659367222554231882,1.9554407596588135,1.9536148309707642,0.0
1659367222598614215,1.9646530151367188,1.954990029335022,0.0
1659367222642025470,1.9710568189620972,1.955977439880371,0.0
1659367222688382625,1.9822940826416016,1.95783531665802,0.0
1659367222735431671,1.988349199295044,1.9589146375656128,0.0
1659367222778298377,1.9973031282424927,1.9606037139892578,0.0
1659367222822329521,2.0029640197753906,1.961724877357483,0.0
1659367222866176605,2.0146484375,1.9642146825790405,0.0
1659367222910411357,2.020246982574463,1.9655064344406128,0.0
1659367222954232931,2.028851270675659,1.9676146507263184,0.0
1659367222998663663,2.0342915058135986,1.9690202474594116,0.0
1659367223043384552,2.0404510498046875,1.9706765413284302,0.0
1659367223086306333,2.048218250274658,1.9728819131851196,0.0
1659367223130317211,2.0538711547851562,1.9745627641677856,0.0
1659367223174404621,2.0646121501922607,1.9778677225112915,0.0
1659367223218311071,2.0703091621398926,1.9796634912490845,0.0
1659367223262335538,2.0788733959198,1.9823817014694214,0.0
1659367223307103395,2.084758758544922,1.9842535257339478,0.0
1659367223307378292,2.0930986404418945,1.986925482749939,0.0
1659367223365727424,2.0991413593292236,1.9888867139816284,0.0
1659367223393917083,2.1097323894500732,1.9924112558364868,0.0
1659367223443609952,2.1153616905212402,1.9943323135375977,0.0
1659367223487063407,2.1241557598114014,1.9974017143249512,0.0
1659367223530035734,2.1298274993896484,1.9994311332702637,0.0
1659367223574749469,2.1358425617218018,2.0016276836395264,0.0
1659367223619689226,2.1439051628112793,2.00463604927063,0.0
1659367223662090539,2.14992094039917,2.0069034099578857,0.0
1659367223709968090,2.160351276397705,2.010878324508667,0.0
1659367223754465579,2.1660375595092773,2.0130863189697266,0.0
1659367223802309513,2.176488161087036,2.017287254333496,0.0
1659367223850169420,2.1820297241210938,2.0195841789245605,0.0
1659367223894405603,2.1907918453216553,2.023298501968384,0.0
1659367223938480615,2.196200370788574,2.025649309158325,0.0
1659367223982467889,2.2044169902801514,2.0293476581573486,0.0
1659367224029371976,2.209735155105591,2.0318374633789062,0.0
1659367224078111648,2.2194390296936035,2.0365376472473145,0.0
1659367224124688625,2.224604368209839,2.0391108989715576,0.0
1659367224125110387,2.2333178520202637,2.0435855388641357,0.0
1659367224167008161,2.2385475635528564,2.046365737915039,0.0
1659367224206892251,2.24904203414917,2.0521271228790283,0.0
1659367224256927490,2.2541112899780273,2.0549893379211426,0.0
1659367224313369035,2.25968074798584,2.0582005977630615,0.0
1659367224358462095,2.2674949169158936,2.062837600708008,0.0
1659367224402288913,2.2726216316223145,2.0659523010253906,0.0
1659367224446680307,2.2820229530334473,2.0718274116516113,0.0
1659367224490356445,2.2870934009552,2.075079917907715,0.0
1659367224534286022,2.295234441757202,2.080435276031494,0.0
1659367224582116127,2.3001818656921387,2.083782434463501,0.0
1659367224626681566,2.3109545707702637,2.0912554264068604,0.0
1659367224676057577,2.315969228744507,2.0948164463043213,0.0
1659367224722894430,2.325610637664795,2.10182785987854,0.0
1659367224770114660,2.3305883407592773,2.1055259704589844,0.0
1659367224814249753,2.342644453048706,2.1147189140319824,0.0
1659367224858338356,2.347442865371704,2.1184849739074707,0.0
1659367224911322832,2.3526723384857178,2.1226446628570557,0.0
1659367225003545999,2.359572649002075,2.128200054168701,0.0
1659367225046250343,2.3643195629119873,2.1320712566375732,0.0
1659367225046353101,2.3737945556640625,2.139955759048462,0.0
1659367225090204715,2.3782920837402344,2.143770456314087,0.0
1659367225106236934,2.385514259338379,2.1500070095062256,0.0
1659367225155056238,2.3901383876800537,2.154062509536743,0.0
1659367225211340904,2.4004878997802734,2.163296937942505,0.0
1659367225261754512,2.4052364826202393,2.167630672454834,0.0
1659367225317887306,2.410004138946533,2.172055721282959,0.0
1659367225362362384,2.4167473316192627,2.1784443855285645,0.0
1659367225406193971,2.421066999435425,2.1826064586639404,0.0
1659367225450757980,2.4289634227752686,2.1903514862060547,0.0
1659367225495391130,2.433589220046997,2.1949963569641113,0.0
1659367225547891378,2.4434525966644287,2.2051048278808594,0.0
1659367225589653730,2.448103427886963,2.2099380493164062,0.0
1659367225637444257,2.4525680541992188,2.2146339416503906,0.0
1659367225686187982,2.4595017433166504,2.2220458984375,0.0
1659367225734383821,2.4638564586639404,2.2267754077911377,0.0
1659367225778318166,2.4704809188842773,2.2341277599334717,0.0
1659367225822973728,2.4748787879943848,2.2391247749328613,0.0
1659367225872444391,2.484031915664673,2.249713897705078,0.0
1659367225922962665,2.488046646118164,2.254406690597534,0.0
1659367225983951807,2.492478847503662,2.259641647338867,0.0
1659367226025855064,2.4981954097747803,2.266508102416992,0.0
1659367226025924444,2.502440929412842,2.271667957305908,0.0
1659367226070618152,2.5088329315185547,2.279453754425049,0.0
1659367226099516630,2.5132181644439697,2.2847936153411865,0.0
1659367226158401489,2.5221023559570312,2.2957401275634766,0.0
1659367226208419084,2.525836706161499,2.3004024028778076,0.0
1659367226264599084,2.5351474285125732,2.312239170074463,0.0
1659367226314733266,2.539257287979126,2.3175718784332275,0.0
1659367226372413396,2.543229103088379,2.322787046432495,0.0
1659367226422453403,2.548659324645996,2.33004093170166,0.0
1659367226466367244,2.5523722171783447,2.335102081298828,0.0
1659367226514464855,2.5587151050567627,2.3439149856567383,0.0
1659367226562468767,2.5621907711029053,2.348803997039795,0.0
1659367226606408596,2.5687289237976074,2.358161211013794,0.0
1659367226650541782,2.5721585750579834,2.3631749153137207,0.0
1659367226694339752,2.57749605178833,2.371084690093994,0.0
1659367226745024204,2.5808308124542236,2.376070976257324,0.0
1659367226745167255,2.5861356258392334,2.384063482284546,0.0
1659367226798872232,2.5894935131073,2.3891561031341553,0.0
1659367226815611124,2.594879627227783,2.397428274154663,0.0
1659367226865153312,2.598182439804077,2.4025866985321045,0.0
1659367226922297239,2.6016345024108887,2.4080400466918945,0.0
1659367226966307401,2.60595965385437,2.414947748184204,0.0
1659367227010426521,2.6091742515563965,2.4201319217681885,0.0
1659367227054375648,2.614793062210083,2.4293642044067383,0.0
1659367227101554632,2.6180484294891357,2.4348196983337402,0.0
1659367227149922847,2.6237375736236572,2.44448184967041,0.0
1659367227205353021,2.626945972442627,2.449965238571167,0.0
1659367227205438137,2.631950616836548,2.4585323333740234,0.0
1659367227254360914,2.635183811187744,2.464118242263794,0.0
1659367227287395477,2.641578435897827,2.475360631942749,0.0
1659367227331709861,2.6446762084960938,2.4808781147003174,0.0
1659367227384474515,2.6503782272338867,2.491145133972168,0.0
1659367227434947013,2.65348482131958,2.496802568435669,0.0
1659367227478805303,2.658231019973755,2.505573272705078,0.0
1659367227522184848,2.661172389984131,2.5111184120178223,0.0
1659367227566398382,2.6667284965515137,2.5216944217681885,0.0
1659367227613313674,2.6696014404296875,2.5271899700164795,0.0
1659367227659743547,2.672677516937256,2.5331218242645264,0.0
1659367227702637672,2.677311897277832,2.542180061340332,0.0
1659367227746685266,2.68009614944458,2.5476927757263184,0.0
1659367227790155887,2.686039924621582,2.5598878860473633,0.0
1659367227834435224,2.688725471496582,2.565617322921753,0.0
1659367227878078937,2.692758321762085,2.5743770599365234,0.0
1659367227922296285,2.695317506790161,2.5799975395202637,0.0
1659367227970174312,2.6999940872192383,2.5905215740203857,0.0
1659367228015331745,2.702601909637451,2.5965912342071533,0.0
1659367228058218479,2.706047534942627,2.604834794998169,0.0
1659367228106477260,2.7084083557128906,2.610623598098755,0.0
1659367228154262304,2.7125656604766846,2.6210098266601562,0.0
1659367228207057952,2.7148654460906982,2.6268503665924072,0.0
1659367228207224845,2.718384265899658,2.6359918117523193,0.0
1659367228253861427,2.7206008434295654,2.6418914794921875,0.0
1659367228310202360,2.725982427597046,2.6563355922698975,0.0
1659367228361026763,2.7281546592712402,2.6621978282928467,0.0
1659367228418002367,2.7304916381835938,2.668592691421509,0.0
1659367228462382555,2.733746290206909,2.677616596221924,0.0
1659367228510123968,2.7358620166778564,2.683499574661255,0.0
1659367228554684638,2.740211248397827,2.6958680152893066,0.0
1659367228607093811,2.7421865463256836,2.7016658782958984,0.0
1659367228650539636,2.745382308959961,2.7111656665802,0.0
1659367228698317527,2.747509479522705,2.7175533771514893,0.0
1659367228746562957,2.751749038696289,2.730600357055664,0.0
1659367228790183067,2.7538254261016846,2.737164258956909,0.0
1659367228834369897,2.755866289138794,2.743739366531372,0.0
1659367228882265806,2.7580392360687256,2.7509093284606934,0.0
1659367228930650472,2.7598977088928223,2.7571959495544434,0.0
1659367228930785894,2.7630038261413574,2.768233060836792,0.0
1659367228974514484,2.7647411823272705,2.7747113704681396,0.0
1659367229026416540,2.767866373062134,2.786870241165161,0.0
1659367229078392744,2.7694578170776367,2.7933859825134277,0.0
1659367229122358083,2.7715542316436768,2.8023834228515625,0.0
1659367229166306018,2.7730047702789307,2.808906078338623,0.0
1659367229210782051,2.77557635307312,2.8205726146698,0.0
1659367229253949165,2.777078866958618,2.827316999435425,0.0
1659367229299168348,2.778552532196045,2.8339641094207764,0.0
1659367229346198558,2.7804460525512695,2.842592239379883,0.0
1659367229390615224,2.7819101810455322,2.8492932319641113,0.0
1659367229434160470,2.784191370010376,2.8598055839538574,0.0
1659367229478330135,2.785642385482788,2.8665614128112793,0.0
1659367229526442289,2.787050247192383,2.873196840286255,0.0
1659367229526560544,2.7889132499694824,2.8821163177490234,0.0
1659367229575309514,2.7902793884277344,2.888812303543091,0.0
1659367229599318265,2.792245388031006,2.8988728523254395,0.0
1659367229735723972,2.793501853942871,2.905616044998169,0.0
1659367229735845327,2.7947070598602295,2.9122655391693115,0.0
1659367229739782571,2.796339750289917,2.9216413497924805,0.0
1659367229785447597,2.7974252700805664,2.928209066390991,0.0
1659367229815265893,2.7993931770324707,2.940351724624634,0.0
1659367229864818572,2.800494909286499,2.9471218585968018,0.0
1659367229936903715,2.8026466369628906,2.960798501968384,0.0
1659367229986089229,2.803659200668335,2.9676592350006104,0.0
1659367230034257411,2.804633378982544,2.9744999408721924,0.0
1659367230077944517,2.8058042526245117,2.982821226119995,0.0
1659367230124621629,2.8067355155944824,2.9895145893096924,0.0
1659367230124706268,2.8082284927368164,3.000729560852051,0.0
1659367230174513101,2.809067487716675,3.0073843002319336,0.0
1659367230225639104,2.8099019527435303,3.0142436027526855,0.0
1659367230275773763,2.8109068870544434,3.022841215133667,0.0
1659367230322242021,2.811668872833252,3.029607057571411,0.0
1659367230369864940,2.8127734661102295,3.039696455001831,0.0
1659367230414193868,2.813485860824585,3.046391248703003,0.0
1659367230414289236,2.8145337104797363,3.056995391845703,0.0
1659367230462218523,2.8151464462280273,3.063878059387207,0.0
1659367230495829820,2.816006898880005,3.0738894939422607,0.0
1659367230546981334,2.8165667057037354,3.0803449153900146,0.0
1659367230596741914,2.817615509033203,3.092982053756714,0.0
1659367230646714448,2.818112850189209,3.0993916988372803,0.0
1659367230690393686,2.8187897205352783,3.108859062194824,0.0
1659367230734262228,2.819220542907715,3.1155271530151367,0.0
1659367230780286550,2.8196582794189453,3.1224992275238037,0.0
1659367230826112985,2.8202950954437256,3.1326541900634766,0.0
1659367230870162010,2.820707321166992,3.1394248008728027,0.0
1659367230914377450,2.8213791847229004,3.1511244773864746,0.0
1659367230958024740,2.821723222732544,3.157442808151245,0.0
1659367231002725362,2.82236909866333,3.1698789596557617,0.0
1659367231050069093,2.822685718536377,3.176300048828125,0.0
1659367231094822645,2.823140859603882,3.1861860752105713,0.0
1659367231138236999,2.823408603668213,3.1925840377807617,0.0
1659367231182735443,2.823683023452759,3.1996402740478516,0.0
1659367231230211019,2.8240036964416504,3.2085185050964355,0.0
1659367231278752565,2.82423734664917,3.215475082397461,0.0
1659367231278897047,2.8246264457702637,3.227111577987671,0.0
1659367231322449445,2.8248450756073,3.2335619926452637,0.0
1659367231363741159,2.8252670764923096,3.247856378555298,0.0
1659367231415018558,2.8254289627075195,3.254460573196411,0.0
1659367231471331119,2.8255844116210938,3.2614951133728027,0.0
1659367231518438339,2.8257503509521484,3.2715420722961426,0.0
1659367231562227249,2.825815439224243,3.278223752975464,0.0
1659367231607049226,2.825946569442749,3.290498733520508,0.0
1659367231650254964,2.826042413711548,3.2971293926239014,0.0
1659367231694397449,2.8261687755584717,3.308164119720459,0.0
1659367231738301515,2.8262059688568115,3.315251111984253,0.0
1659367231782497882,2.8262698650360107,3.328336477279663,0.0
1659367231826633214,2.826324701309204,3.3353219032287598,0.0
1659367231870393753,2.826401948928833,3.3454458713531494,0.0
1659367231918809413,2.8264377117156982,3.3524820804595947,0.0
1659367231962298870,2.826495409011841,3.366504192352295,0.0
1659367232007185935,2.826540470123291,3.3733632564544678,0.0
1659367232055150985,2.826603412628174,3.38794207572937,0.0
1659367232103855133,2.826594114303589,3.3951303958892822,0.0
1659367232162651300,2.8265771865844727,3.4019389152526855,0.0
1659367232210391998,2.8265583515167236,3.410721778869629,0.0
1659367232258437156,2.8265419006347656,3.417429208755493,0.0
1659367232302281141,2.826493263244629,3.429046630859375,0.0
1659367232346598863,2.826455593109131,3.436032295227051,0.0
1659367232396868467,2.8264200687408447,3.442866086959839,0.0
1659367232396961450,2.826367139816284,3.4516234397888184,0.0
1659367232446499109,2.826317071914673,3.4582040309906006,0.0
1659367232462574005,2.8262057304382324,3.470099449157715,0.0
1659367232526852369,2.8261380195617676,3.4770848751068115,0.0
1659367232570412635,2.826073408126831,3.484196901321411,0.0
1659367232621273279,2.8259925842285156,3.4936628341674805,0.0
1659367232666245460,2.8259470462799072,3.5003952980041504,0.0
1659367232714830875,2.8259005546569824,3.5123417377471924,0.0
1659367232758926868,2.8258914947509766,3.5187199115753174,0.0
1659367232806205034,2.825910806655884,3.5290465354919434,0.0
1659367232850484848,2.825955867767334,3.5360069274902344,0.0
1659367232850561857,2.826050043106079,3.5444600582122803,0.0
1659367232894468545,2.826165199279785,3.551419496536255,0.0
1659367232944588661,2.826514482498169,3.566070318222046,0.0
1659367232995363950,2.8267202377319336,3.572749137878418,0.0
1659367233052605867,2.8269543647766113,3.57962965965271,0.0
1659367233102618217,2.8272860050201416,3.5895206928253174,0.0
1659367233146628856,2.8274972438812256,3.5960726737976074,0.0
1659367233190222024,2.827888250350952,3.6069746017456055,0.0
1659367233238379478,2.828174352645874,3.61382794380188,0.0
1659367233282389402,2.828678607940674,3.6261439323425293,0.0
1659367233330086469,2.828929901123047,3.632922649383545,0.0
1659367233374389410,2.829288959503174,3.642457962036133,0.0
1659367233422776222,2.8295674324035645,3.649362087249756,0.0
1659367233422880411,2.8300061225891113,3.659071445465088,0.0
1659367233470709323,2.830360174179077,3.6659469604492188,0.0
1659367233520832777,2.8307175636291504,3.6728475093841553,0.0
1659367233566150188,2.8311901092529297,3.682656764984131,0.0
1659367233610410928,2.831500768661499,3.6890528202056885,0.0
1659367233654879570,2.8320958614349365,3.699387788772583,0.0
1659367233698273420,2.83253812789917,3.705979108810425,0.0
1659367233742124319,2.833379030227661,3.7181499004364014,0.0
1659367233786512136,2.833873987197876,3.7251689434051514,0.0
1659367233835909605,2.834357500076294,3.731757402420044,0.0
1659367233877823114,2.8351173400878906,3.741624593734741,0.0
1659367233921774148,2.8356242179870605,3.7478556632995605,0.0
1659367233970327615,2.836592197418213,3.758924722671509,0.0
1659367234014340639,2.8372385501861572,3.7658042907714844,0.0
1659367234066461801,2.8378705978393555,3.7722020149230957,0.0
1659367234066585063,2.8388662338256836,3.781590223312378,0.0
1659367234114591121,2.8395776748657227,3.787775993347168,0.0
1659367234136903524,2.8408420085906982,3.797821044921875,0.0
1659367234189123392,2.841594696044922,3.803389310836792,0.0
1659367234240185022,2.8431923389434814,3.814180612564087,0.0
1659367234292076826,2.844128131866455,3.8198750019073486,0.0
1659367234338191986,2.845536470413208,3.8276968002319336,0.0
1659367234382172346,2.8464407920837402,3.8323426246643066,0.0
1659367234429769277,2.8475804328918457,3.8378188610076904,0.0
1659367234474918842,2.847949743270874,3.8394999504089355,0.0
1659367234522454500,2.8483469486236572,3.841252565383911,0.0
1659367234566732883,2.8483810424804688,3.841400623321533,0.0
1659367234614529848,2.8484039306640625,3.8414993286132812,0.0
1659367234658169031,2.8484039306640625,3.8414993286132812,0.0
1659367234702519893,2.8484039306640625,3.8414993286132812,0.0
1659367234746108055,2.8484039306640625,3.8414993286132812,0.0
1659367234794359922,2.8484039306640625,3.8414993286132812,0.0
1659367234842638254,2.8484039306640625,3.8414993286132812,0.0
1659367234887254714,2.8484039306640625,3.8414993286132812,0.0
1659367234932473897,2.848398208618164,3.841474771499634,0.0
1659367234984970569,2.848398208618164,3.841474771499634,0.0
1659367235033647775,2.8484039306640625,3.8414993286132812,0.0
1659367235077814340,2.8484039306640625,3.8414993286132812,0.0
1659367235122138261,2.8484039306640625,3.8414993286132812,0.0
1659367235173061132,2.8484039306640625,3.8414993286132812,0.0
1659367235230755090,2.848398208618164,3.841474771499634,0.0
1659367235274340629,2.8484039306640625,3.8414993286132812,0.0
1659367235319211721,2.8484039306640625,3.8414993286132812,0.0
1659367235362324714,2.8484039306640625,3.8414993286132812,0.0
1659367235406708002,2.8484039306640625,3.8414993286132812,0.0
1659367235451402664,2.8479862213134766,3.8396995067596436,0.0
1659367235504518032,2.847240924835205,3.8364946842193604,0.0
1659367235550103664,2.8457460403442383,3.8300859928131104,0.0
1659367235593719720,2.8444395065307617,3.824517011642456,0.0
1659367235638134956,2.8421506881713867,3.8148107528686523,0.0
1659367235683162927,2.8406198024749756,3.8083324432373047,0.0
1659367235727494001,2.8375771045684814,3.7959961891174316,0.0
1659367235776844978,2.8357558250427246,3.7890686988830566,0.0
1659367235822302103,2.8333921432495117,3.7803473472595215,0.0
1659367235870333433,2.8315138816833496,3.773592472076416,0.0
1659367235914352178,2.8279786109924316,3.761361837387085,0.0
1659367235962280750,2.8261351585388184,3.7551236152648926,0.0
1659367236009134054,2.822618246078491,3.7433888912200928,0.0
1659367236054797887,2.8206777572631836,3.737074136734009,0.0
1659367236102291822,2.8179519176483154,3.7283530235290527,0.0
1659367236146534442,2.8159401416778564,3.7219810485839844,0.0
1659367236190324544,2.8126657009124756,3.7119739055633545,0.0
1659367236234175920,2.8105409145355225,3.7057723999023438,0.0
1659367236278851509,2.807399034500122,3.696896553039551,0.0
1659367236322873830,2.805126190185547,3.690559148788452,0.0
1659367236367006540,2.802180528640747,3.6822314262390137,0.0
1659367236410854578,2.7999987602233887,3.67602276802063,0.0
1659367236454745531,2.796786069869995,3.667064666748047,0.0
1659367236498827457,2.7945127487182617,3.660835027694702,0.0
1659367236499066591,2.791677713394165,3.653005361557007,0.0
1659367236542915582,2.7896437644958496,3.647067070007324,0.0
1659367236597519636,2.787599563598633,3.6408650875091553,0.0
1659367236642602205,2.7850844860076904,3.6332459449768066,0.0
1659367236686391115,2.7830450534820557,3.6270158290863037,0.0
1659367236730452537,2.779772996902466,3.617141008377075,0.0
1659367236774344444,2.7776083946228027,3.6106855869293213,0.0
1659367236822699069,2.7746949195861816,3.6016523838043213,0.0
1659367236866711854,2.773197650909424,3.596605062484741,0.0
1659367236866951227,2.7713024616241455,3.589618682861328,0.0
1659367236915202617,2.770059823989868,3.5846331119537354,0.0
1659367236965528011,2.7676491737365723,3.574305534362793,0.0
1659367237016999483,2.7665483951568604,3.5693905353546143,0.0
1659367237071725368,2.765401601791382,3.5642783641815186,0.0
1659367237114405632,2.76393985748291,3.557706356048584,0.0
