%time,field.x,field.y,field.z
1659375431986278057,1.4053746461868286,2.679948568344116,0.0
1659375432017552137,1.4053746461868286,2.679948568344116,0.0
1659375432068918943,1.4053746461868286,2.679948568344116,0.0
1659375432098646163,1.4053746461868286,2.679948568344116,0.0
1659375432150177717,1.4053746461868286,2.679948568344116,0.0
1659375432176276922,1.4053746461868286,2.679948568344116,0.0
1659375432227929115,1.4053746461868286,2.679948568344116,0.0
1659375432284360647,1.4053746461868286,2.679948568344116,0.0
1659375432334589481,1.4053746461868286,2.679948568344116,0.0
1659375432356770753,1.4053746461868286,2.679948568344116,0.0
1659375432407509326,1.4053746461868286,2.679948568344116,0.0
1659375432436876773,1.4053746461868286,2.679948568344116,0.0
1659375432486364841,1.4053746461868286,2.679948568344116,0.0
1659375432531557559,1.4053746461868286,2.679948568344116,0.0
1659375432580526113,1.4053746461868286,2.679948568344116,0.0
1659375432631790399,1.4053746461868286,2.679948568344116,0.0
1659375432676880598,1.4053746461868286,2.679948568344116,0.0
1659375432726221799,1.4053746461868286,2.679948568344116,0.0
1659375432773962020,1.4053746461868286,2.679948568344116,0.0
1659375432822084665,1.4053746461868286,2.679948568344116,0.0
1659375432870146036,1.4053746461868286,2.679948568344116,0.0
1659375432914120197,1.4053746461868286,2.679948568344116,0.0
1659375432961864233,1.4053746461868286,2.679948568344116,0.0
1659375433009060144,1.4053746461868286,2.679948568344116,0.0
1659375433053579092,1.4053746461868286,2.679948568344116,0.0
1659375433101991891,1.4053746461868286,2.679948568344116,0.0
1659375433146413087,1.4053746461868286,2.679948568344116,0.0
1659375433194032430,1.4053746461868286,2.679948568344116,0.0
1659375433241807460,1.4053746461868286,2.679948568344116,0.0
1659375433291431903,1.4053746461868286,2.679948568344116,0.0
1659375433334303855,1.4053746461868286,2.679948568344116,0.0
1659375433378302812,1.4053746461868286,2.679948568344116,0.0
1659375433421525716,1.4053746461868286,2.679948568344116,0.0
1659375433465630531,1.4053746461868286,2.679948568344116,0.0
1659375433509597539,1.4053746461868286,2.679948568344116,0.0
1659375433557617187,1.4053746461868286,2.679948568344116,0.0
1659375433601680278,1.4053746461868286,2.679948568344116,0.0
1659375433649737358,1.4053746461868286,2.679948568344116,0.0
1659375433693625688,1.4053746461868286,2.679948568344116,0.0
1659375433738185405,1.4053746461868286,2.679948568344116,0.0
1659375433786998271,1.4053746461868286,2.679948568344116,0.0
1659375433832573652,1.4053746461868286,2.679948568344116,0.0
1659375433832649469,1.4053746461868286,2.679948568344116,0.0
1659375433882240772,1.4053746461868286,2.679948568344116,0.0
1659375433926090002,1.4053746461868286,2.679948568344116,0.0
1659375433983523130,1.4054642915725708,2.679739236831665,0.0
1659375434033225536,1.4067021608352661,2.6768550872802734,0.0
1659375434078465938,1.4080662727355957,2.673694610595703,0.0
1659375434122453927,1.4116448163986206,2.6655354499816895,0.0
1659375434166373968,1.414075255393982,2.660106658935547,0.0
1659375434214340686,1.4174681901931763,2.65258526802063,0.0
1659375434258600950,1.419981598854065,2.647055149078369,0.0
1659375434306194782,1.4261181354522705,2.633718967437744,0.0
1659375434350381135,1.428884506225586,2.6277198791503906,0.0
1659375434395966291,1.4316171407699585,2.6217610836029053,0.0
1659375434438095331,1.4355217218399048,2.6131932735443115,0.0
1659375434482858657,1.4379748106002808,2.607858180999756,0.0
1659375434529928445,1.4421231746673584,2.5990965366363525,0.0
1659375434573753595,1.4446818828582764,2.593839406967163,0.0
1659375434617957115,1.4481837749481201,2.586817979812622,0.0
1659375434666141510,1.4507884979248047,2.5816967487335205,0.0
1659375434666242599,1.4548019170761108,2.5738844871520996,0.0
1659375434712203025,1.45758056640625,2.5685112476348877,0.0
1659375434752730846,1.462328553199768,2.5591983795166016,0.0
1659375434803455114,1.4650415182113647,2.5537915229797363,0.0
1659375434846203565,1.469389796257019,2.5455543994903564,0.0
1659375434894196987,1.4722981452941895,2.5403659343719482,0.0
1659375434939157485,1.4775422811508179,2.531381845474243,0.0
1659375434982832193,1.480500340461731,2.526515483856201,0.0
1659375435030633449,1.484763503074646,2.5195693969726562,0.0
1659375435078187704,1.4875223636627197,2.5150558948516846,0.0
1659375435122418165,1.490127682685852,2.510774850845337,0.0
1659375435170554399,1.4929128885269165,2.5061588287353516,0.0
1659375435215702295,1.4949063062667847,2.502868413925171,0.0
1659375435215871810,1.4983052015304565,2.497351884841919,0.0
1659375435264813899,1.5004568099975586,2.4938912391662598,0.0
1659375435294108629,1.5040099620819092,2.488262176513672,0.0
1659375435344307899,1.5060678720474243,2.4850716590881348,0.0
1659375435393751621,1.5094290971755981,2.4799511432647705,0.0
1659375435440388917,1.5115396976470947,2.4767649173736572,0.0
1659375435485926866,1.5156458616256714,2.4705286026000977,0.0
1659375435533941745,1.5181572437286377,2.4667272567749023,0.0
1659375435581757783,1.523783564567566,2.45843243598938,0.0
1659375435627582788,1.526605486869812,2.454352378845215,0.0
1659375435673842430,1.5313717126846313,2.4476168155670166,0.0
1659375435717863798,1.5346359014511108,2.4431369304656982,0.0
1659375435761958837,1.540619969367981,2.4350333213806152,0.0
1659375435805752754,1.543935775756836,2.430591344833374,0.0
1659375435849591255,1.549268126487732,2.4235806465148926,0.0
1659375435897849559,1.5526607036590576,2.4191970825195312,0.0
1659375435941996812,1.5575170516967773,2.4130666255950928,0.0
1659375435992666721,1.5604950189590454,2.4094204902648926,0.0
1659375435993221998,1.5651854276657104,2.4038405418395996,0.0
1659375436040926694,1.568192720413208,2.400351047515869,0.0
1659375436084810256,1.5734959840774536,2.394296407699585,0.0
1659375436134374380,1.576217770576477,2.3911960124969482,0.0
1659375436178328275,1.580012559890747,2.3867814540863037,0.0
1659375436222092390,1.5828222036361694,2.3834891319274902,0.0
1659375436266207456,1.5880986452102661,2.3775458335876465,0.0
1659375436309792041,1.5914216041564941,2.3739306926727295,0.0
1659375436354131460,1.597328782081604,2.367499828338623,0.0
1659375436402267456,1.6011220216751099,2.3633203506469727,0.0
1659375436446003913,1.6096993684768677,2.3540496826171875,0.0
1659375436493676662,1.6131722927093506,2.3504366874694824,0.0
1659375436541728973,1.6172659397125244,2.346262216567993,0.0
1659375436586598634,1.6227117776870728,2.340754985809326,0.0
1659375436630165100,1.6263102293014526,2.337122917175293,0.0
1659375436674201965,1.6321133375167847,2.331045389175415,0.0
1659375436718234539,1.6349366903305054,2.328002452850342,0.0
1659375436765920400,1.6409404277801514,2.3217666149139404,0.0
1659375436810544490,1.6438970565795898,2.3187813758850098,0.0
1659375436854463577,1.6478023529052734,2.314847707748413,0.0
1659375436901306390,1.6504671573638916,2.3121790885925293,0.0
1659375436946832180,1.6561533212661743,2.3065903186798096,0.0
1659375436990599870,1.659319519996643,2.3035290241241455,0.0
1659375437038666248,1.6649184226989746,2.298177480697632,0.0
1659375437087663412,1.6682082414627075,2.2950994968414307,0.0
1659375437134892940,1.672882080078125,2.2908716201782227,0.0
1659375437178278684,1.676063060760498,2.288088083267212,0.0
1659375437226395368,1.6809055805206299,2.283975839614868,0.0
1659375437272444248,1.6839858293533325,2.2814254760742188,0.0
1659375437272583007,1.6884254217147827,2.277818441390991,0.0
1659375437320492744,1.6913965940475464,2.27541446685791,0.0
1659375437357145786,1.697431206703186,2.270559787750244,0.0
1659375437407346010,1.7007564306259155,2.2679502964019775,0.0
1659375437451007127,1.7058171033859253,2.2639853954315186,0.0
1659375437495056152,1.7091083526611328,2.26137375831604,0.0
1659375437538351058,1.713886022567749,2.2576634883880615,0.0
1659375437582120656,1.7169002294540405,2.255396842956543,0.0
1659375437636751413,1.7186719179153442,2.254089117050171,0.0
1659375437682113885,1.7180578708648682,2.2545359134674072,0.0
1659375437726244926,1.715519666671753,2.256338596343994,0.0
1659375437775470733,1.7134954929351807,2.257727861404419,0.0
1659375437775992393,1.7107489109039307,2.259539842605591,0.0
1659375437825670719,1.7108774185180664,2.2594590187072754,0.0
1659375437873550653,1.712154507637024,2.2586851119995117,0.0
1659375437927508831,1.7137929201126099,2.2577261924743652,0.0
1659375437975725173,1.7140127420425415,2.2576005458831787,0.0
1659375437975967884,1.7123100757598877,2.2585487365722656,0.0
1659375438029963493,1.7101240158081055,2.259720802307129,0.0
1659375438068000078,1.70464289188385,2.2625112533569336,0.0
1659375438119379997,1.7010843753814697,2.2642223834991455,0.0
1659375438166548252,1.6959799528121948,2.266510009765625,0.0
1659375438211594581,1.6921881437301636,2.2680704593658447,0.0
1659375438254391193,1.6870999336242676,2.2699999809265137,0.0
1659375438298194169,1.6832996606826782,2.271324396133423,0.0
1659375438342911243,1.6773908138275146,2.2732057571411133,0.0
1659375438386875391,1.6729902029037476,2.274479389190674,0.0
1659375438430079221,1.6665014028549194,2.2761776447296143,0.0
1659375438474639654,1.6615240573883057,2.27734637260437,0.0
1659375438518625736,1.6519372463226318,2.279228925704956,0.0
1659375438566410779,1.647587537765503,2.279918909072876,0.0
1659375438610804796,1.6430963277816772,2.280515432357788,0.0
1659375438658860445,1.6365970373153687,2.281149387359619,0.0
1659375438704654455,1.6324294805526733,2.281418561935425,0.0
1659375438754682779,1.624661922454834,2.2816264629364014,0.0
1659375438802848815,1.629799723625183,2.28167986869812,0.0
1659375438803036689,1.6225149631500244,2.281416654586792,0.0
1659375438849856138,1.6170318126678467,2.2810981273651123,0.0
1659375438893057823,1.6113275289535522,2.2806708812713623,0.0
1659375438944556713,1.6026853322982788,2.2798454761505127,0.0
1659375438990502834,1.5972521305084229,2.2792372703552246,0.0
1659375439038698911,1.5880147218704224,2.278043031692505,0.0
1659375439086214065,1.5822086334228516,2.277165412902832,0.0
1659375439134587287,1.5718847513198853,2.2753713130950928,0.0
1659375439183107852,1.5661702156066895,2.2742607593536377,0.0
1659375439183355331,1.5580718517303467,2.272552728652954,0.0
1659375439234712123,1.55276358127594,2.2713544368743896,0.0
1659375439268099308,1.5429109334945679,2.2689170837402344,0.0
1659375439318493604,1.5376580953598022,2.2674953937530518,0.0
1659375439366418838,1.5290216207504272,2.2650158405303955,0.0
1659375439414689540,1.5236409902572632,2.2633965015411377,0.0
1659375439461167573,1.513883113861084,2.260255813598633,0.0
1659375439506767988,1.5087641477584839,2.2584855556488037,0.0
1659375439554161310,1.500637412071228,2.255504608154297,0.0
1659375439598907709,1.495606780052185,2.253566026687622,0.0
1659375439646146535,1.4874224662780762,2.2503104209899902,0.0
1659375439690196752,1.482154369354248,2.2481472492218018,0.0
1659375439736721992,1.4763721227645874,2.245704412460327,0.0
1659375439736799478,1.4686025381088257,2.242309093475342,0.0
1659375439786750793,1.462990641593933,2.2397921085357666,0.0
1659375439810231208,1.4532060623168945,2.235262155532837,0.0
1659375439863263845,1.4479310512542725,2.2327404022216797,0.0
1659375439914715290,1.437378168106079,2.227586507797241,0.0
1659375439963433980,1.4320368766784668,2.224912405014038,0.0
1659375440007282972,1.4242379665374756,2.2208733558654785,0.0
1659375440050644159,1.4186415672302246,2.2178664207458496,0.0
1659375440095758438,1.413012981414795,2.2147598266601562,0.0
1659375440142399072,1.40509831905365,2.210296392440796,0.0
1659375440187775850,1.3996737003326416,2.207188606262207,0.0
1659375440234570026,1.3906676769256592,2.2018816471099854,0.0
1659375440281814575,1.3856092691421509,2.198800802230835,0.0
1659375440326812744,1.3765733242034912,2.193153142929077,0.0
1659375440371125459,1.3713881969451904,2.189845085144043,0.0
1659375440414158344,1.3631582260131836,2.1844868659973145,0.0
1659375440458410739,1.3579763174057007,2.181034803390503,0.0
1659375440503304719,1.3483737707138062,2.1744956970214844,0.0
1659375440548353195,1.3432573080062866,2.170947551727295,0.0
1659375440597818136,1.3331340551376343,2.1637825965881348,0.0
1659375440646524667,1.328113079071045,2.1601433753967285,0.0
1659375440694358348,1.3203110694885254,2.1543900966644287,0.0
1659375440738091707,1.3159563541412354,2.1511266231536865,0.0
1659375440781957387,1.308761715888977,2.1455767154693604,0.0
1659375440825696945,1.3046215772628784,2.1422839164733887,0.0
1659375440873665094,1.2987226247787476,2.137462854385376,0.0
1659375440918067216,1.2950794696807861,2.134401798248291,0.0
1659375440962440013,1.2883720397949219,2.1285762786865234,0.0
1659375441007507085,1.2844440937042236,2.125033140182495,0.0
1659375441007719278,1.2779194116592407,2.1189663410186768,0.0
1659375441058652162,1.273526668548584,2.1147706508636475,0.0
1659375441108532905,1.2639751434326172,2.1053154468536377,0.0
1659375441158126831,1.2596487998962402,2.100872755050659,0.0
1659375441215566873,1.2501293420791626,2.090819835662842,0.0
1659375441266929864,1.2456998825073242,2.086021661758423,0.0
1659375441322818040,1.2414976358413696,2.081392765045166,0.0
1659375441368268013,1.2355740070343018,2.074737787246704,0.0
1659375441487094163,1.2314567565917969,2.0699996948242188,0.0
1659375441487188577,1.2258834838867188,2.0633761882781982,0.0
1659375441488795995,1.2222477197647095,2.058894634246826,0.0
1659375441524857044,1.2186481952667236,2.054319381713867,0.0
1659375441565263509,1.2136355638504028,2.0476698875427246,0.0
1659375441613092184,1.210312008857727,2.0430455207824707,0.0
1659375441662118673,1.2045742273330688,2.0347347259521484,0.0
1659375441713352918,1.2011383771896362,2.0296030044555664,0.0
1659375441758322954,1.1962227821350098,2.0220816135406494,0.0
1659375441802950143,1.1928651332855225,2.016777992248535,0.0
1659375441846718549,1.1867525577545166,2.0067203044891357,0.0
1659375441894350051,1.1836953163146973,2.001500368118286,0.0
1659375441938255786,1.180577278137207,1.996023416519165,0.0
1659375441986181020,1.1761116981506348,1.9878782033920288,0.0
1659375442030678272,1.1732065677642822,1.9823997020721436,0.0
1659375442030846357,1.1686887741088867,1.9735945463180542,0.0
1659375442079971790,1.1658791303634644,1.9679248332977295,0.0
1659375442135504722,1.163175344467163,1.9623441696166992,0.0
1659375442182206630,1.1597086191177368,1.9550241231918335,0.0
1659375442227217912,1.1571259498596191,1.9494421482086182,0.0
1659375442274224042,1.15302312374115,1.9402141571044922,0.0
1659375442322406291,1.1505662202835083,1.9344104528427124,0.0
1659375442370656013,1.1481101512908936,1.9284144639968872,0.0
1659375442370735406,1.1452442407608032,1.921191930770874,0.0
1659375442499490022,1.1429086923599243,1.9151208400726318,0.0
1659375442499591588,1.1397089958190918,1.906508207321167,0.0
1659375442502900362,1.1375367641448975,1.9004573822021484,0.0
1659375442522021055,1.1339975595474243,1.8901118040084839,0.0
1659375442571435451,1.132167100906372,1.8844258785247803,0.0
1659375442626300334,1.1285206079483032,1.8723336458206177,0.0
1659375442676809310,1.126898169517517,1.8665848970413208,0.0
1659375442732351541,1.125291347503662,1.8606218099594116,0.0
1659375442782222509,1.1232209205627441,1.8525561094284058,0.0
1659375442826898574,1.1217334270477295,1.8465099334716797,0.0
1659375442874562263,1.1192312240600586,1.8359439373016357,0.0
1659375442918664455,1.1178432703018188,1.829822301864624,0.0
1659375442962221860,1.115906000137329,1.8208669424057007,0.0
1659375443011260271,1.1146997213363647,1.815042495727539,0.0
1659375443011371612,1.1128853559494019,1.8058291673660278,0.0
1659375443059820652,1.11177396774292,1.7999343872070312,0.0
1659375443117406129,1.109207272529602,1.7850178480148315,0.0
1659375443165694475,1.1083430051803589,1.7794145345687866,0.0
1659375443221725940,1.107399344444275,1.7728761434555054,0.0
1659375443270499944,1.106228232383728,1.7638908624649048,0.0
1659375443319337844,1.1055325269699097,1.7580347061157227,0.0
1659375443362080097,1.1042062044143677,1.7458308935165405,0.0
1659375443414105415,1.1036312580108643,1.7400124073028564,0.0
1659375443458815336,1.1030902862548828,1.7338857650756836,0.0
1659375443458884954,1.1024364233016968,1.7251019477844238,0.0
1659375443506087779,1.1021068096160889,1.7197462320327759,0.0
1659375443551180839,1.101697564125061,1.7090222835540771,0.0
1659375443603007793,1.101630687713623,1.7036315202713013,0.0
1659375443653736591,1.1017379760742188,1.6936343908309937,0.0
1659375443705841779,1.1019227504730225,1.6882717609405518,0.0
1659375443750307559,1.1023491621017456,1.6806905269622803,0.0
1659375443794491529,1.1027275323867798,1.6757694482803345,0.0
1659375443843014478,1.103507161140442,1.6678093671798706,0.0
1659375443886507272,1.1041157245635986,1.6625800132751465,0.0
1659375443931718826,1.104864239692688,1.656755805015564,0.0
1659375443974011421,1.1060690879821777,1.6485161781311035,0.0
1659375444018497228,1.1070107221603394,1.6427713632583618,0.0
1659375444063281059,1.1088368892669678,1.632633090019226,0.0
1659375444109855413,1.10994553565979,1.6269181966781616,0.0
1659375444110010385,1.111693024635315,1.6183885335922241,0.0
1659375444156532049,1.1129419803619385,1.6125731468200684,0.0
1659375444206343412,1.1142723560333252,1.6066720485687256,0.0
1659375444254227876,1.1161656379699707,1.5987449884414673,0.0
1659375444298218965,1.1175528764724731,1.593143343925476,0.0
1659375444342838048,1.1199661493301392,1.5839375257492065,0.0
1659375444386070251,1.121597409248352,1.5781649351119995,0.0
1659375444431676149,1.1245050430297852,1.5685993432998657,0.0
1659375444480503559,1.1262682676315308,1.5631842613220215,0.0
1659375444526344776,1.128956913948059,1.5554636716842651,0.0
1659375444571445465,1.1308006048202515,1.5505053997039795,0.0
1659375444571927547,1.1337473392486572,1.5430426597595215,0.0
1659375444618425607,1.1358872652053833,1.5379294157028198,0.0
1659375444667117357,1.1380966901779175,1.5328733921051025,0.0
1659375444714539527,1.1412640810012817,1.526028037071228,0.0
1659375444762686967,1.1434906721115112,1.521510124206543,0.0
1659375444806820631,1.1477311849594116,1.5134737491607666,0.0
1659375444854343652,1.1499245166778564,1.509567379951477,0.0
1659375444898481369,1.1535322666168213,1.5034674406051636,0.0
1659375444942680120,1.1558213233947754,1.4997942447662354,0.0
1659375444992934942,1.1581370830535889,1.4962279796600342,0.0
1659375444993045330,1.1601320505142212,1.4932688474655151,0.0
1659375445047355413,1.161139965057373,1.491811752319336,0.0
1659375445064268112,1.1618674993515015,1.4907763004302979,0.0
1659375445114330291,1.162028431892395,1.490549087524414,0.0
1659375445169994831,1.1620577573776245,1.4905078411102295,0.0
1659375445222224473,1.1620724201202393,1.4904872179031372,0.0
1659375445286611795,1.1620724201202393,1.4904872179031372,0.0
1659375445334099531,1.1620577573776245,1.4905078411102295,0.0
1659375445379317522,1.1620724201202393,1.4904872179031372,0.0
1659375445422441005,1.1620724201202393,1.4904872179031372,0.0
1659375445466141462,1.1620724201202393,1.4904872179031372,0.0
1659375445512028694,1.1620724201202393,1.4904872179031372,0.0
1659375445557763099,1.1620724201202393,1.4904872179031372,0.0
1659375445606490612,1.1620724201202393,1.4904872179031372,0.0
1659375445606606960,1.1620577573776245,1.4905078411102295,0.0
1659375445654919147,1.1619846820831299,1.49061119556427,0.0
1659375445711460590,1.1611242294311523,1.4918317794799805,0.0
1659375445757768630,1.159195899963379,1.4945909976959229,0.0
1659375445801888227,1.157178521156311,1.4975042343139648,0.0
1659375445849428176,1.153016448020935,1.5035502910614014,0.0
1659375445893988370,1.150209665298462,1.5076714754104614,0.0
1659375445938125610,1.1448193788528442,1.5156981945037842,0.0
1659375445983405113,1.1420302391052246,1.5199226140975952,0.0
1659375446030036687,1.1383172273635864,1.525689959526062,0.0
1659375446074101924,1.1357898712158203,1.5296918153762817,0.0
1659375446118067026,1.1303945779800415,1.5384079217910767,0.0
1659375446161787033,1.127450942993164,1.5432831048965454,0.0
1659375446211111068,1.1246503591537476,1.548007845878601,0.0
1659375446254289627,1.1210297346115112,1.5541296005249023,0.0
1659375446298915386,1.1183942556381226,1.5586284399032593,0.0
1659375446346188545,1.1147559881210327,1.5651487112045288,0.0
1659375446394208908,1.1127586364746094,1.568931221961975,0.0
1659375446439940214,1.1107282638549805,1.5729247331619263,0.0
1659375446487896203,1.107858419418335,1.5787622928619385,0.0
1659375446531486034,1.1060012578964233,1.5826436281204224,0.0
1659375446531562805,1.1030433177947998,1.588860273361206,0.0
1659375446579780817,1.101426124572754,1.5922951698303223,0.0
1659375446623300552,1.100783348083496,1.5937267541885376,0.0
1659375446671090364,1.1004650592803955,1.5944989919662476,0.0
1659375446714026212,1.0999891757965088,1.5957531929016113,0.0
1659375446758995771,1.0989848375320435,1.598565936088562,0.0
1659375446803314447,1.0983586311340332,1.6004382371902466,0.0
1659375446855861902,1.0985053777694702,1.5999537706375122,0.0
1659375446898880958,1.0991026163101196,1.597781777381897,0.0
1659375446947496175,1.0999462604522705,1.5945490598678589,0.0
1659375446990836620,1.1015045642852783,1.5882335901260376,0.0
1659375447039163827,1.1024893522262573,1.5840449333190918,0.0
1659375447082060098,1.104219913482666,1.5760806798934937,0.0
1659375447133059501,1.1050156354904175,1.5719552040100098,0.0
1659375447178375244,1.1064982414245605,1.5626314878463745,0.0
1659375447226691246,1.1070740222930908,1.558086633682251,0.0
1659375447276650667,1.1076359748840332,1.5528775453567505,0.0
1659375447276790857,1.1082353591918945,1.545739769935608,0.0
1659375447324463605,1.1085541248321533,1.5404847860336304,0.0
1659375447348503589,1.108877420425415,1.5322397947311401,0.0
1659375447399037122,1.1089814901351929,1.526900291442871,0.0
1659375447457656621,1.108986496925354,1.5216103792190552,0.0
1659375447506533384,1.1087976694107056,1.5141714811325073,0.0
1659375447552133560,1.1085631847381592,1.5094949007034302,0.0
1659375447598953723,1.1079659461975098,1.5014175176620483,0.0
1659375447643657207,1.1074734926223755,1.4963793754577637,0.0
1659375447643775463,1.106582522392273,1.489272117614746,0.0
1659375447687094211,1.1057578325271606,1.4839187860488892,0.0
1659375447742144823,1.1048129796981812,1.478431224822998,0.0
1659375447786731719,1.1032639741897583,1.4701977968215942,0.0
1659375447834320783,1.10211181640625,1.46451735496521,0.0
1659375447878918170,1.0998730659484863,1.4543843269348145,0.0
1659375447926334619,1.0986320972442627,1.4491899013519287,0.0
1659375447970443010,1.0964158773422241,1.4405083656311035,0.0
1659375448014961242,1.094950556755066,1.435136318206787,0.0
1659375448064095735,1.0917266607284546,1.4243179559707642,0.0
1659375448110525846,1.0900427103042603,1.4191166162490845,0.0
1659375448154341936,1.0875104665756226,1.4116634130477905,0.0
1659375448199022054,1.0856690406799316,1.4065157175064087,0.0
1659375448243268489,1.0837111473083496,1.4013029336929321,0.0
1659375448291328430,1.0806803703308105,1.3936556577682495,0.0
1659375448395145654,1.07856023311615,1.388561487197876,0.0
1659375448395291090,1.07460618019104,1.3797105550765991,0.0
1659375448451714992,1.0723545551300049,1.3750638961791992,0.0
1659375448451838016,1.0693877935409546,1.3693034648895264,0.0
1659375448494442224,1.0672461986541748,1.3653684854507446,0.0
1659375448508991718,1.063632845878601,1.3591251373291016,0.0
1659375448561462640,1.061144232749939,1.3550693988800049,0.0
1659375448617047309,1.0584709644317627,1.3509204387664795,0.0
1659375448666220903,1.0547531843185425,1.3454904556274414,0.0
1659375448722949981,1.0520704984664917,1.3417768478393555,0.0
1659375448770492315,1.0472429990768433,1.3354953527450562,0.0
1659375448770728588,1.0441614389419556,1.3317376375198364,0.0
1659375448813689947,1.0392043590545654,1.3260527849197388,0.0
1659375448847668886,1.035794734954834,1.3223799467086792,0.0
1659375448907158613,1.032477617263794,1.3189682960510254,0.0
1659375448955695629,1.0276907682418823,1.3143061399459839,0.0
1659375448998720884,1.0242270231246948,1.3111177682876587,0.0
1659375449047594070,1.018153429031372,1.3059136867523193,0.0
1659375449090469360,1.0149476528167725,1.3033571243286133,0.0
1659375449134413242,1.011664867401123,1.3008582592010498,0.0
1659375449192372083,1.0073134899139404,1.2977185249328613,0.0
1659375449246514081,1.0039730072021484,1.2954292297363281,0.0
1659375449246632337,0.9977376461029053,1.291414499282837,0.0
1659375449313478231,0.9942708015441895,1.2893214225769043,0.0
1659375449323369741,0.9891958832740784,1.2864179611206055,0.0
1659375449366487026,0.9854336977005005,1.2843824625015259,0.0
1659375449421783208,0.981609046459198,1.2824110984802246,0.0
1659375449470223188,0.97548508644104,1.2794355154037476,0.0
1659375449514116764,0.9712523221969604,1.2774931192398071,0.0
1659375449559974670,0.961985170841217,1.2734794616699219,0.0
1659375449616574287,0.9566698670387268,1.2712980508804321,0.0
1659375449667531013,0.9499828815460205,1.2686607837677002,0.0
1659375449710459470,0.9455583095550537,1.2669798135757446,0.0
1659375449758363246,0.941211998462677,1.265378713607788,0.0
1659375449758746385,0.9361236691474915,1.2635972499847412,0.0
1659375449805627346,0.931486964225769,1.2620598077774048,0.0
1659375449822476863,0.9231316447257996,1.2594363689422607,0.0
1659375449876433134,0.9175029993057251,1.2577632665634155,0.0
1659375449932416677,0.9114729762077332,1.2560195922851562,0.0
1659375449978514671,0.9021173715591431,1.2533856630325317,0.0
1659375450022072315,0.8958897590637207,1.2516902685165405,0.0
1659375450072615861,0.8858540654182434,1.249049186706543,0.0
1659375450114305019,0.8794782757759094,1.2474193572998047,0.0
1659375450159090280,0.8677822947502136,1.2445287704467773,0.0
1659375450206059932,0.8614540696144104,1.2430232763290405,0.0
1659375450250534772,0.8526949882507324,1.2410197257995605,0.0
1659375450294177532,0.8463899493217468,1.2396399974822998,0.0
1659375450338255643,0.8353753089904785,1.2372866868972778,0.0
1659375450383564233,0.8289586901664734,1.2359445095062256,0.0
1659375450429733514,0.8153014779090881,1.2332478761672974,0.0
1659375450470320701,0.8091292977333069,1.2321052551269531,0.0
1659375450525329828,0.8031447529792786,1.2310633659362793,0.0
1659375450575313329,0.7943163514137268,1.229689359664917,0.0
1659375450618150949,0.7884236574172974,1.2288799285888672,0.0
1659375450666340827,0.7786045074462891,1.2276452779769897,0.0
1659375450726843595,0.7726449966430664,1.2269611358642578,0.0
1659375450771302700,0.7665517330169678,1.2263367176055908,0.0
1659375450771462917,0.7590391039848328,1.2256648540496826,0.0
1659375450815425872,0.7535885572433472,1.2252392768859863,0.0
1659375450836277723,0.7440153360366821,1.2246277332305908,0.0
1659375450889868736,0.7385038733482361,1.224365234375,0.0
1659375450948222398,0.7268643379211426,1.2240850925445557,0.0
1659375450996384859,0.7313443422317505,1.2240955829620361,0.0
1659375451051800727,0.7275479435920715,1.2241336107254028,0.0
1659375451095776081,0.725068211555481,1.2241923809051514,0.0
1659375451137896537,0.7239044904708862,1.2242292165756226,0.0
1659375451182183027,0.7231203317642212,1.2242560386657715,0.0
1659375451227067947,0.7230191230773926,1.224259614944458,0.0
1659375451271121740,0.722917914390564,1.2242631912231445,0.0
1659375451374619245,0.722917914390564,1.2242631912231445,0.0
1659375451374856233,0.722917914390564,1.2242631912231445,0.0
1659375451433072566,0.7228926420211792,1.2242640256881714,0.0
1659375451433148622,0.722917914390564,1.2242631912231445,0.0
1659375451468936204,0.722917914390564,1.2242631912231445,0.0
1659375451544068813,0.722917914390564,1.2242631912231445,0.0
1659375451586713552,0.722917914390564,1.2242631912231445,0.0
1659375451677648544,0.7228926420211792,1.2242640256881714,0.0
1659375451677755117,0.7228926420211792,1.2242640256881714,0.0
1659375451722583293,0.7228926420211792,1.2242640256881714,0.0
1659375451737487316,0.722917914390564,1.2242631912231445,0.0
1659375451786728620,0.722917914390564,1.2242631912231445,0.0
1659375451830110311,0.722917914390564,1.2242631912231445,0.0
1659375451875155925,0.7228926420211792,1.2242640256881714,0.0
1659375451927805900,0.7228926420211792,1.2242640256881714,0.0
1659375451976519584,0.722917914390564,1.2242631912231445,0.0
1659375452026185274,0.722917914390564,1.2242631912231445,0.0
1659375452077645301,0.722917914390564,1.2242631912231445,0.0
1659375452127072811,0.7228926420211792,1.2242640256881714,0.0
1659375452181401968,0.7228926420211792,1.2242640256881714,0.0
1659375452226900815,0.7228926420211792,1.2242640256881714,0.0
1659375452270695924,0.7228926420211792,1.2242640256881714,0.0
1659375452314230680,0.7228926420211792,1.2242640256881714,0.0
1659375452364207029,0.7228926420211792,1.2242640256881714,0.0
1659375452410007715,0.7228926420211792,1.2242640256881714,0.0
1659375452454652309,0.7222855687141418,1.224285364151001,0.0
1659375452528665065,0.7185924053192139,1.224413514137268,0.0
1659375452575142621,0.714444100856781,1.224562406539917,0.0
1659375452618280887,0.7040472626686096,1.2249107360839844,0.0
1659375452671818494,0.6977726817131042,1.2250858545303345,0.0
1659375452671886682,0.6878281235694885,1.2253105640411377,0.0
1659375452717156887,0.681197464466095,1.2254105806350708,0.0
1659375452762961864,0.6936754584312439,1.2253408432006836,0.0
1659375452818284273,0.6869428157806396,1.2253321409225464,0.0
1659375452862099885,0.6769706606864929,1.2252626419067383,0.0
1659375452909325122,0.6703399419784546,1.2251667976379395,0.0
1659375452959746122,0.6583454608917236,1.2249091863632202,0.0
1659375453009655714,0.6517927050590515,1.2247200012207031,0.0
1659375453056506872,0.6424851417541504,1.224365472793579,0.0
1659375453102921247,0.6358866095542908,1.2240490913391113,0.0
1659375453145752429,0.6241095066070557,1.2234039306640625,0.0
1659375453190259933,0.6175150275230408,1.2230128049850464,0.0
1659375453234807968,0.6043344140052795,1.222100019454956,0.0
1659375453278209447,0.5978261232376099,1.2215659618377686,0.0
1659375453335505008,0.591373860836029,1.2209722995758057,0.0
1659375453378739356,0.5828914046287537,1.2200754880905151,0.0
1659375453422149181,0.5764580965042114,1.219302773475647,0.0
1659375453529959201,0.5657187104225159,1.2178819179534912,0.0
1659375453530114650,0.5591771006584167,1.216961145401001,0.0
1659375453578112602,0.546862781047821,1.2151086330413818,0.0
1659375453597651481,0.5403674244880676,1.2140517234802246,0.0
1659375453642273426,0.5310660004615784,1.2124351263046265,0.0
1659375453686650276,0.524768054485321,1.2112767696380615,0.0
1659375453734705686,0.5140398144721985,1.2091643810272217,0.0
1659375453778353691,0.5078976154327393,1.2078701257705688,0.0
1659375453826650142,0.49856406450271606,1.2057675123214722,0.0
1659375453871814966,0.4922633767127991,1.2042557001113892,0.0
1659375453914953231,0.48408371210098267,1.2022230625152588,0.0
1659375453961204767,0.47785624861717224,1.2006263732910156,0.0
1659375454009626865,0.4671953022480011,1.1977758407592773,0.0
1659375454054205656,0.460859090089798,1.1959984302520752,0.0
1659375454097885847,0.45056092739105225,1.192978858947754,0.0
1659375454141984462,0.44423821568489075,1.191064715385437,0.0
1659375454185939788,0.43515196442604065,1.188234567642212,0.0
1659375454229867458,0.4287635385990143,1.1861909627914429,0.0
1659375454276235103,0.4187721908092499,1.1828685998916626,0.0
1659375454321831941,0.41274577379226685,1.1807793378829956,0.0
1659375454366160869,0.4065200388431549,1.1785701513290405,0.0
1659375454413028717,0.39732760190963745,1.1751869916915894,0.0
1659375454458379030,0.39129674434661865,1.172887921333313,0.0
1659375454458502054,0.3824041485786438,1.169427514076233,0.0
1659375454502337455,0.37640270590782166,1.1670526266098022,0.0
1659375454533469915,0.36800459027290344,1.1636500358581543,0.0
1659375454583948612,0.3618587255477905,1.1610926389694214,0.0
1659375454645440101,0.35096457600593567,1.1564416885375977,0.0
1659375454693231821,0.344910591840744,1.1537978649139404,0.0
1659375454738334178,0.33682432770729065,1.1501798629760742,0.0
1659375454784237384,0.3308922052383423,1.1474498510360718,0.0
1659375454830336809,0.322592169046402,1.1435097455978394,0.0
1659375454882624149,0.31684428453445435,1.1406869888305664,0.0
1659375454926481485,0.306105375289917,1.1352815628051758,0.0
1659375454970403432,0.300628662109375,1.132482647895813,0.0
1659375455014280557,0.29187139868736267,1.1278728246688843,0.0
1659375455059679508,0.2861844003200531,1.124767541885376,0.0
1659375455102077960,0.2780783176422119,1.1202312707901,0.0
1659375455146419286,0.2728022634983063,1.1172206401824951,0.0
1659375455199165105,0.26412323117256165,1.112156629562378,0.0
1659375455243560791,0.2585821747779846,1.1088470220565796,0.0
1659375455286419391,0.24943719804286957,1.1032310724258423,0.0
1659375455333948373,0.24421937763690948,1.099927306175232,0.0
1659375455334058284,0.23646783828735352,1.094901204109192,0.0
1659375455384322166,0.23104295134544373,1.0913118124008179,0.0
1659375455427991867,0.22099240124225616,1.0844862461090088,0.0
1659375455484047651,0.21557196974754333,1.0807100534439087,0.0
1659375455533857107,0.20791321992874146,1.0753206014633179,0.0
1659375455577836275,0.20258669555187225,1.0715428590774536,0.0
1659375455623033285,0.1923803836107254,1.0641462802886963,0.0
1659375455672339200,0.18711605668067932,1.0602397918701172,0.0
1659375455742097616,0.18048518896102905,1.0552444458007812,0.0
1659375455790467739,0.17523245513439178,1.0512382984161377,0.0
1659375455790558099,0.16670949757099152,1.0446338653564453,0.0
1659375455838024616,0.16152307391166687,1.0405422449111938,0.0
1659375455887968301,0.15196050703525543,1.0328853130340576,0.0
1659375455953008174,0.14681223034858704,1.0287054777145386,0.0
1659375455999061107,0.1390201449394226,1.0222811698913574,0.0
1659375456043300867,0.133806511759758,1.0179022550582886,0.0
1659375456087428331,0.12584856152534485,1.0111632347106934,0.0
1659375456134194612,0.12071455270051956,1.0068076848983765,0.0
1659375456178451299,0.11271150410175323,0.9999654293060303,0.0
1659375456226229906,0.10761605948209763,0.995564877986908,0.0
1659375456271345376,0.09824860095977783,0.9873213768005371,0.0
1659375456318256855,0.09336776286363602,0.9829451441764832,0.0
1659375456362599611,0.08652486652135849,0.9767761826515198,0.0
1659375456406089544,0.08147870004177094,0.9722052812576294,0.0
1659375456450846910,0.07243405282497406,0.9638680815696716,0.0
1659375456494670152,0.06754927337169647,0.9592716693878174,0.0
1659375456542450428,0.0610511340200901,0.9530660510063171,0.0
1659375456587166070,0.056508954614400864,0.9486606121063232,0.0
1659375456587233781,0.05030729994177818,0.942477285861969,0.0
1659375456639523029,0.04614507034420967,0.9381928443908691,0.0
1659375456692068338,0.03832909092307091,0.9299428462982178,0.0
1659375456743326187,0.03407531976699829,0.9253613948822021,0.0
1659375456790590286,0.02796722948551178,0.9187026619911194,0.0
1659375456837642431,0.023517170920968056,0.9137861132621765,0.0
1659375456893653869,0.01718880422413349,0.9066444039344788,0.0
1659375456941090822,0.012743976898491383,0.901520311832428,0.0
1659375456941168069,0.006551115307956934,0.8942607641220093,0.0
1659375456993530035,0.0020778074394911528,0.8889611959457397,0.0
1659375457021721363,-0.004851503297686577,0.8807663917541504,0.0
1659375457077229499,-0.009392249397933483,0.8754244446754456,0.0
1659375457128103971,-0.017810938879847527,0.8654727339744568,0.0
1659375457179121971,-0.02216934785246849,0.8602749705314636,0.0
1659375457222553968,-0.027663052082061768,0.8536840081214905,0.0
1659375457270085334,-0.03128515183925629,0.8493222594261169,0.0
1659375457322130918,-0.03637589141726494,0.8431533575057983,0.0
1659375457365845680,-0.04010739549994469,0.8385866284370422,0.0
1659375457411801338,-0.04559098184108734,0.831758439540863,0.0
1659375457460970640,-0.04963940009474754,0.8266023993492126,0.0
1659375457461112022,-0.0552418977022171,0.8193204402923584,0.0
1659375457509005546,-0.05939757451415062,0.813831627368927,0.0
1659375457537059068,-0.06529257446527481,0.8059771656990051,0.0
1659375457593136072,-0.06942375004291534,0.8004382848739624,0.0
1659375457643988132,-0.07702727615833282,0.7900382280349731,0.0
1659375457699541330,-0.08094274252653122,0.7845612168312073,0.0
1659375457742452144,-0.08571799099445343,0.7778321504592896,0.0
1659375457786711215,-0.08874263614416122,0.7735540866851807,0.0
1659375457834132909,-0.0935736745595932,0.7666784524917603,0.0
1659375457882361650,-0.096747487783432,0.7621339559555054,0.0
1659375457930229187,-0.10336130857467651,0.7526443600654602,0.0
1659375457980983018,-0.10718975961208344,0.7471369504928589,0.0
1659375458030080080,-0.11278221011161804,0.7390642762184143,0.0
1659375458074696302,-0.11674883216619492,0.7333139181137085,0.0
1659375458118515729,-0.12347187101840973,0.7234998345375061,0.0
1659375458166403532,-0.1273839920759201,0.7177428603172302,0.0
1659375458214257955,-0.1356189250946045,0.7055287957191467,0.0
1659375458259323120,-0.13938505947589874,0.6999175548553467,0.0
1659375458306421518,-0.14688578248023987,0.6885221004486084,0.0
1659375458356255769,-0.15058143436908722,0.6827737092971802,0.0
1659375458404937028,-0.1578924059867859,0.671315610408783,0.0
1659375458458876371,-0.16129165887832642,0.6659485101699829,0.0
1659375458509169578,-0.16808761656284332,0.6550334692001343,0.0
1659375458571373939,-0.17163220047950745,0.6492499709129333,0.0
1659375458614422798,-0.17631761729717255,0.6415830254554749,0.0
1659375458658927202,-0.1800132542848587,0.6355358958244324,0.0
1659375458702612400,-0.18567408621311188,0.6262996196746826,0.0
1659375458802175283,-0.18933017551898956,0.6203173398971558,0.0
1659375458802331209,-0.1961660236120224,0.6089519262313843,0.0
1659375458852249860,-0.19966080784797668,0.6030792593955994,0.0
1659375458860307931,-0.20436103641986847,0.5951847434043884,0.0
1659375458918644666,-0.2079896181821823,0.5890971422195435,0.0
1659375458962856531,-0.21386152505874634,0.5791314244270325,0.0
1659375459006908893,-0.21738819777965546,0.573042631149292,0.0
1659375459050292253,-0.22227279841899872,0.5645521879196167,0.0
1659375459097816944,-0.22586576640605927,0.5582970976829529,0.0
1659375459148275375,-0.2307833731174469,0.5497380495071411,0.0
1659375459195118665,-0.23429591953754425,0.5436410903930664,0.0
1659375459243489503,-0.2405993789434433,0.5326381325721741,0.0
1659375459290178298,-0.24374186992645264,0.5270876884460449,0.0
1659375459334649324,-0.2487172782421112,0.518241286277771,0.0
1659375459378472566,-0.2521032989025116,0.5121599435806274,0.0
1659375459422299385,-0.25663402676582336,0.5038772821426392,0.0
1659375459467682838,-0.2599918246269226,0.49763622879981995,0.0
1659375459467782735,-0.2646428942680359,0.48892948031425476,0.0
1659375459514927387,-0.2678961753845215,0.4828334450721741,0.0
1659375459548066139,-0.27285295724868774,0.47351524233818054,0.0
1659375459603731632,-0.276096910238266,0.46735695004463196,0.0
1659375459646583080,-0.28113365173339844,0.4575948715209961,0.0
1659375459699105262,-0.28427112102508545,0.451381653547287,0.0
1659375459746034383,-0.2898988425731659,0.4401596188545227,0.0
1659375459794894218,-0.29300206899642944,0.4339575171470642,0.0
1659375459839951276,-0.29723355174064636,0.4253767132759094,0.0
1659375459887701272,-0.3002426028251648,0.4191564917564392,0.0
1659375459930558204,-0.30512064695358276,0.4090043604373932,0.0
1659375459974705934,-0.3081807792186737,0.402640163898468,0.0
1659375460018708944,-0.313778817653656,0.39084044098854065,0.0
1659375460072494745,-0.31673383712768555,0.3844825327396393,0.0
1659375460118392467,-0.3208307921886444,0.37558525800704956,0.0
1659375460167236089,-0.32374221086502075,0.3692351281642914,0.0
1659375460210379600,-0.32808446884155273,0.35975420475006104,0.0
1659375460253826379,-0.3310306966304779,0.35330864787101746,0.0
1659375460297913312,-0.33544057607650757,0.34360817074775696,0.0
1659375460342041015,-0.338244765996933,0.3374038636684418,0.0
1659375460387353181,-0.3433016836643219,0.32602399587631226,0.0
1659375460429667472,-0.3461363911628723,0.31950101256370544,0.0
1659375460478087186,-0.35013943910598755,0.31014665961265564,0.0
1659375460522002220,-0.3528864085674286,0.3036411702632904,0.0
1659375460565807104,-0.3566448390483856,0.2946779727935791,0.0
1659375460609784126,-0.3593142628669739,0.28827717900276184,0.0
1659375460653946638,-0.3639610707759857,0.2768329977989197,0.0
1659375460704669713,-0.3664449453353882,0.27049365639686584,0.0
1659375460749918460,-0.36981114745140076,0.2616732716560364,0.0
1659375460793895721,-0.3721553683280945,0.2554429769515991,0.0
1659375460837793350,-0.3759091794490814,0.2454432249069214,0.0
1659375460882055521,-0.378265917301178,0.23910953104496002,0.0
1659375460926592588,-0.3830942213535309,0.2258101999759674,0.0
1659375460970129489,-0.38530609011650085,0.21955855190753937,0.0
1659375461014625549,-0.3888404667377472,0.20934514701366425,0.0
1659375461060901165,-0.3910615146160126,0.20277529954910278,0.0
1659375461106383085,-0.3940832316875458,0.19369757175445557,0.0
1659375461150560617,-0.39622068405151367,0.18720655143260956,0.0
1659375461194421768,-0.3994262218475342,0.1773366630077362,0.0
1659375461238546133,-0.40145036578178406,0.17099516093730927,0.0
1659375461282930374,-0.40522676706314087,0.158863365650177,0.0
1659375461327050447,-0.4071023762226105,0.1526876837015152,0.0
1659375461374129295,-0.40986567735671997,0.14350154995918274,0.0
1659375461419813156,-0.4117724597454071,0.13707096874713898,0.0
1659375461463245153,-0.41435495018959045,0.12801647186279297,0.0
1659375461513955593,-0.4161315858364105,0.12152247130870819,0.0
1659375461558551788,-0.4185326099395752,0.11257532984018326,0.0
1659375461602090835,-0.4202374517917633,0.1061144545674324,0.0
1659375461646349906,-0.4222806394100189,0.09817240387201309,0.0
1659375461692330121,-0.4238744378089905,0.09181363880634308,0.0
1659375461692754030,-0.42627856135368347,0.08174459636211395,0.0
1659375461747915744,-0.4277020990848541,0.07542336732149124,0.0
1659375461776072978,-0.4296985864639282,0.06619599461555481,0.0
1659375461831974744,-0.4310086965560913,0.059927839785814285,0.0
1659375461878874778,-0.4327380657196045,0.05131697282195091,0.0
1659375461926898479,-0.43394696712493896,0.04497697204351425,0.0
1659375461970900058,-0.4355142116546631,0.03607800975441933,0.0
1659375462014034032,-0.43654224276542664,0.029706183820962906,0.0
1659375462058167695,-0.43802008032798767,0.01997186802327633,0.0
1659375462106412887,-0.43894556164741516,0.013609915971755981,0.0
1659375462150486946,-0.440620094537735,0.001142459106631577,0.0
1659375462199563741,-0.4414300322532654,-0.0054902927950024605,0.0
1659375462243409156,-0.4424729347229004,-0.014465821906924248,0.0
1659375462286790132,-0.44319483637809753,-0.020905015990138054,0.0
1659375462331421375,-0.44427332282066345,-0.0313279889523983,0.0
1659375462378699302,-0.4448945224285126,-0.038006491959095,0.0
1659375462427868366,-0.445895791053772,-0.050241272896528244,0.0
1659375462474538087,-0.4463483393192291,-0.05673035606741905,0.0
1659375462522937059,-0.4468908905982971,-0.06585139036178589,0.0
1659375462567895889,-0.4471995532512665,-0.07219687104225159,0.0
1659375462613848924,-0.44755610823631287,-0.0824921503663063,0.0
1659375462658776283,-0.44768181443214417,-0.08886920660734177,0.0
1659375462712296009,-0.4477687180042267,-0.1012711375951767,0.0
1659375462759655714,-0.4477478861808777,-0.10792781412601471,0.0
1659375462759781360,-0.44763869047164917,-0.116102434694767,0.0
1659375462813039302,-0.4474833905696869,-0.12265606224536896,0.0
1659375462841555356,-0.44715553522109985,-0.13274970650672913,0.0
1659375462900161027,-0.4468931555747986,-0.1391226053237915,0.0
1659375462952366113,-0.44614532589912415,-0.15226289629936218,0.0
1659375463013668775,-0.44567573070526123,-0.15857312083244324,0.0
1659375463058489561,-0.44490134716033936,-0.1677028089761734,0.0
1659375463115226984,-0.44431817531585693,-0.17385101318359375,0.0
1659375463163378000,-0.4432411789894104,-0.18358686566352844,0.0
1659375463211057901,-0.4424416720867157,-0.18978726863861084,0.0
1659375463254171133,-0.44079434871673584,-0.20144088566303253,0.0
1659375463299154758,-0.4398525059223175,-0.20774926245212555,0.0
1659375463343119144,-0.4384324252605438,-0.21664725244045258,0.0
1659375463386569023,-0.4373376667499542,-0.2230079472064972,0.0
1659375463434742450,-0.4355970025062561,-0.23244145512580872,0.0
1659375463484833240,-0.4344170391559601,-0.23845191299915314,0.0
1659375463587021350,-0.4321845471858978,-0.248948872089386,0.0
1659375463587139844,-0.43078526854515076,-0.25504201650619507,0.0
1659375463592524528,-0.42864546179771423,-0.2637687921524048,0.0
1659375463631838560,-0.42701444029808044,-0.2700135409832001,0.0
1659375463660855531,-0.4243611693382263,-0.27983641624450684,0.0
1659375463719602584,-0.4226495921611786,-0.2860070466995239,0.0
1659375463764465332,-0.41920918226242065,-0.29765886068344116,0.0
1659375463819125652,-0.41731905937194824,-0.30367112159729004,0.0
1659375463862269163,-0.41444525122642517,-0.31247779726982117,0.0
1659375463908845901,-0.4124186635017395,-0.3184721767902374,0.0
1659375463955162525,-0.4093625843524933,-0.3271636366844177,0.0
1659375464000188589,-0.4071443974971771,-0.3331977427005768,0.0
1659375464050031661,-0.40379568934440613,-0.34186214208602905,0.0
1659375464099429607,-0.40146055817604065,-0.34763410687446594,0.0
1659375464142805576,-0.3979664444923401,-0.35610416531562805,0.0
1659375464186713695,-0.3955210745334625,-0.3619127571582794,0.0
1659375464234439373,-0.3910420536994934,-0.3720813989639282,0.0
1659375464283090591,-0.38854318857192993,-0.37750691175460815,0.0
1659375464283159732,-0.38499221205711365,-0.3849550187587738,0.0
1659375464335228443,-0.38234469294548035,-0.3903377950191498,0.0
1659375464362287759,-0.3786066174507141,-0.39763695001602173,0.0
1659375464417780876,-0.3759135901927948,-0.40265485644340515,0.0
1659375464469355583,-0.37072402238845825,-0.41181638836860657,0.0
1659375464531715631,-0.3677079975605011,-0.4168842136859894,0.0
1659375464583236694,-0.36317217350006104,-0.42425695061683655,0.0
1659375464697735786,-0.3597784638404846,-0.42959755659103394,0.0
1659375464697963237,-0.3541201055049896,-0.4381755292415619,0.0
1659375464701089620,-0.3505505919456482,-0.4434002637863159,0.0
1659375464742131233,-0.34393787384033203,-0.45279791951179504,0.0
1659375464795739173,-0.34024909138679504,-0.45787671208381653,0.0
1659375464842957019,-0.33532899618148804,-0.46443748474121094,0.0
1659375464887067317,-0.33139657974243164,-0.46952345967292786,0.0
1659375464932335376,-0.3252894878387451,-0.47721412777900696,0.0
1659375464979032039,-0.32136771082878113,-0.48205024003982544,0.0
1659375465022200584,-0.31555771827697754,-0.48906949162483215,0.0
1659375465066472053,-0.3113502860069275,-0.4940303862094879,0.0
1659375465115353107,-0.3051208555698395,-0.5011579990386963,0.0
1659375465158441543,-0.3008688688278198,-0.5058782696723938,0.0
1659375465202558040,-0.29298532009124756,-0.5144460797309875,0.0
1659375465248497724,-0.28877806663513184,-0.5189324617385864,0.0
1659375465294310808,-0.28261077404022217,-0.5253270268440247,0.0
1659375465338756322,-0.2781689167022705,-0.5297980308532715,0.0
1659375465381779432,-0.2720591127872467,-0.535822331905365,0.0
1659375465427134990,-0.2674974501132965,-0.5402440428733826,0.0
1659375465427330017,-0.2609034478664398,-0.5465691089630127,0.0
1659375465476901531,-0.2563679814338684,-0.5508718490600586,0.0
1659375465505624055,-0.24977654218673706,-0.5569409728050232,0.0
1659375465562153100,-0.24523437023162842,-0.5609744787216187,0.0
1659375465606716871,-0.2372504472732544,-0.5678001642227173,0.0
1659375465661180973,-0.2331099808216095,-0.5712132453918457,0.0
1659375465706197500,-0.2274940460920334,-0.5757001042366028,0.0
1659375465750282049,-0.22281017899513245,-0.5793250203132629,0.0
1659375465794286966,-0.21612821519374847,-0.5843365788459778,0.0
1659375465841112375,-0.21133863925933838,-0.5878205895423889,0.0
1659375465885386943,-0.202150359749794,-0.594291090965271,0.0
1659375465931360960,-0.1972205638885498,-0.5976641774177551,0.0
1659375465974091529,-0.18944145739078522,-0.6027868986129761,0.0
1659375466020384311,-0.18417128920555115,-0.6061025857925415,0.0
1659375466066879510,-0.1761445701122284,-0.6109758615493774,0.0
1659375466110309839,-0.17123359441757202,-0.6138592958450317,0.0
1659375466154518842,-0.16473247110843658,-0.6175316572189331,0.0
1659375466198473215,-0.15998639166355133,-0.6200889348983765,0.0
1659375466242573022,-0.1530003696680069,-0.6236611008644104,0.0
1659375466303356170,-0.14783327281475067,-0.6261734962463379,0.0
1659375466346325874,-0.1400146186351776,-0.6298288702964783,0.0
1659375466394893884,-0.13454870879650116,-0.6323001980781555,0.0
1659375466439062356,-0.12404157966375351,-0.6368260979652405,0.0
1659375466482262849,-0.11806537955999374,-0.6392637491226196,0.0
1659375466482352018,-0.10997340083122253,-0.6424084901809692,0.0
1659375466538061380,-0.104087695479393,-0.6445901989936829,0.0
1659375466568172454,-0.09426465630531311,-0.6480903625488281,0.0
1659375466622436285,-0.08830288797616959,-0.6501341462135315,0.0
1659375466679456233,-0.07728619128465652,-0.6537415981292725,0.0
1659375466734692573,-0.07211344689130783,-0.6553481817245483,0.0
1659375466782393932,-0.06473148614168167,-0.657518744468689,0.0
1659375466827316999,-0.059488002210855484,-0.6589744687080383,0.0
1659375466874325513,-0.05187016353011131,-0.6609571576118469,0.0
1659375466924520015,-0.04712279886007309,-0.6621084213256836,0.0
1659375466974394559,-0.04079786315560341,-0.6635153889656067,0.0
1659375467019050598,-0.03648104518651962,-0.6643876433372498,0.0
1659375467062218666,-0.027688922360539436,-0.6659772992134094,0.0
1659375467109589338,-0.022465096786618233,-0.6668109893798828,0.0
1659375467154364585,-0.014747491106390953,-0.6679115891456604,0.0
1659375467199237823,-0.009273556992411613,-0.668605387210846,0.0
1659375467199328422,0.0005609127692878246,-0.6697115302085876,0.0
1659375467252696752,0.0068823592737317085,-0.6703437566757202,0.0
1659375467302219152,0.018833696842193604,-0.6713925004005432,0.0
1659375467359034538,0.025394855067133904,-0.6719002723693848,0.0
1659375467402397632,0.034558944404125214,-0.6725596189498901,0.0
1659375467446444034,0.04127564653754234,-0.6730226278305054,0.0
1659375467490889310,0.05196166783571243,-0.673683226108551,0.0
1659375467536437988,0.05878601223230362,-0.6740441918373108,0.0
1659375467586273193,0.07190927863121033,-0.674627959728241,0.0
1659375467630583286,0.07851126044988632,-0.674860954284668,0.0
1659375467678706169,0.0876452773809433,-0.6751003861427307,0.0
1659375467739278316,0.09432631731033325,-0.6752150654792786,0.0
1659375467787013530,0.1005522757768631,-0.6752918362617493,0.0
1659375467787114858,0.10900576412677765,-0.6753607988357544,0.0
1659375467835769176,0.11510561406612396,-0.6753787994384766,0.0
1659375467848376989,0.12411600351333618,-0.675316572189331,0.0
1659375467905689001,0.13044263422489166,-0.6752018928527832,0.0
1659375467950326442,0.1409679502248764,-0.6749141812324524,0.0
1659375467996416807,0.14701317250728607,-0.6746934056282043,0.0
1659375468046851158,0.1578320413827896,-0.6741408705711365,0.0
1659375468095496177,0.16348807513713837,-0.6737490296363831,0.0
1659375468142488002,0.1722385138273239,-0.6729956269264221,0.0
1659375468187255859,0.17803043127059937,-0.6724098920822144,0.0
1659375468237218856,0.1863556206226349,-0.6714721322059631,0.0
1659375468286715507,0.1918054223060608,-0.6707892417907715,0.0
1659375468330233812,0.19974586367607117,-0.6696378588676453,0.0
1659375468375654697,0.20518815517425537,-0.6687285304069519,0.0
1659375468418813467,0.2125965654850006,-0.6673122048377991,0.0
1659375468464028835,0.21774330735206604,-0.6662043929100037,0.0
1659375468464182615,0.22554923593997955,-0.6643486022949219,0.0
1659375468516904115,0.23074443638324738,-0.663006067276001,0.0
1659375468563699960,0.24052655696868896,-0.6602063179016113,0.0
1659375468617682218,0.24583448469638824,-0.6585233807563782,0.0
1659375468667458772,0.2525469660758972,-0.65625,0.0
1659375468714135408,0.2558126747608185,-0.6550841331481934,0.0
1659375468758855581,0.2583751380443573,-0.6541321873664856,0.0
1659375468802409172,0.259202778339386,-0.653816282749176,0.0
1659375468851978063,0.25948622822761536,-0.6537071466445923,0.0
1659375468898138523,0.25953346490859985,-0.653688907623291,0.0
1659375468946640729,0.25953346490859985,-0.653688907623291,0.0
1659375468994081020,0.25953346490859985,-0.653688907623291,0.0
1659375469042641878,0.25953346490859985,-0.653688907623291,0.0
1659375469086364984,0.25953346490859985,-0.653688907623291,0.0
1659375469135083436,0.25953346490859985,-0.653688907623291,0.0
1659375469184201478,0.25953346490859985,-0.653688907623291,0.0
1659375469236411809,0.25953346490859985,-0.653688907623291,0.0
1659375469281727313,0.25953346490859985,-0.653688907623291,0.0
1659375469331996679,0.25953346490859985,-0.653688907623291,0.0
1659375469381922245,0.25953346490859985,-0.653688907623291,0.0
1659375469382022619,0.25953346490859985,-0.653688907623291,0.0
1659375469427848100,0.25953346490859985,-0.653688907623291,0.0
1659375469456059455,0.25953346490859985,-0.653688907623291,0.0
1659375469512063741,0.25953346490859985,-0.653688907623291,0.0
1659375469562175035,0.25953346490859985,-0.653688907623291,0.0
1659375469610035181,0.25953346490859985,-0.653688907623291,0.0
1659375469654420852,0.25953346490859985,-0.653688907623291,0.0
1659375469697946786,0.25953346490859985,-0.653688907623291,0.0
1659375469742756128,0.25953346490859985,-0.653688907623291,0.0
1659375469786838054,0.25953346490859985,-0.653688907623291,0.0
1659375469835345268,0.25953346490859985,-0.653688907623291,0.0
1659375469878147840,0.25953346490859985,-0.653688907623291,0.0
1659375469932399988,0.25953346490859985,-0.653688907623291,0.0
1659375469978394031,0.25953346490859985,-0.653688907623291,0.0
1659375470022088527,0.25953346490859985,-0.653688907623291,0.0
1659375470070287466,0.25953346490859985,-0.653688907623291,0.0
1659375470114314794,0.25953346490859985,-0.653688907623291,0.0
1659375470159820079,0.25953346490859985,-0.653688907623291,0.0
1659375470159967422,0.25953346490859985,-0.653688907623291,0.0
1659375470208993434,0.25953346490859985,-0.653688907623291,0.0
1659375470242832899,0.25953346490859985,-0.653688907623291,0.0
1659375470297393083,0.25953346490859985,-0.653688907623291,0.0
1659375470348378658,0.25953346490859985,-0.653688907623291,0.0
1659375470394580841,0.25953346490859985,-0.653688907623291,0.0
1659375470438673973,0.25953346490859985,-0.653688907623291,0.0
1659375470489811420,0.25953346490859985,-0.653688907623291,0.0
1659375470538527727,0.25953346490859985,-0.653688907623291,0.0
1659375470582854986,0.25953346490859985,-0.653688907623291,0.0
1659375470626523017,0.25953346490859985,-0.653688907623291,0.0
1659375470670776844,0.25953346490859985,-0.653688907623291,0.0
1659375470714536428,0.25953346490859985,-0.653688907623291,0.0
1659375470758745431,0.25953346490859985,-0.653688907623291,0.0
1659375470802599430,0.25953346490859985,-0.653688907623291,0.0
1659375470846737623,0.25953346490859985,-0.653688907623291,0.0
1659375470890798807,0.25953346490859985,-0.653688907623291,0.0
1659375470967530012,0.25953346490859985,-0.653688907623291,0.0
1659375470967678070,0.25953346490859985,-0.653688907623291,0.0
1659375471011384010,0.25953346490859985,-0.653688907623291,0.0
1659375471035145044,0.25953346490859985,-0.653688907623291,0.0
1659375471090617418,0.25953346490859985,-0.653688907623291,0.0
1659375471138371944,0.25953346490859985,-0.653688907623291,0.0
1659375471191986083,0.25953346490859985,-0.653688907623291,0.0
1659375471238892555,0.25953346490859985,-0.653688907623291,0.0
1659375471282372951,0.25953346490859985,-0.653688907623291,0.0
1659375471334934473,0.25953346490859985,-0.653688907623291,0.0
1659375471379245758,0.25953346490859985,-0.653688907623291,0.0
1659375471421805143,0.25953346490859985,-0.653688907623291,0.0
1659375471466708898,0.25953346490859985,-0.653688907623291,0.0
1659375471514191627,0.25953346490859985,-0.653688907623291,0.0
1659375471564152240,0.25953346490859985,-0.653688907623291,0.0
1659375471609950780,0.25953346490859985,-0.653688907623291,0.0
1659375471657654285,0.25953346490859985,-0.653688907623291,0.0
1659375471657746791,0.25953346490859985,-0.653688907623291,0.0
1659375471704557418,0.25953346490859985,-0.653688907623291,0.0
1659375471733566284,0.25953346490859985,-0.653688907623291,0.0
1659375471788545131,0.25953346490859985,-0.653688907623291,0.0
1659375471835444688,0.25953346490859985,-0.653688907623291,0.0
1659375471888210535,0.25953346490859985,-0.653688907623291,0.0
1659375471935764074,0.25953346490859985,-0.653688907623291,0.0
1659375471978464365,0.25953346490859985,-0.653688907623291,0.0
1659375472025996208,0.25953346490859985,-0.653688907623291,0.0
1659375472074228763,0.25953346490859985,-0.653688907623291,0.0
1659375472119309425,0.25953346490859985,-0.653688907623291,0.0
1659375472166229009,0.25953346490859985,-0.653688907623291,0.0
1659375472210417270,0.25953346490859985,-0.653688907623291,0.0
1659375472255213499,0.25953346490859985,-0.653688907623291,0.0
1659375472255331277,0.25953346490859985,-0.653688907623291,0.0
1659375472304412126,0.25953346490859985,-0.653688907623291,0.0
1659375472336883783,0.25953346490859985,-0.653688907623291,0.0
1659375472390073299,0.25953346490859985,-0.653688907623291,0.0
1659375472436404943,0.25953346490859985,-0.653688907623291,0.0
1659375472488829851,0.25953346490859985,-0.653688907623291,0.0
1659375472542439699,0.25953346490859985,-0.653688907623291,0.0
1659375472588347911,0.25953346490859985,-0.653688907623291,0.0
1659375472634220600,0.25953346490859985,-0.653688907623291,0.0
1659375472678464412,0.25953346490859985,-0.653688907623291,0.0
1659375472722166299,0.25953346490859985,-0.653688907623291,0.0
1659375472770664691,0.25953346490859985,-0.653688907623291,0.0
1659375472814334869,0.25953346490859985,-0.653688907623291,0.0
1659375472862232923,0.25953346490859985,-0.653688907623291,0.0
1659375472907066822,0.25953346490859985,-0.653688907623291,0.0
1659375472959615230,0.25953346490859985,-0.653688907623291,0.0
1659375473007837533,0.25953346490859985,-0.653688907623291,0.0
1659375473051746129,0.25953346490859985,-0.653688907623291,0.0
1659375473051828622,0.25953346490859985,-0.653688907623291,0.0
1659375473101200580,0.25953346490859985,-0.653688907623291,0.0
1659375473124134540,0.25953346490859985,-0.653688907623291,0.0
1659375473181478261,0.25953346490859985,-0.653688907623291,0.0
1659375473231081485,0.25953346490859985,-0.653688907623291,0.0
1659375473275319099,0.25953346490859985,-0.653688907623291,0.0
1659375473322710990,0.25953346490859985,-0.653688907623291,0.0
1659375473367333412,0.25953346490859985,-0.653688907623291,0.0
1659375473410680770,0.25953346490859985,-0.653688907623291,0.0
1659375473459537267,0.25953346490859985,-0.653688907623291,0.0
1659375473506207704,0.25953346490859985,-0.653688907623291,0.0
1659375473554994106,0.25953346490859985,-0.653688907623291,0.0
1659375473603641033,0.25953346490859985,-0.653688907623291,0.0
1659375473646288871,0.25953346490859985,-0.653688907623291,0.0
1659375473690831184,0.25953346490859985,-0.653688907623291,0.0
1659375473740815877,0.25953346490859985,-0.653688907623291,0.0
1659375473785696268,0.25953346490859985,-0.653688907623291,0.0
1659375473830407857,0.25953346490859985,-0.653688907623291,0.0
1659375473874182462,0.25953346490859985,-0.653688907623291,0.0
1659375473918569803,0.25953346490859985,-0.653688907623291,0.0
1659375473918712854,0.25953346490859985,-0.653688907623291,0.0
1659375473972689867,0.25953346490859985,-0.653688907623291,0.0
1659375474018003702,0.25953346490859985,-0.653688907623291,0.0
1659375474075243949,0.25953346490859985,-0.653688907623291,0.0
1659375474122154712,0.25953346490859985,-0.653688907623291,0.0
