%time,field.x,field.y,field.z
1659373955941979646,-0.00010385570203652605,-1.3476373169396538e-05,0.0
1659373955965104103,-0.00010385570203652605,-1.3476373169396538e-05,0.0
1659373956020655155,-0.00010385570203652605,-1.3476373169396538e-05,0.0
1659373956049242734,-0.00010385570203652605,-1.3476373169396538e-05,0.0
1659373956105057477,-0.00010385570203652605,-1.3476373169396538e-05,0.0
1659373956157478094,-0.00010385570203652605,-1.3476373169396538e-05,0.0
1659373956210450887,-0.00010385570203652605,-1.3476373169396538e-05,0.0
1659373956235368967,-7.957235357025638e-05,-6.338466846500523e-06,0.0
1659373956289920091,-0.00010385583300376311,-1.3475935702444986e-05,0.0
1659373956322026968,-0.00010385583300376311,-1.3475935702444986e-05,0.0
1659373956377188205,-0.00010385583300376311,-1.3475935702444986e-05,0.0
1659373956431696891,-0.00010385583300376311,-1.3475935702444986e-05,0.0
1659373956483093261,-0.00010385583300376311,-1.3475935702444986e-05,0.0
1659373956506821393,-0.00010385583300376311,-1.3475935702444986e-05,0.0
1659373956561574697,-0.00010385583300376311,-1.3475935702444986e-05,0.0
1659373956610032796,-0.00010385583300376311,-1.3475935702444986e-05,0.0
1659373956658227920,-0.00010385583300376311,-1.3475935702444986e-05,0.0
1659373956706114053,-0.00010385583300376311,-1.3475935702444986e-05,0.0
1659373956753066062,-0.00010385583300376311,-1.3475935702444986e-05,0.0
1659373956802345037,-0.00010385583300376311,-1.3475935702444986e-05,0.0
1659373956846421718,-0.00010385583300376311,-1.3475935702444986e-05,0.0
1659373956889971971,-0.00010385583300376311,-1.3475935702444986e-05,0.0
1659373956934297323,-0.00010385583300376311,-1.3475935702444986e-05,0.0
1659373956982556343,-0.00010385583300376311,-1.3475935702444986e-05,0.0
1659373957025676012,-0.00010385583300376311,-1.3475935702444986e-05,0.0
1659373957069740533,-0.00010385583300376311,-1.3475935702444986e-05,0.0
1659373957118499994,-0.00010385583300376311,-1.3475935702444986e-05,0.0
1659373957165794372,-0.00010385583300376311,-1.3475935702444986e-05,0.0
1659373957215862989,-0.00010385583300376311,-1.3475935702444986e-05,0.0
1659373957215975761,-0.00010385583300376311,-1.3475935702444986e-05,0.0
1659373957261382579,-0.00010385583300376311,-1.3475935702444986e-05,0.0
1659373957289595127,-0.00010385583300376311,-1.3475935702444986e-05,0.0
1659373957345019102,-0.00010385583300376311,-1.3475935702444986e-05,0.0
1659373957395871639,-0.00010385583300376311,-1.3475935702444986e-05,0.0
1659373957584604263,-0.00010385583300376311,-1.3475935702444986e-05,0.0
1659373957585253953,-7.957316120155156e-05,-6.335719263006467e-06,0.0
1659373957593261480,-0.00010385549830971286,-1.3477085303748026e-05,0.0
1659373957593695402,-0.00010385549830971286,-1.3477085303748026e-05,0.0
1659373957642508268,-0.00010385549830971286,-1.3477085303748026e-05,0.0
1659373957671351909,-0.00010385549830971286,-1.3477085303748026e-05,0.0
1659373957731346607,-0.00010385549830971286,-1.3477085303748026e-05,0.0
1659373957774375677,-0.00010385549830971286,-1.3477085303748026e-05,0.0
1659373957818591594,-0.00010385549830971286,-1.3477085303748026e-05,0.0
1659373957870462417,-0.00010385549830971286,-1.3477085303748026e-05,0.0
1659373957936531543,-0.00010385549830971286,-1.3477085303748026e-05,0.0
1659373957977630615,-0.00010385549830971286,-1.3477085303748026e-05,0.0
1659373958021883726,-0.00010385549830971286,-1.3477085303748026e-05,0.0
1659373958066010713,-0.00010385549830971286,-1.3477085303748026e-05,0.0
1659373958109836339,-0.00010385549830971286,-1.3477085303748026e-05,0.0
1659373958154429674,-0.00010385549830971286,-1.3477085303748026e-05,0.0
1659373958201169490,-0.00010385549830971286,-1.3477085303748026e-05,0.0
1659373958246162414,-0.00010385549830971286,-1.3477085303748026e-05,0.0
1659373958290205717,-0.00010385549830971286,-1.3477085303748026e-05,0.0
1659373958338444232,-0.00010385549830971286,-1.3477085303748026e-05,0.0
1659373958383522748,-0.00010385549830971286,-1.3477085303748026e-05,0.0
1659373958426284790,-0.00010385549830971286,-1.3477085303748026e-05,0.0
1659373958470617055,-0.00010385549830971286,-1.3477085303748026e-05,0.0
1659373958514550685,-0.00010385549830971286,-1.3477085303748026e-05,0.0
1659373958558413743,-0.00010385549830971286,-1.3477085303748026e-05,0.0
1659373958602315425,-0.00010385549830971286,-1.3477085303748026e-05,0.0
1659373958648274183,-0.00010385549830971286,-1.3477085303748026e-05,0.0
1659373958695233106,-0.00010385549830971286,-1.3477085303748026e-05,0.0
1659373958740413188,-0.00010385549830971286,-1.3477085303748026e-05,0.0
1659373958786615610,-0.00010385549830971286,-1.3477085303748026e-05,0.0
1659373958830762147,-0.00010385549830971286,-1.3477085303748026e-05,0.0
1659373958874678611,-0.00010385549830971286,-1.3477085303748026e-05,0.0
1659373958919106006,-0.00010385549830971286,-1.3477085303748026e-05,0.0
1659373958962324142,-0.00010385549830971286,-1.3477085303748026e-05,0.0
1659373959006354570,-0.00010385549830971286,-1.3477085303748026e-05,0.0
1659373959050679206,-0.00010385549830971286,-1.3477085303748026e-05,0.0
1659373959094200611,-0.00010385549830971286,-1.3477085303748026e-05,0.0
1659373959142205715,-0.00010385549830971286,-1.3477085303748026e-05,0.0
1659373959191010236,-0.00010385549830971286,-1.3477085303748026e-05,0.0
1659373959191180944,-0.00010385549830971286,-1.3477085303748026e-05,0.0
1659373959245744943,-7.957297202665359e-05,-6.336376827675849e-06,0.0
1659373959294233322,-0.00010385595669504255,-1.3475530977302697e-05,0.0
1659373959347882747,-0.00010385595669504255,-1.3475530977302697e-05,0.0
1659373959389873981,-0.00010385595669504255,-1.3475530977302697e-05,0.0
1659373959434924125,-0.00010385595669504255,-1.3475530977302697e-05,0.0
1659373959478021621,-0.00010385595669504255,-1.3475530977302697e-05,0.0
1659373959522675037,-0.00010385595669504255,-1.3475530977302697e-05,0.0
1659373959568295240,-0.00010385595669504255,-1.3475530977302697e-05,0.0
1659373959618649482,-0.00010385595669504255,-1.3475530977302697e-05,0.0
1659373959662179470,-0.00010385595669504255,-1.3475530977302697e-05,0.0
1659373959706664800,-0.00010385595669504255,-1.3475530977302697e-05,0.0
1659373959750578165,-0.00010385595669504255,-1.3475530977302697e-05,0.0
1659373959794395923,-0.00010385595669504255,-1.3475530977302697e-05,0.0
1659373959838537454,-0.00010385595669504255,-1.3475530977302697e-05,0.0
1659373959882773160,-0.00010385595669504255,-1.3475530977302697e-05,0.0
1659373959926459074,-0.00010385595669504255,-1.3475530977302697e-05,0.0
1659373959970561742,-0.00010385595669504255,-1.3475530977302697e-05,0.0
1659373960014206647,-0.00010385595669504255,-1.3475530977302697e-05,0.0
1659373960059614419,-0.00010385595669504255,-1.3475530977302697e-05,0.0
1659373960059759378,-0.00010385595669504255,-1.3475530977302697e-05,0.0
1659373960111392259,-0.00010385595669504255,-1.3475530977302697e-05,0.0
1659373960140845298,-0.00010385595669504255,-1.3475530977302697e-05,0.0
1659373960196675539,-0.00010385595669504255,-1.3475530977302697e-05,0.0
1659373960247046947,-0.00010385595669504255,-1.3475530977302697e-05,0.0
1659373960302577257,-0.00010385595669504255,-1.3475530977302697e-05,0.0
1659373960350365877,-0.00010385595669504255,-1.3475530977302697e-05,0.0
1659373960398682117,-0.00010385595669504255,-1.3475530977302697e-05,0.0
1659373960451718330,-0.00010385595669504255,-1.3475530977302697e-05,0.0
1659373960493788242,-0.00010385595669504255,-1.3475530977302697e-05,0.0
1659373960551392316,-0.00010385595669504255,-1.3475530977302697e-05,0.0
1659373960594843387,-0.00010385595669504255,-1.3475530977302697e-05,0.0
1659373960594994068,-0.00010385595669504255,-1.3475530977302697e-05,0.0
1659373960647787332,-0.00010385595669504255,-1.3475530977302697e-05,0.0
1659373960675384521,-0.00010385595669504255,-1.3475530977302697e-05,0.0
1659373960733389377,-0.00010385595669504255,-1.3475530977302697e-05,0.0
1659373960782981872,-0.00010385595669504255,-1.3475530977302697e-05,0.0
1659373960831168651,-0.00010385595669504255,-1.3475530977302697e-05,0.0
1659373960878244638,-0.00010385595669504255,-1.3475530977302697e-05,0.0
1659373960926763057,-0.00010385595669504255,-1.3475530977302697e-05,0.0
1659373960974671840,-0.00010385595669504255,-1.3475530977302697e-05,0.0
1659373961022534370,-0.00010385595669504255,-1.3475530977302697e-05,0.0
1659373961066414594,-0.00010385595669504255,-1.3475530977302697e-05,0.0
1659373961116425991,-0.00010385595669504255,-1.3475530977302697e-05,0.0
1659373961116523027,-0.00010385595669504255,-1.3475530977302697e-05,0.0
1659373961168364048,-0.00010385595669504255,-1.3475530977302697e-05,0.0
1659373961197432041,-0.00010385595669504255,-1.3475530977302697e-05,0.0
1659373961251386642,-0.00010385595669504255,-1.3475530977302697e-05,0.0
1659373961299789667,-0.00010385595669504255,-1.3475530977302697e-05,0.0
1659373961351779699,-0.00010385595669504255,-1.3475530977302697e-05,0.0
1659373961394061803,-0.00010385595669504255,-1.3475530977302697e-05,0.0
1659373961438126087,-0.00010385595669504255,-1.3475530977302697e-05,0.0
1659373961483415603,-0.00010385595669504255,-1.3475530977302697e-05,0.0
1659373961526880264,-0.00010385595669504255,-1.3475530977302697e-05,0.0
1659373961569697856,-0.00010385595669504255,-1.3475530977302697e-05,0.0
1659373961615231752,-0.00010385595669504255,-1.3475530977302697e-05,0.0
1659373961659599781,-0.00010385595669504255,-1.3475530977302697e-05,0.0
1659373961702995300,-0.00010385595669504255,-1.3475530977302697e-05,0.0
1659373961746221065,-0.00010385595669504255,-1.3475530977302697e-05,0.0
1659373961792777299,-0.00010385595669504255,-1.3475530977302697e-05,0.0
1659373961838105678,-0.00010385595669504255,-1.3475530977302697e-05,0.0
1659373961881701231,-0.00010385595669504255,-1.3475530977302697e-05,0.0
1659373961926869153,-0.00010385595669504255,-1.3475530977302697e-05,0.0
1659373961974709272,-0.00010385595669504255,-1.3475530977302697e-05,0.0
1659373962026712894,-0.00010385595669504255,-1.3475530977302697e-05,0.0
1659373962072336435,-0.00010385595669504255,-1.3475530977302697e-05,0.0
1659373962114767789,-0.00010385595669504255,-1.3475530977302697e-05,0.0
1659373962158904314,-0.00010385595669504255,-1.3475530977302697e-05,0.0
1659373962202131748,-0.00010385595669504255,-1.3475530977302697e-05,0.0
1659373962249832630,-0.00010385595669504255,-1.3475530977302697e-05,0.0
1659373962298590898,-0.00010385595669504255,-1.3475530977302697e-05,0.0
1659373962341905117,-0.00010385595669504255,-1.3475530977302697e-05,0.0
1659373962386353969,-0.00010385595669504255,-1.3475530977302697e-05,0.0
1659373962432613849,-0.00010385595669504255,-1.3475530977302697e-05,0.0
1659373962482396125,-0.00010385595669504255,-1.3475530977302697e-05,0.0
1659373962526365995,-0.00010385595669504255,-1.3475530977302697e-05,0.0
1659373962570652961,-0.00010385595669504255,-1.3475530977302697e-05,0.0
1659373962614442825,-0.00010385595669504255,-1.3475530977302697e-05,0.0
1659373962658448219,-0.00010385595669504255,-1.3475530977302697e-05,0.0
1659373962706218957,-0.00010385595669504255,-1.3475530977302697e-05,0.0
1659373962755085706,-0.00010385595669504255,-1.3475530977302697e-05,0.0
1659373962798353672,-0.00010385595669504255,-1.3475530977302697e-05,0.0
1659373962845519781,-0.00010385595669504255,-1.3475530977302697e-05,0.0
1659373962891386508,-0.00010385595669504255,-1.3475530977302697e-05,0.0
1659373962947429418,-0.00010385595669504255,-1.3475530977302697e-05,0.0
1659373962991286039,-0.00010385595669504255,-1.3475530977302697e-05,0.0
1659373963034915924,-0.00010385595669504255,-1.3475530977302697e-05,0.0
1659373963082779169,-0.00010385595669504255,-1.3475530977302697e-05,0.0
1659373963082965850,-0.00010385595669504255,-1.3475530977302697e-05,0.0
1659373963130705595,-0.00010385595669504255,-1.3475530977302697e-05,0.0
1659373963179417610,-0.00010385595669504255,-1.3475530977302697e-05,0.0
1659373963234588623,-0.00010385595669504255,-1.3475530977302697e-05,0.0
1659373963282378435,-0.00010385595669504255,-1.3475530977302697e-05,0.0
1659373963327151060,-0.00010385595669504255,-1.3475530977302697e-05,0.0
1659373963371213197,-0.00010385595669504255,-1.3475530977302697e-05,0.0
1659373963418486833,-0.00010385595669504255,-1.3475530977302697e-05,0.0
1659373963466409444,-0.00012813971261493862,-2.0612042135326192e-05,0.0
1659373963511906385,-0.00010385595669504255,-1.3475508239935152e-05,0.0
1659373963560842037,-0.00010385595669504255,-1.3475508239935152e-05,0.0
1659373963607022523,-0.00010385595669504255,-1.3475508239935152e-05,0.0
1659373963650389432,-0.00010385595669504255,-1.3475508239935152e-05,0.0
1659373963694726705,-0.00010385595669504255,-1.3475508239935152e-05,0.0
1659373963738318681,-0.00012813869398087263,-2.061547820630949e-05,0.0
1659373963782899618,-0.00010385605855844915,-1.3475146261043847e-05,0.0
1659373963830270528,-0.00010385605855844915,-1.3475146261043847e-05,0.0
1659373963874441385,-0.00010385605855844915,-1.3475146261043847e-05,0.0
1659373963931697845,-0.00010385605855844915,-1.3475146261043847e-05,0.0
1659373963985781431,-0.00010385605855844915,-1.3475146261043847e-05,0.0
1659373964034390687,-0.00010385605855844915,-1.3475146261043847e-05,0.0
1659373964084503889,-0.00010385605855844915,-1.3475146261043847e-05,0.0
1659373964130214214,-0.00010385605855844915,-1.3475146261043847e-05,0.0
1659373964175769090,-0.00010385605855844915,-1.3475146261043847e-05,0.0
1659373964218347311,-0.00010385605855844915,-1.3475146261043847e-05,0.0
1659373964266295909,-0.00010385605855844915,-1.3475146261043847e-05,0.0
1659373964310412645,-0.00010385605855844915,-1.3475146261043847e-05,0.0
1659373964354301452,-0.00010385605855844915,-1.3475146261043847e-05,0.0
1659373964398300886,-0.00010385605855844915,-1.3475146261043847e-05,0.0
1659373964447576284,-0.00010385605855844915,-1.3475146261043847e-05,0.0
1659373964490354061,-0.00010385605855844915,-1.3475146261043847e-05,0.0
1659373964540571451,-0.00010385605855844915,-1.3475146261043847e-05,0.0
1659373964590649127,-7.957286288728938e-05,-6.336701517284382e-06,0.0
1659373964638768911,-0.00010385594214312732,-1.3475534615281504e-05,0.0
1659373964685538768,-0.00010385594214312732,-1.3475534615281504e-05,0.0
1659373964734831809,-0.00010385594214312732,-1.3475534615281504e-05,0.0
1659373964734938859,-0.00010385594214312732,-1.3475534615281504e-05,0.0
1659373964783867597,-0.00010385594214312732,-1.3475534615281504e-05,0.0
1659373964807148694,-0.00010385594214312732,-1.3475534615281504e-05,0.0
1659373964862087965,-0.00010385594214312732,-1.3475534615281504e-05,0.0
1659373964906168222,-0.00010385594214312732,-1.3475534615281504e-05,0.0
1659373964954571247,-0.00010385594214312732,-1.3475534615281504e-05,0.0
1659373965002336502,-0.00010385594214312732,-1.3475534615281504e-05,0.0
1659373965046431303,-0.00010385594214312732,-1.3475534615281504e-05,0.0
1659373965095866680,-0.00010385594214312732,-1.3475534615281504e-05,0.0
1659373965149397134,-0.00010385594214312732,-1.3475534615281504e-05,0.0
1659373965197608947,-0.00010385594214312732,-1.3475534615281504e-05,0.0
1659373965246609926,-0.00010385594214312732,-1.3475534615281504e-05,0.0
1659373965290365219,-0.00010385594214312732,-1.3475534615281504e-05,0.0
1659373965338585853,-0.00010385594214312732,-1.3475534615281504e-05,0.0
1659373965382736206,-0.00010385594214312732,-1.3475534615281504e-05,0.0
1659373965430608987,-0.00010385594214312732,-1.3475534615281504e-05,0.0
1659373965478950262,-0.00010385594214312732,-1.3475534615281504e-05,0.0
1659373965529756069,-0.00010385594214312732,-1.3475534615281504e-05,0.0
1659373965530192613,-0.00010385594214312732,-1.3475534615281504e-05,0.0
1659373965578151226,-0.00010385594214312732,-1.3475534615281504e-05,0.0
1659373965607813119,-0.00010385594214312732,-1.3475534615281504e-05,0.0
1659373965663754701,-0.00010385594214312732,-1.3475534615281504e-05,0.0
1659373965713235378,-0.00010385594214312732,-1.3475534615281504e-05,0.0
1659373965783162355,-0.00010385594214312732,-1.3475534615281504e-05,0.0
1659373965830638170,-0.00010385594214312732,-1.3475534615281504e-05,0.0
1659373965874320268,-0.00010385594214312732,-1.3475534615281504e-05,0.0
1659373965922443628,-0.00010385594214312732,-1.3475534615281504e-05,0.0
1659373965966411113,-0.00010385594214312732,-1.3475534615281504e-05,0.0
1659373966016919612,-0.00010385594214312732,-1.3475534615281504e-05,0.0
1659373966062256813,-0.00010385594214312732,-1.3475534615281504e-05,0.0
1659373966110464334,-0.00010385594214312732,-1.3475534615281504e-05,0.0
1659373966155820369,-0.00010385594214312732,-1.3475534615281504e-05,0.0
1659373966155928373,-0.00010385594214312732,-1.3475534615281504e-05,0.0
1659373966203835248,-0.00010385594214312732,-1.3475534615281504e-05,0.0
1659373966251078844,-0.00010385594214312732,-1.3475534615281504e-05,0.0
1659373966307054519,-0.00010385594214312732,-1.3475534615281504e-05,0.0
1659373966350352048,-0.00010385594214312732,-1.3475534615281504e-05,0.0
1659373966397445917,-0.00010385594214312732,-1.3475534615281504e-05,0.0
1659373966446648597,-0.00010385594214312732,-1.3475534615281504e-05,0.0
1659373966494751691,-0.00010385594214312732,-1.3475534615281504e-05,0.0
1659373966538095474,-0.00010385594214312732,-1.3475534615281504e-05,0.0
1659373966584085941,-0.00010385594214312732,-1.3475534615281504e-05,0.0
1659373966633023262,-0.00010385594214312732,-1.3475534615281504e-05,0.0
1659373966704631805,-0.00010385594214312732,-1.3475534615281504e-05,0.0
1659373966704791545,-0.00010385594214312732,-1.3475534615281504e-05,0.0
1659373966754161119,-0.00010385594214312732,-1.3475534615281504e-05,0.0
1659373966768580436,-0.00010385594214312732,-1.3475534615281504e-05,0.0
1659373966821768522,-0.00010385594214312732,-1.3475534615281504e-05,0.0
1659373966868231058,-0.00010385594214312732,-1.3475534615281504e-05,0.0
1659373966918226718,-0.00010385594214312732,-1.3475534615281504e-05,0.0
1659373966966332674,-0.00010385594214312732,-1.3475534615281504e-05,0.0
1659373967011742353,-0.00010385594214312732,-1.3475534615281504e-05,0.0
1659373967054289102,-0.00010385594214312732,-1.3475534615281504e-05,0.0
1659373967101895570,-0.00010385594214312732,-1.3475534615281504e-05,0.0
1659373967146664381,-0.00010385594214312732,-1.3475534615281504e-05,0.0
1659373967189739704,-0.00010385594214312732,-1.3475534615281504e-05,0.0
1659373967233912944,-0.00010385594214312732,-1.3475534615281504e-05,0.0
1659373967279151916,-0.00010385594214312732,-1.3475534615281504e-05,0.0
1659373967321862220,-0.00010385594214312732,-1.3475534615281504e-05,0.0
1659373967365693330,-0.00010385594214312732,-1.3475534615281504e-05,0.0
1659373967410097837,-0.00010385594214312732,-1.3475534615281504e-05,0.0
1659373967458049774,-0.00010385594214312732,-1.3475534615281504e-05,0.0
1659373967501776933,-0.00010385594214312732,-1.3475534615281504e-05,0.0
1659373967545855522,-0.00010385594214312732,-1.3475534615281504e-05,0.0
1659373967593948602,-0.00010385594214312732,-1.3475534615281504e-05,0.0
1659373967643356323,-0.00010385594214312732,-1.3475534615281504e-05,0.0
1659373967643505573,-0.00010385594214312732,-1.3475534615281504e-05,0.0
1659373967691066980,-0.00010385594214312732,-1.3475534615281504e-05,0.0
1659373967725042104,-0.00010385594214312732,-1.3475534615281504e-05,0.0
1659373967782940864,-0.00010385594214312732,-1.3475534615281504e-05,0.0
1659373967826444625,-7.957220077514648e-05,-6.338948423945112e-06,0.0
1659373967874228239,-0.00010385602217866108,-1.3475248124450445e-05,0.0
1659373967921943664,-0.00010385602217866108,-1.3475248124450445e-05,0.0
1659373967965950250,-0.00010385602217866108,-1.3475248124450445e-05,0.0
1659373968012569189,-0.00010385602217866108,-1.3475248124450445e-05,0.0
1659373968066837549,-5.529393820324913e-05,8.162710400938522e-07,0.0
1659373968110485792,-5.529393820324913e-05,8.162710400938522e-07,0.0
1659373968154960870,-0.00017596306861378253,-3.7324662116589025e-05,0.0
1659373968202634572,-0.0001281526783714071,-2.069067159027327e-05,0.0
1659373968247714996,-0.00015176406304817647,-2.980840508826077e-05,0.0
1659373968290446519,-0.0001284941245103255,-1.9851464458042756e-05,0.0
1659373968338482379,-0.0001513846655143425,-3.065212513320148e-05,0.0
1659373968383322715,-0.00010652083437889814,-7.205168458312983e-06,0.0
1659373968433732271,-0.00012844275624956936,-1.9856661310768686e-05,0.0
1659373968433967590,-0.00014986074529588223,-3.334371649543755e-05,0.0
1659373968508612394,-0.00014986074529588223,-3.334371649543755e-05,0.0
1659373968508738517,-0.00021080809528939426,-7.863276550779119e-05,0.0
1659373968609593152,-0.00023055523342918605,-9.446569310966879e-05,0.0
1659373968610084533,-0.00030715615139342844,-0.00016066535317804664,0.0
1659373968674926042,-0.00032567992457188666,-0.00017791357822716236,0.0
1659373968675205230,-0.00037906243233010173,-0.00023191343643702567,0.0
1659373968725683927,-0.0003620382631197572,-0.0002131835644831881,0.0
1659373968785862922,-0.0004426132654771209,-0.000310771691147238,0.0
1659373968842608928,-0.0005033127963542938,-0.00039180045132525265,0.0
1659373968893893718,-0.0004890246200375259,-0.00037090835394337773,0.0
1659373968938873291,-0.0004890246200375259,-0.00037090835394337773,0.0
1659373968982705831,-0.0005014737835153937,-0.0003929458325728774,0.0
1659373969051353931,-0.00046692215255461633,-0.00032533027115277946,0.0
1659373969051489114,-0.0004246175230946392,-0.0002333497686777264,0.0
1659373969096038341,-0.0004246175230946392,-0.0002333497686777264,0.0
1659373969125405073,-0.00040730845648795366,-0.00018577961600385606,0.0
1659373969175557374,-0.00039966480107977986,-0.00016165069246198982,0.0
1659373969229685068,-0.0003929968224838376,-0.00013723412121180445,0.0
1659373969281727313,-0.00038730583037249744,-0.0001125715280068107,0.0
1659373969327049970,-0.0003733365738298744,-3.793549331021495e-05,0.0
1659373969376736164,-0.0003733365738298744,-3.793549331021495e-05,0.0
1659373969376895666,-0.0003632671432569623,6.280526577029377e-05,0.0
1659373969427453517,-0.00035901571391150355,0.00013861821207683533,0.0
1659373969470800638,-0.0003597972681745887,3.737848237506114e-05,0.0
1659373969523994445,-0.00036183581687510014,8.795878966338933e-05,0.0
1659373969566666841,-0.000349460169672966,-6.340023537632078e-05,0.0
1659373969614017486,-0.000349460169672966,-6.340023537632078e-05,0.0
1659373969658042192,-0.00032883870881050825,-0.00018826226005330682,0.0
1659373969711515903,-0.00033910039928741753,-0.00013869188842363656,0.0
1659373969754544734,-0.0003201492945663631,-0.00021222101349849254,0.0
1659373969800100564,-0.0003351343038957566,-0.00016386841889470816,0.0
1659373969850264787,-0.0003351343038957566,-0.00016386841889470816,0.0
1659373969894371271,-0.0003446424088906497,-0.0001404115027980879,0.0
1659373969938527822,-0.0003446424088906497,-0.0001404115027980879,0.0
1659373969986752986,-0.0003678486682474613,-9.542269253870472e-05,0.0
1659373970030911445,-0.0003678486682474613,-9.542269253870472e-05,0.0
1659373970074326276,-0.00038079387741163373,-7.367291982518509e-05,0.0
1659373970118490457,-0.000394002185203135,-5.208191942074336e-05,0.0
1659373970166524887,-0.00040731640183366835,-3.0556060664821416e-05,0.0
1659373970210629701,-0.00040731640183366835,-3.0556060664821416e-05,0.0
1659373970254444837,-0.00040731640183366835,-3.0556060664821416e-05,0.0
1659373970302500724,-0.00040731640183366835,-3.0556060664821416e-05,0.0
1659373970350329399,-0.00040731640183366835,-3.0556060664821416e-05,0.0
1659373970394551515,-0.00040731640183366835,-3.0556060664821416e-05,0.0
1659373970442557334,-0.00040731640183366835,-3.0556060664821416e-05,0.0
1659373970490596771,-0.00040731640183366835,-3.0556060664821416e-05,0.0
1659373970535236358,-0.00040731640183366835,-3.0556060664821416e-05,0.0
1659373970535354137,-0.00040731640183366835,-3.0556060664821416e-05,0.0
1659373970591025590,-0.00040731640183366835,-3.0556060664821416e-05,0.0
1659373970642196178,-0.00040731640183366835,-3.0556060664821416e-05,0.0
1659373970698982000,-0.00040731640183366835,-3.0556060664821416e-05,0.0
1659373970746185302,-0.00040731640183366835,-3.0556060664821416e-05,0.0
1659373970790693283,-0.00040731640183366835,-3.0556060664821416e-05,0.0
1659373970834076881,-0.00040731640183366835,-3.0556060664821416e-05,0.0
1659373970878750562,-0.00040731640183366835,-3.0556060664821416e-05,0.0
1659373970922441482,-0.00040731640183366835,-3.0556060664821416e-05,0.0
1659373970966280937,-0.00040731640183366835,-3.0556060664821416e-05,0.0
1659373971016845226,-0.00040731640183366835,-3.0556060664821416e-05,0.0
1659373971063042640,-0.00040731640183366835,-3.0556060664821416e-05,0.0
1659373971108319759,-0.00040731640183366835,-3.0556060664821416e-05,0.0
1659373971150184869,-0.00040731640183366835,-3.0556060664821416e-05,0.0
1659373971198526382,-0.00040731640183366835,-3.0556060664821416e-05,0.0
1659373971246483564,-0.00040731640183366835,-3.0556060664821416e-05,0.0
1659373971290454387,-0.00040731640183366835,-3.0556060664821416e-05,0.0
1659373971335749387,-0.00040731640183366835,-3.0556060664821416e-05,0.0
1659373971335967063,-0.00040731640183366835,-3.0556060664821416e-05,0.0
1659373971387868881,-0.00040731640183366835,-3.0556060664821416e-05,0.0
1659373971437641620,-0.00040731640183366835,-3.0556060664821416e-05,0.0
1659373971496026039,-0.00040731640183366835,-3.0556060664821416e-05,0.0
1659373971542608737,-0.00040731640183366835,-3.0556060664821416e-05,0.0
1659373971590816974,-0.00040731640183366835,-3.0556060664821416e-05,0.0
1659373971634541988,-0.00040731640183366835,-3.0556060664821416e-05,0.0
1659373971682900190,-0.00040731640183366835,-3.0556060664821416e-05,0.0
1659373971730183601,-0.00040731640183366835,-3.0556060664821416e-05,0.0
1659373971779302120,-0.0004206604207865894,-9.048672836797778e-06,0.0
1659373971824322700,-0.0004073175077792257,-3.0556748242815956e-05,0.0
1659373971871444940,-0.0004073175077792257,-3.0556748242815956e-05,0.0
1659373971871608495,-0.0004073175077792257,-3.0556748242815956e-05,0.0
1659373971923089981,-0.0004073175077792257,-3.0556748242815956e-05,0.0
1659373971962220430,-0.0004073175077792257,-3.0556748242815956e-05,0.0
1659373972015697956,-0.0004073175077792257,-3.0556748242815956e-05,0.0
1659373972062433242,-0.0004073175077792257,-3.0556748242815956e-05,0.0
1659373972107314109,-0.0004073175077792257,-3.0556748242815956e-05,0.0
1659373972150066614,-0.0004073175077792257,-3.0556748242815956e-05,0.0
1659373972194870710,-0.0004073175077792257,-3.0556748242815956e-05,0.0
1659373972242941617,-0.0004073175077792257,-3.0556748242815956e-05,0.0
1659373972291365146,-0.0004073175077792257,-3.0556748242815956e-05,0.0
1659373972335914850,-0.0004073175077792257,-3.0556748242815956e-05,0.0
1659373972378446817,-0.0004073175077792257,-3.0556748242815956e-05,0.0
1659373972426824331,-0.0004073175077792257,-3.0556748242815956e-05,0.0
1659373972427130222,-0.0004073175077792257,-3.0556748242815956e-05,0.0
1659373972479277849,-0.0004073175077792257,-3.0556748242815956e-05,0.0
1659373972508606672,-0.0004073175077792257,-3.0556748242815956e-05,0.0
1659373972564300537,-0.0004073175077792257,-3.0556748242815956e-05,0.0
1659373972616257429,-0.0004073175077792257,-3.0556748242815956e-05,0.0
1659373972663966655,-0.0004073175077792257,-3.0556748242815956e-05,0.0
1659373972710439443,-0.0004073175077792257,-3.0556748242815956e-05,0.0
1659373972754666328,-0.0004073175077792257,-3.0556748242815956e-05,0.0
1659373972798660755,-0.0004073175077792257,-3.0556748242815956e-05,0.0
1659373972849133729,-0.0004073175077792257,-3.0556748242815956e-05,0.0
1659373972898514270,-0.0004073175077792257,-3.0556748242815956e-05,0.0
1659373972946461677,-0.000420662690885365,-9.050085282069631e-06,0.0
1659373972990198612,-0.000407319312216714,-3.055787965422496e-05,0.0
1659373973034885406,-0.000407319312216714,-3.055787965422496e-05,0.0
1659373973085286140,-0.000407319312216714,-3.055787965422496e-05,0.0
1659373973134586811,-0.000407319312216714,-3.055787965422496e-05,0.0
1659373973134711980,-0.000407319312216714,-3.055787965422496e-05,0.0
1659373973186435937,-0.000407319312216714,-3.055787965422496e-05,0.0
1659373973229374170,-0.000407319312216714,-3.055787965422496e-05,0.0
1659373973284046411,-0.000407319312216714,-3.055787965422496e-05,0.0
1659373973331357002,-0.000407319312216714,-3.055787965422496e-05,0.0
1659373973374782323,-0.000407319312216714,-3.055787965422496e-05,0.0
1659373973418212890,-0.000407319312216714,-3.055787965422496e-05,0.0
1659373973464338064,-0.000407319312216714,-3.055787965422496e-05,0.0
1659373973510469675,-0.000407319312216714,-3.055787965422496e-05,0.0
1659373973558700799,-0.000407319312216714,-3.055787965422496e-05,0.0
1659373973606669664,-0.000407319312216714,-3.055787965422496e-05,0.0
1659373973650287389,-0.000407319312216714,-3.055787965422496e-05,0.0
1659373973698886871,-0.000407319312216714,-3.055787965422496e-05,0.0
1659373973743937969,-0.000407319312216714,-3.055787965422496e-05,0.0
1659373973790732383,-0.000407319312216714,-3.055787965422496e-05,0.0
1659373973834303140,-0.000407319312216714,-3.055787965422496e-05,0.0
1659373973879770040,-0.000407319312216714,-3.055787965422496e-05,0.0
1659373973922831058,-0.000407319312216714,-3.055787965422496e-05,0.0
1659373973966646194,-0.000407319312216714,-3.055787965422496e-05,0.0
1659373974010993480,-0.000407319312216714,-3.055787965422496e-05,0.0
1659373974054649353,-0.000407319312216714,-3.055787965422496e-05,0.0
1659373974102079629,-0.000407319312216714,-3.055787965422496e-05,0.0
1659373974151274204,-0.000407319312216714,-3.055787965422496e-05,0.0
1659373974198746919,-0.000407319312216714,-3.055787965422496e-05,0.0
1659373974198814153,-0.000407319312216714,-3.055787965422496e-05,0.0
1659373974254028320,-0.000407319312216714,-3.055787965422496e-05,0.0
1659373974282185792,-0.000407319312216714,-3.055787965422496e-05,0.0
1659373974336437463,-0.000407319312216714,-3.055787965422496e-05,0.0
1659373974384700775,-0.000407319312216714,-3.055787965422496e-05,0.0
1659373974429950475,-0.00042066251626238227,-9.049985237652436e-06,0.0
1659373974474014759,-0.0004073182353749871,-3.055722118006088e-05,0.0
1659373974518777370,-0.0004073182353749871,-3.055722118006088e-05,0.0
1659373974566205024,-0.0004073182353749871,-3.055722118006088e-05,0.0
1659373974610529422,-0.0004073182353749871,-3.055722118006088e-05,0.0
1659373974654984951,-0.0004073182353749871,-3.055722118006088e-05,0.0
1659373974702819585,-0.0004073182353749871,-3.055722118006088e-05,0.0
1659373974703021287,-0.0004073182353749871,-3.055722118006088e-05,0.0
1659373974746478557,-0.0004073182353749871,-3.055722118006088e-05,0.0
1659373974774091958,-0.0004073182353749871,-3.055722118006088e-05,0.0
1659373974830611467,-0.0004073182353749871,-3.055722118006088e-05,0.0
1659373974880307197,-0.0004073182353749871,-3.055722118006088e-05,0.0
1659373974944160461,-0.0004073182353749871,-3.055722118006088e-05,0.0
1659373974986346721,-0.0004073182353749871,-3.055722118006088e-05,0.0
1659373975030971050,-0.0004073182353749871,-3.055722118006088e-05,0.0
1659373975074747323,-0.0004073182353749871,-3.055722118006088e-05,0.0
1659373975123336791,-0.0004073182353749871,-3.055722118006088e-05,0.0
1659373975166292905,-0.0004073182353749871,-3.055722118006088e-05,0.0
1659373975211022138,-0.0004073182353749871,-3.055722118006088e-05,0.0
1659373975254160165,-0.0004206614103168249,-9.04931039258372e-06,0.0
1659373975301565885,-0.000407317973440513,-3.055705747101456e-05,0.0
1659373975346384286,-0.000407317973440513,-3.055705747101456e-05,0.0
1659373975392011880,-0.000407317973440513,-3.055705747101456e-05,0.0
1659373975439453125,-0.000407317973440513,-3.055705747101456e-05,0.0
1659373975482713460,-0.000407317973440513,-3.055705747101456e-05,0.0
1659373975526733636,-0.000407317973440513,-3.055705747101456e-05,0.0
1659373975570426940,-0.000407317973440513,-3.055705747101456e-05,0.0
1659373975614881992,-0.000407317973440513,-3.055705747101456e-05,0.0
1659373975663569211,-0.000407317973440513,-3.055705747101456e-05,0.0
1659373975710460186,-0.000407317973440513,-3.055705747101456e-05,0.0
1659373975710582017,-0.000407317973440513,-3.055705747101456e-05,0.0
1659373975754683494,-0.000407317973440513,-3.055705747101456e-05,0.0
1659373975766711235,-0.000407317973440513,-3.055705747101456e-05,0.0
1659373975824879169,-0.000407317973440513,-3.055705747101456e-05,0.0
1659373975874755382,-0.000407317973440513,-3.055705747101456e-05,0.0
1659373975918449401,-0.000407317973440513,-3.055705747101456e-05,0.0
1659373975962666273,-0.000407317973440513,-3.055705747101456e-05,0.0
1659373976006930828,-0.000407317973440513,-3.055705747101456e-05,0.0
1659373976052855968,-0.000407317973440513,-3.055705747101456e-05,0.0
1659373976098984479,-0.000407317973440513,-3.055705747101456e-05,0.0
1659373976142532110,-0.000407317973440513,-3.055705747101456e-05,0.0
1659373976186339139,-0.000407317973440513,-3.055705747101456e-05,0.0
1659373976230619668,-0.000407317973440513,-3.055705747101456e-05,0.0
1659373976275553464,-0.000407317973440513,-3.055705747101456e-05,0.0
1659373976318458557,-0.000407317973440513,-3.055705747101456e-05,0.0
1659373976362786769,-0.000407317973440513,-3.055705747101456e-05,0.0
1659373976406473159,-0.000407317973440513,-3.055705747101456e-05,0.0
1659373976455207109,-0.000407317973440513,-3.055705747101456e-05,0.0
1659373976502132177,-0.000407317973440513,-3.055705747101456e-05,0.0
1659373976546247482,-0.000407317973440513,-3.055705747101456e-05,0.0
1659373976594908475,-0.000407317973440513,-3.055705747101456e-05,0.0
1659373976638424634,-0.000407317973440513,-3.055705747101456e-05,0.0
1659373976682300090,-0.000407317973440513,-3.055705747101456e-05,0.0
1659373976727134943,-0.000407317973440513,-3.055705747101456e-05,0.0
1659373976774392843,-0.000407317973440513,-3.055705747101456e-05,0.0
1659373976818382740,-0.000407317973440513,-3.055705747101456e-05,0.0
1659373976862438440,-0.000407317973440513,-3.055705747101456e-05,0.0
1659373976911165475,-0.000407317973440513,-3.055705747101456e-05,0.0
1659373976958541154,-0.000407317973440513,-3.055705747101456e-05,0.0
1659373977006881952,-0.000407317973440513,-3.055705747101456e-05,0.0
1659373977050559282,-0.000407317973440513,-3.055705747101456e-05,0.0
1659373977094692707,-0.00042066213791258633,-9.049752407008782e-06,0.0
1659373977138471603,-0.0004073165182489902,-3.0556147976312786e-05,0.0
1659373977183153390,-0.0004073165182489902,-3.0556147976312786e-05,0.0
1659373977231370687,-0.0004073165182489902,-3.0556147976312786e-05,0.0
1659373977274539947,-0.0004073165182489902,-3.0556147976312786e-05,0.0
1659373977318621635,-0.0004073165182489902,-3.0556147976312786e-05,0.0
1659373977367167711,-0.0004073165182489902,-3.0556147976312786e-05,0.0
1659373977367282152,-0.0004073165182489902,-3.0556147976312786e-05,0.0
1659373977420133113,-0.0004073165182489902,-3.0556147976312786e-05,0.0
1659373977448911428,-0.0004073165182489902,-3.0556147976312786e-05,0.0
1659373977504496097,-0.00042065931484103203,-9.047994353750255e-06,0.0
1659373977562675237,-0.00040731424815021455,-3.0554736440535635e-05,0.0
1659373977612419843,-0.00040731424815021455,-3.0554736440535635e-05,0.0
1659373977657877206,-0.00040731424815021455,-3.0554736440535635e-05,0.0
1659373977708637237,-0.00040731424815021455,-3.0554736440535635e-05,0.0
1659373977754025697,-0.00040731424815021455,-3.0554736440535635e-05,0.0
1659373977798866987,-0.00040731424815021455,-3.0554736440535635e-05,0.0
1659373977799016237,-0.00040731424815021455,-3.0554736440535635e-05,0.0
1659373977856364965,-0.00040731424815021455,-3.0554736440535635e-05,0.0
1659373977878433227,-0.00040731424815021455,-3.0554736440535635e-05,0.0
1659373977934198617,-0.00040731424815021455,-3.0554736440535635e-05,0.0
1659373977978790760,-0.00040731424815021455,-3.0554736440535635e-05,0.0
1659373978024210691,-0.00040731424815021455,-3.0554736440535635e-05,0.0
1659373978072993993,-0.00040731424815021455,-3.0554736440535635e-05,0.0
1659373978119044542,-0.00040731424815021455,-3.0554736440535635e-05,0.0
1659373978166774988,-0.00042065809248015285,-9.04724311112659e-06,0.0
1659373978214641809,-0.000407314277254045,-3.05547691823449e-05,0.0
1659373978214805841,-0.000407314277254045,-3.05547691823449e-05,0.0
1659373978262311458,-0.000407314277254045,-3.05547691823449e-05,0.0
1659373978292730569,-0.000407314277254045,-3.05547691823449e-05,0.0
1659373978346258878,-0.000407314277254045,-3.05547691823449e-05,0.0
1659373978395592212,-0.000407314277254045,-3.05547691823449e-05,0.0
1659373978452988624,-0.000407314277254045,-3.05547691823449e-05,0.0
1659373978498645782,-0.000407314277254045,-3.05547691823449e-05,0.0
1659373978542398452,-0.000407314277254045,-3.05547691823449e-05,0.0
1659373978586388111,-0.000407314277254045,-3.05547691823449e-05,0.0
1659373978634111404,-0.000407314277254045,-3.05547691823449e-05,0.0
1659373978684598445,-0.000407314277254045,-3.05547691823449e-05,0.0
1659373978729994535,-0.000407314277254045,-3.05547691823449e-05,0.0
1659373978773823022,-0.000407314277254045,-3.05547691823449e-05,0.0
1659373978819073677,-0.000407314277254045,-3.05547691823449e-05,0.0
1659373978866022109,-0.000407314277254045,-3.05547691823449e-05,0.0
1659373978914555311,-0.000407314277254045,-3.05547691823449e-05,0.0
1659373978958925724,-0.000407314277254045,-3.05547691823449e-05,0.0
1659373979008570432,-0.000407314277254045,-3.05547691823449e-05,0.0
1659373979008773326,-0.000407314277254045,-3.05547691823449e-05,0.0
1659373979058398008,-0.000407314277254045,-3.05547691823449e-05,0.0
1659373979102563619,-0.000407314277254045,-3.05547691823449e-05,0.0
1659373979157540798,-0.000407314277254045,-3.05547691823449e-05,0.0
1659373979202224493,-0.000407314277254045,-3.05547691823449e-05,0.0
1659373979247079133,-0.000407314277254045,-3.05547691823449e-05,0.0
1659373979294233560,-0.000407314277254045,-3.05547691823449e-05,0.0
1659373979338683843,-0.000407314277254045,-3.05547691823449e-05,0.0
1659373979382599353,-0.00042065835441462696,-9.047417734109331e-06,0.0
1659373979426626443,-0.0004073144227731973,-3.0554860131815076e-05,0.0
1659373979471333742,-0.0004073144227731973,-3.0554860131815076e-05,0.0
1659373979527072429,-0.00042065794696100056,-9.04715579963522e-06,0.0
1659373979651496887,-0.00040731465560384095,-3.055500565096736e-05,0.0
1659373979651683807,-0.00040731465560384095,-3.055500565096736e-05,0.0
1659373979670981884,-0.00042065983870998025,-9.04833541426342e-06,0.0
1659373979671133756,-0.00040731579065322876,-3.055570414289832e-05,0.0
1659373979714588403,-0.00040731579065322876,-3.055570414289832e-05,0.0
1659373979733747720,-0.00040731579065322876,-3.055570414289832e-05,0.0
1659373979789347887,-0.00040731579065322876,-3.055570414289832e-05,0.0
1659373979834634542,-0.00040731579065322876,-3.055570414289832e-05,0.0
1659373979880419015,-0.0004211141786072403,-9.336961738881655e-06,0.0
1659373979926447868,-0.0003634186869021505,-9.253145253751427e-05,0.0
1659373979970141649,-0.0003634186869021505,-9.253145253751427e-05,0.0
1659373980016520261,-0.00037928431993350387,-7.281059515662491e-05,0.0
1659373980063503265,-0.0003958888119086623,-5.370766302803531e-05,0.0
1659373980106629133,-0.00041325180791318417,-3.529144305502996e-05,0.0
1659373980150805711,-0.00041325180791318417,-3.529144305502996e-05,0.0
1659373980194466829,-0.00045112817315384746,-1.7071436104743043e-06,0.0
1659373980238285779,-0.0004708348133135587,1.4176144759403542e-05,0.0
1659373980282750606,-0.00043023403850384057,-1.6057969332905486e-05,0.0
1659373980326806068,-0.00040936472942121327,-3.037939859495964e-05,0.0
1659373980370584249,-0.00040936472942121327,-3.037939859495964e-05,0.0
1659373980414402723,-0.0004534343315754086,-5.471694294101326e-06,0.0
1659373980458587408,-0.00043083325726911426,-1.686566974967718e-05,0.0
1659373980504642724,-0.0005232241819612682,2.453496927046217e-05,0.0
1659373980550980329,-0.00040584205999039114,-2.27641940000467e-05,0.0
1659373980594292163,-0.0004773254622705281,2.8444310373743065e-06,0.0
1659373980638553142,-0.0005256717558950186,1.784980486263521e-05,0.0
1659373980682505130,-0.0005746145034208894,3.077768997172825e-05,0.0
1659373980726595163,-0.000549912394490093,2.526087519072462e-05,0.0
1659373980770570516,-0.0005001154495403171,1.616197005205322e-05,0.0
1659373980814736127,-0.0004750224179588258,1.2849737686337903e-05,0.0
1659373980859796047,-0.00042456650407984853,8.760182026890106e-06,0.0
1659373980902524471,-0.0003233952447772026,4.955872555001406e-06,0.0
1659373980947878360,-0.0002980851277243346,5.124789822730236e-06,0.0
1659373980989780187,-0.0001717036939226091,1.1720604561560322e-05,0.0
1659373981038107633,-9.612133726477623e-05,1.899968810903374e-05,0.0
1659373981082719564,2.926377419498749e-05,3.615617242758162e-05,0.0
1659373981126698255,5.4181553423404694e-05,4.05986029363703e-05,0.0
1659373981172735929,0.00012834132940042764,5.6908276746980846e-05,0.0
1659373981218128919,0.00012834132940042764,5.6908276746980846e-05,0.0
1659373981262551069,5.574852184508927e-05,3.4638076613191515e-05,0.0
1659373981306800842,-1.5920131772872992e-05,9.552586561767384e-06,0.0
1659373981351600408,-1.5920131772872992e-05,9.552586561767384e-06,0.0
1659373981394908666,-8.538526890333742e-05,-2.1111276510055177e-05,0.0
1659373981437994241,-0.00010808945080498233,-3.2298368751071393e-05,0.0
1659373981484528303,-0.00013029220281168818,-4.445027298061177e-05,0.0
1659373981535584926,-0.0002170824445784092,-9.658037743065506e-05,0.0
1659373981582291603,-0.0001959393557626754,-8.266634540632367e-05,0.0
1659373981582672119,-0.0002780640497803688,-0.00014187468332238495,0.0
1659373981629294633,-0.0002979800628963858,-0.0001574946363689378,0.0
1659373981659879446,-0.0002979800628963858,-0.0001574946363689378,0.0
1659373981734888553,-0.000260781729593873,-0.0001231608766829595,0.0
1659373981778105258,-0.000260781729593873,-0.0001231608766829595,0.0
1659373981831785202,-0.00022700124827679247,-8.545938180759549e-05,0.0
1659373981874761104,-0.00024308696447405964,-0.00010500114876776934,0.0
1659373981945541858,-0.00019733546650968492,-4.440017437445931e-05,0.0
1659373981994853734,-0.00025384771288372576,-0.00012840289855375886,0.0
1659373982040326595,-0.00022793482639826834,-8.491674088872969e-05,0.0
1659373982040584802,-0.00026412642910145223,-0.00015166884986683726,0.0
1659373982094969034,-0.00026412642910145223,-0.00015166884986683726,0.0
1659373982121263027,-0.0002949315239675343,-0.00022107147378847003,0.0
1659373982173408985,-0.0002856409118976444,-0.0001975275663426146,0.0
1659373982218199491,-0.0003022488090209663,-0.0002453470369800925,0.0
1659373982262834548,-0.0002728886320255697,-0.00014845497207716107,0.0
1659373982306835174,-0.0002790690923575312,-0.00017299948376603425,0.0
1659373982364684343,-0.00027407988090999424,-0.00014818539784755558,0.0
1659373982416423320,-0.0002780135255306959,-0.0001731885422486812,0.0
1659373982464585542,-0.00027508390485309064,-0.00014804796956013888,0.0
1659373982510675430,-0.0002770333376247436,-0.00017328346439171582,0.0
1659373982555011272,-0.0002743327640928328,-9.739944653119892e-05,0.0
1659373982605612277,-0.0002740318013820797,-0.00014801992801949382,0.0
1659373982656709909,-0.0002740318013820797,-0.00014801992801949382,0.0
1659373982657002449,-0.00027191537083126605,-0.00017324197688139975,0.0
1659373982710407495,-0.00028083042707294226,-9.783507994143292e-05,0.0
1659373982759385108,-0.0002637815196067095,-0.0001976320199901238,0.0
1659373982814180135,-0.00025812056264840066,-0.00022230151807889342,0.0
1659373982863139629,-0.00021796939836349338,-0.0003687617427203804,0.0
1659373982906289339,-0.00022565125254914165,-0.0003446449409238994,0.0
1659373982955437898,-0.00021692240261472762,-0.000368402834283188,0.0
1659373983003102779,-0.00021692240261472762,-0.000368402834283188,0.0
1659373983046633005,-0.00021692240261472762,-0.000368402834283188,0.0
1659373983090392351,-0.00020529133325908333,-0.00039088280755095184,0.0
1659373983134511709,-0.00019276716921012849,-0.0004128777072764933,0.0
1659373983185811519,-0.00020616193069145083,-0.0003914018743671477,0.0
1659373983186151742,-0.00020616193069145083,-0.0003914018743671477,0.0
1659373983232617139,-0.00020616193069145083,-0.0003914018743671477,0.0
1659373983260912179,-0.00020616193069145083,-0.0003914018743671477,0.0
1659373983326983690,-0.00020616193069145083,-0.0003914018743671477,0.0
1659373983375506639,-0.00024146243231371045,-0.000355119671439752,0.0
1659373983425809860,-0.0002783705713227391,-0.00032047415152192116,0.0
1659373983470843791,-0.0004120505473110825,-0.00020419615611899644,0.0
1659373983514490365,-0.0004120505473110825,-0.00020419615611899644,0.0
1659373983562761545,-0.0004932822193950415,-0.0001437684550182894,0.0
1659373983607799530,-0.0004932822193950415,-0.0001437684550182894,0.0
1659373983649920225,-0.0005574607639573514,-0.0001031877618515864,0.0
1659373983694724798,-0.0005574607639573514,-0.0001031877618515864,0.0
1659373983737997293,-0.0005798432976007462,-9.137022425420582e-05,0.0
1659373983782384634,-0.000534152495674789,-0.00011316178279230371,0.0
1659373983830566406,-0.0006041998276486993,-8.385218097828329e-05,0.0
1659373983878135442,-0.0006041998276486993,-8.385218097828329e-05,0.0
1659373983927807807,-0.0005318220937624574,-0.00010681171261239797,0.0
1659373983974308967,-0.0005074160289950669,-0.00011351795546943322,0.0
1659373984017881631,-0.0004333089746069163,-0.00013006549852434546,0.0
1659373984063948869,-0.00040836885455064476,-0.00013438081077765673,0.0
1659373984112748384,-0.00035816343734040856,-0.0001408568350598216,0.0
1659373984159075736,-0.0004086071567144245,-0.00013661939010489732,0.0
1659373984206639528,-0.00035802676575258374,-0.0001386557996738702,0.0
1659373984250968217,-0.00035802676575258374,-0.0001386557996738702,0.0
1659373984251145362,-0.0004338774597272277,-0.00014217021816875786,0.0
1659373984296852827,-0.0004590865573845804,-0.0001444356021238491,0.0
1659373984332735061,-0.0004590865573845804,-0.0001444356021238491,0.0
1659373984388514518,-0.0004590865573845804,-0.0001444356021238491,0.0
1659373984438894748,-0.000409592961659655,-0.0001338098372798413,0.0
1659373984483328819,-0.000409592961659655,-0.0001338098372798413,0.0
1659373984531777381,-0.00028878203011117876,-9.61204495979473e-05,0.0
1659373984574526309,-0.00031254449277184904,-0.0001048368721967563,0.0
1659373984624274015,-0.00024242198560386896,-7.570766319986433e-05,0.0
1659373984670136690,-0.00024242198560386896,-7.570766319986433e-05,0.0
1659373984719542741,-0.00024242198560386896,-7.570766319986433e-05,0.0
1659373984763103485,-0.00022043203352950513,-6.317479710560292e-05,0.0
1659373984806585550,-0.00024187224335037172,-7.662650023121387e-05,0.0
1659373984851425647,-0.0003044240002054721,-0.00011967247701250017,0.0
1659373984894351005,-0.00026388472178950906,-8.935596270021051e-05,0.0
1659373984938876152,-0.0003031826636288315,-0.00012126514047849923,0.0
1659373984986564159,-0.00036009616451337934,-0.00017152976943179965,0.0
1659373985036679267,-0.0003236024349462241,-0.00013644799764733762,0.0
1659373985036791563,-0.000410949025535956,-0.0002280249900650233,0.0
1659373985082803487,-0.000410949025535956,-0.0002280249900650233,0.0
1659373985130372762,-0.0004742343444377184,-0.00030705067911185324,0.0
1659373985182631254,-0.00044441487989388406,-0.0002661444013938308,0.0
1659373985227510452,-0.0004019344924017787,-0.00020320716430433095,0.0
1659373985270569801,-0.00038857199251651764,-0.00018171124975197017,0.0
1659373985315812110,-0.0003388921613804996,-9.349556785309687e-05,0.0
1659373985359001636,-0.00030456591048277915,-2.576531915110536e-05,0.0
1659373985409416675,-0.0002835369377862662,2.0281459001125768e-05,0.0
1659373985454484462,-0.0002450599567964673,0.00011392768647056073,0.0
1659373985504223823,-0.0002537687832955271,9.01624298421666e-05,0.0
1659373985555325269,-0.0002537687832955271,9.01624298421666e-05,0.0
1659373985555472373,-0.0002537687832955271,9.01624298421666e-05,0.0
1659373985603522062,-0.00024254588061012328,0.00013952405424788594,0.0
1659373985660878896,-0.00026046932907775044,3.98804695578292e-05,0.0
1659373985717013835,-0.00026046932907775044,3.98804695578292e-05,0.0
1659373985762440681,-0.0002580496948212385,6.507523357868195e-05,0.0
1659373985810545682,-0.0002580496948212385,6.507523357868195e-05,0.0
1659373985854641675,-0.00025838337023742497,3.9766746340319514e-05,0.0
1659373985903277873,-0.0002558158594183624,-3.61218917532824e-05,0.0
1659373985950674772,-0.0002502239658497274,-0.00011184776667505503,0.0
1659373985994480371,-0.00024450133787468076,-0.00016214462812058628,0.0
1659373986038436174,-0.00024045574537012726,-0.00018712990276981145,0.0
1659373986082885026,-0.00024045574537012726,-0.00018712990276981145,0.0
1659373986126552104,-0.0002215804415754974,-0.00026067852741107345,0.0
1659373986170534372,-0.00022886139049660414,-0.00023643768508918583,0.0
1659373986214490890,-0.00021211190323811024,-0.00028420775197446346,0.0
1659373986258453130,-0.00019311922369524837,-0.00033113110112026334,0.0
1659373986302654743,-0.00017219310393556952,-0.00037722470005974174,0.0
1659373986347738742,-0.00017219310393556952,-0.00037722470005974174,0.0
1659373986390719652,-0.0001844655635068193,-0.00035508835571818054,0.0
1659373986440933227,-0.00019761649309657514,-0.00033346234704367816,0.0
1659373986441081762,-0.0001835653092712164,-0.0003545145445968956,0.0
1659373986488379240,-0.0002133618254447356,-0.00031359156128019094,0.0
1659373986537317514,-0.0001662733848206699,-0.0003731596516445279,0.0
1659373986592046260,-0.00019909461843781173,-0.0003346201847307384,0.0
1659373986642427921,-0.0001821193436626345,-0.0003533943963702768,0.0
1659373986686321973,-0.0001996300125028938,-0.00033511852961964905,0.0
1659373986730884552,-0.0001996300125028938,-0.00033511852961964905,0.0
1659373986776751279,-0.00018110446399077773,-0.0003523648192640394,0.0
1659373986822725772,-0.00014298464520834386,-0.00038567252340726554,0.0
1659373986866598606,-0.00014298464520834386,-0.00038567252340726554,0.0
1659373986914534330,-0.00014298464520834386,-0.00038567252340726554,0.0
1659373986958514451,-0.00020407237752806395,-0.00034057299490086734,0.0
1659373987003208637,-0.00016258066170848906,-0.0003695723135024309,0.0
1659373987052620172,-0.00020479955128394067,-0.0003416422405280173,0.0
1659373987052745103,-0.0002690745168365538,-0.0003012144297827035,0.0
1659373987101156234,-0.0002690745168365538,-0.0003012144297827035,0.0
1659373987146708726,-0.00029084019479341805,-0.00028829602524638176,0.0
1659373987202223062,-0.00029084019479341805,-0.00028829602524638176,0.0
1659373987250502824,-0.00029084019479341805,-0.00028829602524638176,0.0
1659373987294829845,-0.00029084019479341805,-0.00028829602524638176,0.0
1659373987342780828,-0.00029084019479341805,-0.00028829602524638176,0.0
1659373987389124870,-0.00029084019479341805,-0.00028829602524638176,0.0
1659373987437963247,-0.00029084019479341805,-0.00028829602524638176,0.0
1659373987482392787,-0.00029084019479341805,-0.00028829602524638176,0.0
1659373987526118040,-0.00029084019479341805,-0.00028829602524638176,0.0
1659373987570428133,-0.00029084019479341805,-0.00028829602524638176,0.0
1659373987615732908,-0.00029084019479341805,-0.00028829602524638176,0.0
1659373987658938407,-0.0003126866358797997,-0.0002755146415438503,0.0
1659373987702282428,-0.0002908400783780962,-0.00028829582151956856,0.0
1659373987750469923,-0.0002908400783780962,-0.00028829582151956856,0.0
1659373987800545215,-0.00031268730526790023,-0.00027551580569706857,0.0
1659373987851169824,-0.00031268730526790023,-0.00027551580569706857,0.0
1659373987894107580,-0.0002908406313508749,-0.0002882968110498041,0.0
1659373987945364475,-0.0003126873343717307,-0.00027551583480089903,0.0
1659373987945444822,-0.00029084080597385764,-0.0002882970729842782,0.0
1659373987993031740,-0.00031268730526790023,-0.0002755157765932381,0.0
1659373988027048587,-0.00031268730526790023,-0.0002755157765932381,0.0
1659373988078410863,-0.0002908406313508749,-0.0002882967528421432,0.0
1659373988123538255,-0.0002908406313508749,-0.0002882967528421432,0.0
1659373988176530599,-0.0003126874507870525,-0.0002755160385277122,0.0
1659373988227119922,-0.0003126874507870525,-0.0002755160385277122,0.0
1659373988274332046,-0.00029084100970067084,-0.0002882974222302437,0.0
1659373988319111108,-0.00029084100970067084,-0.0002882974222302437,0.0
1659373988362539291,-0.00029084100970067084,-0.0002882974222302437,0.0
1659373988406563997,-0.00029084100970067084,-0.0002882974222302437,0.0
1659373988454657793,-0.00029084100970067084,-0.0002882974222302437,0.0
1659373988498642444,-0.00029084100970067084,-0.0002882974222302437,0.0
1659373988547817707,-0.00031268829479813576,-0.0002755174646154046,0.0
1659373988589867115,-0.00029084147536195815,-0.000288298208033666,0.0
1659373988634119749,-0.0003126880619674921,-0.00027551708626560867,0.0
1659373988678977727,-0.0003126880619674921,-0.00027551708626560867,0.0
1659373988722008466,-0.0003126880619674921,-0.00027551708626560867,0.0
1659373988770291090,-0.0003126880619674921,-0.00027551708626560867,0.0
1659373988819277048,-0.00029084173729643226,-0.0002882986736949533,0.0
1659373988819411993,-0.0003126888768747449,-0.00027551845414564013,0.0
1659373988871848106,-0.0003126888768747449,-0.00027551845414564013,0.0
1659373988893428802,-0.0002908423193730414,-0.00028829966322518885,0.0
1659373988958285570,-0.0002908423193730414,-0.00028829966322518885,0.0
1659373989003836870,-0.00031268910970538855,-0.00027551886159926653,0.0
1659373989047689676,-0.0002908421156462282,-0.00028829931397922337,0.0
1659373989095609664,-0.0002908421156462282,-0.00028829931397922337,0.0
1659373989142178773,-0.00031268823659047484,-0.00027551737730391324,0.0
1659373989186495065,-0.0002908410388045013,-0.0002882974804379046,0.0
1659373989232077836,-0.0002908410388045013,-0.0002882974804379046,0.0
1659373989278556108,-0.0002908410388045013,-0.0002882974804379046,0.0
1659373989335384607,-0.0003126873925793916,-0.0002755159221123904,0.0
1659373989378529071,-0.00029084060224704444,-0.00028829669463448226,0.0
1659373989424465417,-0.00029084060224704444,-0.00028829669463448226,0.0
1659373989424907684,-0.00029084060224704444,-0.00028829669463448226,0.0
1659373989470590829,-0.00031268701422959566,-0.0002755152527242899,0.0
1659373989493013143,-0.00031268701422959566,-0.0002755152527242899,0.0
1659373989549877166,-0.0002908403694164008,-0.00028829628718085587,0.0
1659373989598256587,-0.0002908403694164008,-0.00028829628718085587,0.0
1659373989646862745,-0.0002908403694164008,-0.00028829628718085587,0.0
1659373989690587043,-0.0002908403694164008,-0.00028829628718085587,0.0
1659373989735457420,-0.0003126878582406789,-0.00027551670791581273,0.0
1659373989778145790,-0.00029084034031257033,-0.0002882962580770254,0.0
1659373989825032472,-0.0003126879455521703,-0.000275516853434965,0.0
1659373989876620769,-0.000290840893285349,-0.00028829716029576957,0.0
1659373989922837257,-0.000290840893285349,-0.00028829716029576957,0.0
1659373989966779232,-0.000290840893285349,-0.00028829716029576957,0.0
1659373990010508537,-0.000290840893285349,-0.00028829716029576957,0.0
1659373990010599374,-0.000290840893285349,-0.00028829716029576957,0.0
1659373990063549041,-0.0003126880619674921,-0.00027551702805794775,0.0
1659373990110667228,-0.0002908410388045013,-0.0002882973931264132,0.0
1659373990159044981,-0.00031268747989088297,-0.00027551600942388177,0.0
1659373990206895351,-0.00031268747989088297,-0.00027551600942388177,0.0
1659373990206995725,-0.00031268747989088297,-0.00027551600942388177,0.0
1659373990262823820,-0.00029083958361297846,-0.00028829489019699395,0.0
1659373990297291040,-0.00031268622842617333,-0.0002755138266365975,0.0
1659373990353380203,-0.00031268622842617333,-0.0002755138266365975,0.0
1659373990402419090,-0.00031268622842617333,-0.0002755138266365975,0.0
1659373990446552753,-0.00031268622842617333,-0.0002755138266365975,0.0
1659373990492786407,-0.000290839234367013,-0.0002882942499127239,0.0
1659373990646069049,-0.000290839234367013,-0.0002882942499127239,0.0
1659373990646382093,-0.00031268614111468196,-0.0002755136520136148,0.0
1659373990681478738,-0.0002908394380938262,-0.0002882945991586894,0.0
1659373990681577444,-0.0002908394380938262,-0.0002882945991586894,0.0
1659373990686986684,-0.0002908394380938262,-0.0002882945991586894,0.0
1659373990734323740,-0.0002908394380938262,-0.0002882945991586894,0.0
1659373990763529300,-0.0003126868687104434,-0.00027551487437449396,0.0
1659373990817951440,-0.0003126868687104434,-0.00027551487437449396,0.0
1659373990862744331,-0.0003126868687104434,-0.00027551487437449396,0.0
1659373990918798446,-0.0002908397582359612,-0.0002882951230276376,0.0
1659373990966320037,-0.0002908397582359612,-0.0002882951230276376,0.0
1659373991014170646,-0.0002908397582359612,-0.0002882951230276376,0.0
1659373991058468580,-0.0002908397582359612,-0.0002882951230276376,0.0
1659373991108181715,-0.0002908397582359612,-0.0002882951230276376,0.0
1659373991161997556,-0.0002908397582359612,-0.0002882951230276376,0.0
1659373991162151098,-0.0002908397582359612,-0.0002882951230276376,0.0
1659373991210570812,-0.0003126868687104434,-0.00027551487437449396,0.0
1659373991228350400,-0.0003126868687104434,-0.00027551487437449396,0.0
1659373991284728765,-0.0003126868687104434,-0.00027551487437449396,0.0
1659373991330840349,-0.000290839234367013,-0.00028829422080889344,0.0
1659373991378377914,-0.0003126868687104434,-0.00027551487437449396,0.0
1659373991422164201,-0.0002908399619627744,-0.0002882954722736031,0.0
1659373991471252441,-0.00031268675229512155,-0.00027551467064768076,0.0
1659373991519176721,-0.0002908394963014871,-0.00028829468647018075,0.0
1659373991567221164,-0.0003126871306449175,-0.0002755153109319508,0.0
1659373991617388725,-0.0002908394380938262,-0.0002882945700548589,0.0
1659373991666943550,-0.0002908394380938262,-0.0002882945700548589,0.0
1659373991710262537,-0.0002908394380938262,-0.0002882945700548589,0.0
1659373991758552074,-0.0002908394380938262,-0.0002882945700548589,0.0
1659373991802602291,-0.0003126876545138657,-0.0002755162422545254,0.0
1659373991846292257,-0.00029084004927426577,-0.0002882956760004163,0.0
1659373991890250205,-0.0003126873925793916,-0.00027551583480089903,0.0
1659373991934607028,-0.0002908400201704353,-0.0002882956468965858,0.0
1659373991978472471,-0.0006842488655820489,-5.852643880643882e-05,0.0
1659373992028584957,-0.004363992251455784,0.002072354545816779,0.0
1659373992078752517,-0.008184744976460934,0.004262694623321295,0.0
1659373992078918218,-0.01403185073286295,0.007600333075970411,0.0
1659373992123146772,-0.019462864845991135,0.0106968367472291,0.0
1659373992156609535,-0.029925981536507607,0.01666967384517193,0.0
1659373992209942579,-0.0359271876513958,0.020094744861125946,0.0
1659373992261685609,-0.0476997047662735,0.02688782289624214,0.0
1659373992315981149,-0.05370446667075157,0.030407840386033058,0.0
1659373992363549947,-0.06402454525232315,0.036525875329971313,0.0
1659373992418250799,-0.07008203864097595,0.040155500173568726,0.0
1659373992462361335,-0.0783715695142746,0.04513215273618698,0.0
1659373992506341218,-0.08437469601631165,0.04875395447015762,0.0
1659373992562315702,-0.09280168265104294,0.053894564509391785,0.0
1659373992611608505,-0.09868274629116058,0.05752205848693848,0.0
1659373992658840417,-0.10955820977687836,0.0642378032207489,0.0
1659373992702138662,-0.11548592895269394,0.06788606941699982,0.0
1659373992754511117,-0.12363296002149582,0.0729503333568573,0.0
1659373992802167177,-0.12940798699855804,0.07660423964262009,0.0
1659373992850569963,-0.13831950724124908,0.08240010589361191,0.0
1659373992894606590,-0.1437048316001892,0.08600325882434845,0.0
1659373992894728183,-0.15140219032764435,0.09124800562858582,0.0
1659373992943114519,-0.15673469007015228,0.09492886811494827,0.0
1659373992970119953,-0.1644650399684906,0.10034847259521484,0.0
1659373993027849674,-0.16961507499217987,0.10402495414018631,0.0
1659373993074678182,-0.17704986035823822,0.10942304134368896,0.0
1659373993124376535,-0.18255102634429932,0.11347755789756775,0.0
1659373993167095661,-0.18981976807117462,0.11888783425092697,0.0
