%time,field.x,field.y,field.z
20338000000,-2.00002123707329,-0.4999883209998874,-0.0010013929469223116
20371000000,-2.0000212402917477,-0.49998830206197514,-0.0010013929469509311
20405000000,-2.0000212436077485,-0.49998828255014277,-0.0010013929469804214
20439000000,-2.000021246826234,-0.4999882636121452,-0.001001392947009034
20471000000,-2.0000212500447336,-0.49998824467410574,-0.0010013929470376742
20505000000,-2.0000212533607775,-0.49998822516214236,-0.001001392947067161
20538000000,-2.0000212565793043,-0.49998820622401763,-0.001001392947095784
20571000000,-2.000021259797845,-0.499988187285851,-0.001001392947124407
20604000000,-2.0000212631139305,-0.49998816777375676,-0.0010013929471538972
20638000000,-2.0000212663324977,-0.49998814883550496,-0.0010013929471825167
20671000000,-2.0000212695510786,-0.49998812989721125,-0.0010013929472111466
20705000000,-2.0000212728672055,-0.499988110384986,-0.0010013929472406369
20739000000,-2.000021276085813,-0.4999880914466069,-0.0010013929472692702
20771000000,-2.0000212793044345,-0.49998807250818594,-0.0010013929472979
20806000000,-2.000021282620605,-0.49998805299582966,-0.0010013929473273904
20838000000,-2.0000212858392548,-0.49998803405732367,-0.0010013929473560203
20871000000,-2.000021289057918,-0.4999880151187757,-0.0010013929473846397
20905000000,-2.00002129237413,-0.4999879956062884,-0.00100139294741413
20938000000,-2.0000212955928207,-0.4999879766676554,-0.0010013929474427634
20971000000,-2.0000212988115242,-0.4999879577289803,-0.0010013929474713967
21007000000,-2.0000213021277786,-0.49998793821636206,-0.0010013929475008766
21043000000,-2.0000213053465097,-0.49998791927760194,-0.00100139294752951
21072000000,-2.000021308565254,-0.49998790033879975,-0.0010013929475581572
21111000000,-2.00002131188155,-0.49998788082605033,-0.0010013929475876475
21142000000,-2.0000213151003217,-0.499987861887163,-0.001001392947616267
21174000000,-2.0000213183191082,-0.4999878429482336,-0.0010013929476449003
21216000000,-2.000021321635447,-0.49998782343535353,-0.0010013929476743975
21239000000,-2.000021324854261,-0.499987804496339,-0.0010013929477030378
21274000000,-2.000021328073088,-0.49998778555728257,-0.0010013929477316746
21305000000,-2.000021331389469,-0.4999877660442714,-0.001001392947761158
21338000000,-2.0000213346083227,-0.4999877471051298,-0.0010013929477897913
21378000000,-2.00002133782719,-0.49998772816594617,-0.0010013929478184143
21411000000,-2.000021341143613,-0.49998770865280406,-0.0010013929478479254
21454000000,-2.0000213443625077,-0.49998768971353513,-0.0010013929478765587
21488000000,-2.0000213475814155,-0.49998767077422457,-0.001001392947905192
21514000000,-2.0000213508978804,-0.4999876512609513,-0.0010013929479346893
21546000000,-2.0000213541168175,-0.49998763232155546,-0.0010013929479633227
21578000000,-2.0000213573357675,-0.49998761338211767,-0.0010013929479919421
21614000000,-2.0000213606522754,-0.49998759386871344,-0.0010013929480214637
21652000000,-2.0000213638712525,-0.49998757492919055,-0.0010013929480500831
21680000000,-2.000021367090243,-0.49998755598962547,-0.0010013929480787165
21706000000,-2.000021370406792,-0.4999875364760905,-0.0010013929481082241
21739000000,-2.00002137362581,-0.4999875175364404,-0.0010013929481368332
21779000000,-2.000021376844841,-0.49998749859674807,-0.0010013929481655116
21805000000,-2.0000213801614324,-0.499987479083082,-0.0010013929481950123
21846000000,-2.0000213833804903,-0.4999874601433048,-0.0010013929482236353
21887000000,-2.000021386599563,-0.49998744120348554,-0.001001392948252279
21907000000,-2.0000213899161974,-0.4999874216896886,-0.0010013929482817555
21943000000,-2.000021393135298,-0.49998740274978404,-0.0010013929483104027
21983000000,-2.0000213963544113,-0.4999873838098377,-0.0010013929483390256
22023000000,-2.0000213996710876,-0.49998736429590973,-0.0010013929483685333
22062000000,-2.0000214028902286,-0.49998734535587797,-0.0010013929483971805
22091000000,-2.000021406109383,-0.49998732641580446,-0.0010013929484258104
22120000000,-2.000021409426101,-0.49998730690174537,-0.0010013929484553319
22150000000,-2.000021412645282,-0.4999872879615867,-0.0010013929484839548
22184000000,-2.000021415864477,-0.49998726902138596,-0.001001392948512602
22217000000,-2.000021419181237,-0.4999872495071959,-0.0010013929485421132
22248000000,-2.00002142240046,-0.49998723056691,-0.0010013929485707534
22272000000,-2.000021425619697,-0.4999872116265824,-0.0010013929485993833
22308000000,-2.0000214289365,-0.49998719211226145,-0.001001392948628884
22338000000,-2.0000214321557643,-0.4999871731718484,-0.0010013929486575243
22371000000,-2.0000214353750416,-0.4999871542313934,-0.0010013929486861715
22405000000,-2.0000214386918866,-0.49998713471694134,-0.0010013929487156792
22438000000,-2.000021441911191,-0.4999871157764012,-0.0010013929487443195
22471000000,-2.0000214451305087,-0.49998709683581916,-0.0010013929487729459
22505000000,-2.0000214484473955,-0.49998707732123615,-0.0010013929488024605
22538000000,-2.0000214516667407,-0.4999870583805688,-0.0010013929488311112
22574000000,-2.0000214548860993,-0.4999870394398596,-0.001001392948859734
22605000000,-2.000021458203029,-0.4999870199251455,-0.0010013929488892626
22645000000,-2.000021461422416,-0.499987000984351,-0.0010013929489178994
22679000000,-2.0000214646418164,-0.4999869820435146,-0.0010013929489465431
22704000000,-2.0000214679587884,-0.49998696252866964,-0.0010013929489760438
22738000000,-2.000021471178216,-0.49998694358774803,-0.0010013929490046876
22771000000,-2.0000214743976565,-0.4999869246467845,-0.0010013929490333313
22805000000,-2.0000214777146703,-0.49998690513180855,-0.001001392949062839
22838000000,-2.000021480934138,-0.49998688619076,-0.0010013929490914862
22872000000,-2.0000214841536197,-0.4999868672496694,-0.0010013929491201334
22909000000,-2.000021487470675,-0.49998684773456237,-0.001001392949149648
22945000000,-2.0000214906901843,-0.4999868287933865,-0.0010013929491782814
22983000000,-2.000021493909708,-0.4999868098521686,-0.001001392949206932
23006000000,-2.000021497226807,-0.4999867903369306,-0.0010013929492364501
23038000000,-2.0000215004463575,-0.4999867713956277,-0.0010013929492650973
23075000000,-2.0000215036659217,-0.49998675245428265,-0.0010013929492937307
23109000000,-2.000021506983062,-0.49998673293891366,-0.0010013929493232314
23148000000,-2.0000215102026533,-0.49998671399748346,-0.001001392949351882
23178000000,-2.000021513422258,-0.49998669505601145,-0.0010013929493805362
23205000000,-2.00002151673944,-0.49998667554051157,-0.001001392949410044
23236000000,-2.0000215199590716,-0.4999866565989543,-0.001001392949438705
23271000000,-2.0000215231787166,-0.49998663765735524,-0.0010013929494673418
23305000000,-2.000021526495942,-0.49998661814172424,-0.001001392949496853
23338000000,-2.0000215297156156,-0.4999865992000398,-0.0010013929495255106
23370000000,-2.000021532935303,-0.4999865802583134,-0.0010013929495541612
23405000000,-2.00002153625257,-0.4999865607425514,-0.0010013929495836758
23438000000,-2.0000215394722844,-0.49998654180073976,-0.0010013929496123126
23474000000,-1.9995834368351326,-0.49998628807597517,-0.001001068537724241
23507000000,-1.9982380382260951,-0.4999860350922595,-0.0010011341415192034
23538000000,-1.9960631742620336,-0.4999856955336164,-0.0010012252305753623
23571000000,-1.9930388473142053,-0.4999853295754597,-0.0010013549150141299
23606000000,-1.989059178340651,-0.4999850391941388,-0.0010015309620639463
23638000000,-1.984412289078545,-0.49998500665773166,-0.001001735873560481
23681000000,-1.9790890137570776,-0.49998539680399096,-0.0010019733115499384
23705000000,-1.9730500639200537,-0.4999854155885969,-0.0010021594867743108
23738000000,-1.966843259933648,-0.4999835379135138,-0.0010023235675456661
23774000000,-1.9605062120163366,-0.4999781755850826,-0.001001241575138371
23805000000,-1.9539293486360028,-0.49996927990967327,-0.0010006581559755812
23843000000,-1.9473882226859307,-0.49997036286118707,-0.001000973094554023
23880000000,-1.9405716997465612,-0.4999921047114932,-0.0010009472666843364
23907000000,-1.933814851583714,-0.5000501281300325,-0.0010024102089579157
23941000000,-1.9275654601493706,-0.5001402773023578,-0.0010013228187659463
23974000000,-1.9211478721383037,-0.5002908761592036,-0.001001369304176384
24005000000,-1.9142103740466698,-0.5005058799585794,-0.001001283512283152
24044000000,-1.9069549036469353,-0.5008206606390836,-0.0010015627453583975
24076000000,-1.900053151205952,-0.5012327345693912,-0.001001545704239444
24114000000,-1.8938741104064014,-0.5017179501942255,-0.0010016751510184135
24138000000,-1.8879526855602093,-0.5023050378762474,-0.0010019016392128974
24171000000,-1.8818405222889796,-0.503051846383305,-0.0010020725838188124
24209000000,-1.8754793767111229,-0.5039917517359749,-0.001001302188724431
24239000000,-1.8693358144038272,-0.5050616258325851,-0.0010009741295399534
24272000000,-1.8631354379790688,-0.5063082251988925,-0.0010010023229984968
24305000000,-1.8565225741861522,-0.5078377468499831,-0.0010010972718489976
24338000000,-1.8497903646839626,-0.5096275596240097,-0.0010016973125518656
24369000000,-1.84277699136543,-0.5117694806679417,-0.0010014556741849423
24408000000,-1.8353497008067146,-0.5143804196031027,-0.0010017433698964184
24447000000,-1.8282560551437974,-0.5172238871318338,-0.0010019784510480953
24484000000,-1.8212906141143401,-0.5203668309555337,-0.0010022261259361835
24516000000,-1.8143986108236712,-0.5238166219369667,-0.0010015067275842213
24551000000,-1.8079045148951065,-0.5273160936004037,-0.0010015492488124125
24576000000,-1.8014552876772598,-0.5309117320417621,-0.001001047965736069
24608000000,-1.7949721888203611,-0.5347293565514414,-0.001002368043254976
24639000000,-1.789187812824489,-0.5385373851922833,-0.0010020328309936523
24671000000,-1.7838372730986343,-0.5426341151233955,-0.0010016873926270986
24705000000,-1.778643305101404,-0.5469568201620314,-0.001001671996083451
24738000000,-1.7735983991513091,-0.5513769053161592,-0.0010009900068091195
24771000000,-1.7684307011910645,-0.5561414377924461,-0.0010015267799873794
24805000000,-1.763246433618566,-0.5612013505343194,-0.0010015704394222488
24841000000,-1.7583556193610326,-0.5662544234733725,-0.0010016578910188728
24871000000,-1.753404671987416,-0.5716651635178932,-0.0010018086432807445
24905000000,-1.7483464143911707,-0.5774944897089502,-0.0010019097647505394
24938000000,-1.7435884078329444,-0.5832734330068327,-0.0010020610272809295
24978000000,-1.7391122857679633,-0.589014557836511,-0.0010021989052802528
25018000000,-1.7347499047612587,-0.5949491960471323,-0.001001815813353471
25052000000,-1.7307167002280666,-0.6007403053027118,-0.001001709571736037
25090000000,-1.7268269995991659,-0.6066311451404931,-0.001001653239901007
25117000000,-1.7228658665996395,-0.612966530283782,-0.0010016821390734579
25151000000,-1.7190597404099273,-0.6193596887167145,-0.0010016495561687884
25188000000,-1.7155729616701594,-0.625477693562537,-0.0010014640073224453
25222000000,-1.712454256395804,-0.6311442400983311,-0.0010012986357382583
25256000000,-1.7095646588594482,-0.6365274247220315,-0.001001221594225582
25286000000,-1.7067944791278085,-0.641858621776806,-0.0010018128402596825
25321000000,-1.704063576626574,-0.6472766897826123,-0.0010020549877616108
25345000000,-1.7015136353196543,-0.6525311217628517,-0.0010021927654753106
25371000000,-1.6991225844094937,-0.6576645978731401,-0.0010006903235449637
25405000000,-1.6967004781259678,-0.663040040912425,-0.0010016833558461717
25439000000,-1.6943155656220035,-0.6684660116808291,-0.0010005494191297794
25471000000,-1.6918874849040013,-0.6740687409770963,-0.0010008850366338418
25505000000,-1.6893424114607756,-0.6800185842545187,-0.001000860592355643
25538000000,-1.6867989449174754,-0.6860897126925959,-0.00100091062531232
25571000000,-1.6842853206448651,-0.692230432323887,-0.0010011812741126357
25611000000,-1.6816576691977323,-0.6987076141843405,-0.0010010815271012143
25639000000,-1.6789749593496792,-0.7054589575735004,-0.0010014206754655197
25671000000,-1.6764977131495422,-0.7118825566299681,-0.001001561231529547
25705000000,-1.674045793155485,-0.7184127717629284,-0.0010015663644341553
25738000000,-1.6716920003586724,-0.7248828986016478,-0.0010017223070521927
25771000000,-1.6693342958002138,-0.7315918832925888,-0.001002003908347683
25813000000,-1.6669128093133383,-0.7387944485058305,-0.0010021255749227825
25847000000,-1.6646647443158331,-0.7458358273506138,-0.0010022927323466747
25879000000,-1.6625189239967169,-0.7528692675578967,-0.0010019700701365403
25913000000,-1.6604524884623366,-0.7600233083892441,-0.0010007216499909148
25942000000,-1.6585152248922685,-0.7670343952667796,-0.0010013557752301776
25978000000,-1.6566275101973398,-0.7741120698412657,-0.0010015840060897743
26006000000,-1.6547403839163113,-0.7814221515289063,-0.001001509888248077
26041000000,-1.6529654460354066,-0.7885327107394293,-0.0010014580249901664
26070000000,-1.6512444755543556,-0.7956299197010187,-0.0010014344891270954
26104000000,-1.6495076501669088,-0.8029524530039227,-0.001001445595034279
26139000000,-1.6478571792285759,-0.8100692170828494,-0.0010015081647362645
26171000000,-1.646241193170261,-0.8171928236633933,-0.001001604048250837
26207000000,-1.6446108134120834,-0.82454121999272,-0.0010017462689772133
26238000000,-1.6430622564160884,-0.8316807687261742,-0.0010018778854585138
26272000000,-1.6416026404828703,-0.8385699204139485,-0.0010008279204735092
26306000000,-1.640189943205092,-0.8454471756938284,-0.0010010646483429898
26338000000,-1.6388553338043315,-0.8520612703705482,-0.0010011015708873347
26378000000,-1.6375293298851845,-0.8587335287592017,-0.001001264518902499
26420000000,-1.636166423090251,-0.8657135843463181,-0.001001185443848144
26452000000,-1.6348525913074279,-0.8725766003236046,-0.0010010985079874427
26473000000,-1.63352092824877,-0.8795992789267809,-0.0010012475641201606
26511000000,-1.6321243208271856,-0.8869334307608231,-0.0010014383365724716
26541000000,-1.630759726338209,-0.8940510845953742,-0.0010014061891772813
26580000000,-1.6294885768274847,-0.9006358781839447,-0.0010019142342992463
26607000000,-1.6281893676621595,-0.9073047239626074,-0.0010014658093352898
26640000000,-1.6268773931249134,-0.9139954346642639,-0.0010014955058737715
26675000000,-1.6254966029901043,-0.9209880534095198,-0.0010015659522711468
26704000000,-1.6240313710659766,-0.9282990927251707,-0.0010017167881942353
26741000000,-1.6225875215799828,-0.9353907732290506,-0.001001851594952325
26771000000,-1.6211194325710296,-0.94245965472974,-0.001001977427126953
26807000000,-1.6195693617796274,-0.9497194682021773,-0.0010022104065464006
26838000000,-1.6180333649654004,-0.956712570241867,-0.0010012195147223388
26871000000,-1.6164645677387373,-0.9636438913772621,-0.0010012162217555437
26905000000,-1.614782260473712,-0.9708349912300188,-0.0010016852124514926
26938000000,-1.6130902207930948,-0.9778172744455504,-0.001001510977391179
26974000000,-1.6113426805052484,-0.9847847367754412,-0.0010014254046344477
27005000000,-1.6094826478253146,-0.9919493786776844,-0.0010013780761158782
27038000000,-1.6076196380741785,-0.9988893406074192,-0.0010013553430555065
27074000000,-1.6058189156361902,-1.0053959370349141,-0.0010015867106502284
27107000000,-1.6039597043734835,-1.0119616783524121,-0.0010014230224760605
27138000000,-1.6020666288620815,-1.0184344231219362,-0.0010014645213388303
27175000000,-1.600126233239345,-1.0248640190353477,-0.001001563443602662
27205000000,-1.5980728667494466,-1.031471579304079,-0.0010017041016193058
27238000000,-1.5960273158943612,-1.0378684736334565,-0.001001848979632479
27272000000,-1.5939206894197084,-1.0443003867999172,-0.0010021876970877433
27305000000,-1.5917164694503219,-1.0509414817594553,-0.0010014704311137775
27341000000,-1.5895478530127467,-1.0573842475914705,-0.0010016479547630894
27371000000,-1.5873953951191182,-1.0636848691011513,-0.0010025404473861486
27406000000,-1.585194146342852,-1.07003128416625,-0.0010007090743716814
27443000000,-1.582946021564949,-1.076352312212753,-0.001001534380292251
27476000000,-1.580644114384418,-1.082634021848267,-0.0010014301226034111
27506000000,-1.5782055240870698,-1.0890812381440969,-0.0010013952167526527
27538000000,-1.575773611635985,-1.0953150393307185,-0.0010013709989635765
27573000000,-1.5734156458405932,-1.1011942036147218,-0.001001516717745097
27608000000,-1.5710055146274196,-1.1070834440019328,-0.0010013832201017994
27638000000,-1.5685852250178025,-1.1128445128945912,-0.0010014352559730051
27671000000,-1.5659888008765859,-1.1188734297764362,-0.00100144652130775
27706000000,-1.5631531696762346,-1.125336537772116,-0.00100173520168418
27747000000,-1.560279375120337,-1.131723648492587,-0.0010018240559890867
27779000000,-1.557371174445492,-1.1380008545925155,-0.0010019396368706676
27809000000,-1.5543802827668425,-1.144257670506382,-0.001001497033556998
27841000000,-1.5514190181322722,-1.150264500340246,-0.001001781026452899
27874000000,-1.5485080003379132,-1.1560062314636927,-0.0010021276714236686
27905000000,-1.5455452019794822,-1.161708720238584,-0.001001938025018398
27938000000,-1.5426265142943065,-1.167169577945565,-0.001001008131308885
27971000000,-1.539809598924929,-1.1723099020646515,-0.0010023705117150616
28005000000,-1.5372202685583936,-1.1769716541133215,-0.001002285404464183
28041000000,-1.5349596483415446,-1.181030581096383,-0.0010021247378914216
28077000000,-1.5328261267355203,-1.1848367727020694,-0.0010014948365960064
28105000000,-1.5307929002329592,-1.1884386262186721,-0.0010011645293201352
28140000000,-1.528890021419347,-1.1917710718151848,-0.0010014864875318129
28178000000,-1.5268025778295926,-1.1953785519557252,-0.0010010347590096516
28209000000,-1.524281589219513,-1.1996722856461826,-0.0010011659905355859
28238000000,-1.52155002187485,-1.2042575981717414,-0.0010015971578646692
28271000000,-1.5188132705249735,-1.2087568126322423,-0.0010015077999673341
28308000000,-1.5159392049684197,-1.2133521266325316,-0.0010017204557255764
28346000000,-1.5130900930315476,-1.2177808480308612,-0.0010010470951548507
28375000000,-1.5100672809354654,-1.2223618516268417,-0.001001048890162868
28410000000,-1.506787149806818,-1.227234967742103,-0.0010010934273019835
28438000000,-1.5034194357781703,-1.2321176466129362,-0.001001140412630136
28478000000,-1.5001629333640565,-1.23670266533418,-0.0010015658213609162
28509000000,-1.4972569673393625,-1.2406753972096727,-0.0010015431086612923
28538000000,-1.4945254105881547,-1.2443097953731066,-0.0010016234260229843
28571000000,-1.4915562646373544,-1.248154017216421,-0.0010016545538814904
28605000000,-1.4880627384378315,-1.2525258330682796,-0.0010017726710436735
28638000000,-1.484275822426437,-1.257063902730765,-0.0010018957618910564
28671000000,-1.4803555892398896,-1.261535406266799,-0.0010017935286878443
28704000000,-1.4761901023789157,-1.2660646908440694,-0.001000826443471544
28744000000,-1.4719636085943706,-1.2704268526223161,-0.0010010463068983594
28780000000,-1.4675813770876973,-1.2747307922470454,-0.0010008670757450065
28814000000,-1.4629510353384398,-1.2790879562214343,-0.001001961357976526
28838000000,-1.4584367393807505,-1.2831770360913104,-0.0010014286553178056
28873000000,-1.4536655027619874,-1.2873432605528634,-0.0010005272650888443
28904000000,-1.4482480766320331,-1.2919167597726653,-0.0010009833639888464
28938000000,-1.4427453282693852,-1.2964036918903206,-0.0010013060711826609
28971000000,-1.4374326682887344,-1.300586135610067,-0.0010013478693482458
29005000000,-1.4319595517337844,-1.304753764447795,-0.0010013429131500821
29038000000,-1.4265827504303465,-1.308714652775179,-0.0010013932548126186
29071000000,-1.4208274504830853,-1.3128175719461912,-0.0010015095429376404
29108000000,-1.414742195723383,-1.317018681166888,-0.0010015982104151326
29147000000,-1.4088188656720984,-1.3209640938976497,-0.0010017570689391589
29174000000,-1.4030002345054784,-1.3246997956142932,-0.0010012710475726348
29205000000,-1.397059382966867,-1.3283698500459122,-0.001002081685504818
29238000000,-1.3913100336666855,-1.3317945096830555,-0.0010017892057870466
29272000000,-1.385680336575246,-1.335036333277476,-0.0010006521827735926
29305000000,-1.3799887350627753,-1.3382152650378683,-0.0010021437930902086
29338000000,-1.374509366322059,-1.3411789547263717,-0.0010012286491540429
29374000000,-1.3692723803202935,-1.3439207993406603,-0.0010020640606522684
29405000000,-1.3640537263345451,-1.3465604880849675,-0.0010015328764989354
29447000000,-1.3589557195895483,-1.3490449142026266,-0.0010014908825762038
29481000000,-1.3538903535408768,-1.351427086503121,-0.0010014617272949104
29513000000,-1.3486466353060442,-1.353810539802703,-0.00100146038182505
29546000000,-1.3435266242781814,-1.3560581246860608,-0.0010014789848223626
29571000000,-1.3386871168524859,-1.3581079983314783,-0.0010015298705445992
29612000000,-1.3338400776246477,-1.3600845727355493,-0.0010015795250045006
29643000000,-1.3291275759805907,-1.3619395419139946,-0.0010016711203894128
29675000000,-1.324714716706648,-1.3636113199553819,-0.001001174914706672
29708000000,-1.3207351249825545,-1.3650312189841998,-0.0010017068917637442
29746000000,-1.3174195274611795,-1.3661157835211952,-0.0010018903853006682
29777000000,-1.314701765245009,-1.366908854540981,-0.0010017691392753894
29816000000,-1.3122126917566836,-1.3675367215759595,-0.0010018236528421404
29852000000,-1.3099931646267762,-1.3680169457815252,-0.001001824873401582
29881000000,-1.3079737856362996,-1.3683899694203496,-0.0010018284533389182
29908000000,-1.3061078537293016,-1.3686814131767,-0.00100183130720434
29941000000,-1.3045089106269765,-1.3688909814224226,-0.001001833276405597
29978000000,-1.3031215557898452,-1.3690430584955138,-0.0010018341986107286
30007000000,-1.3019153459793158,-1.369152970330286,-0.0010018330555755031
30048000000,-1.3009624212589834,-1.3692252213590168,-0.0010018262723220164
30084000000,-1.3002247882107183,-1.3692722683380203,-0.0010018416521879632
30121000000,-1.2996903981797776,-1.369301553554785,-0.0010018501808733288
30157000000,-1.2993909013903726,-1.3693162051127934,-0.0010018631410741684
30188000000,-1.2993063544412002,-1.36932015821547,-0.001001746760112547
30223000000,-1.2993077993770294,-1.3693201587131132,-0.0010016318303978713
30255000000,-1.2993077246202613,-1.3693201477661863,-0.0010016435015521435
30272000000,-1.2993076460660566,-1.369320140698715,-0.0010016418862396452
30305000000,-1.2993075775182479,-1.3693201360175322,-0.0010016428395024125
30335000000,-1.299307514401848,-1.3693201312918581,-0.001001643391156399
30371000000,-1.2993074535818625,-1.3693201264809975,-0.001001643865937877
30405000000,-1.2993073928189571,-1.3693201214549373,-0.0010016443427943444
30439000000,-1.2993073355754567,-1.3693201165126048,-0.0010016447877857076
30474000000,-1.2993072799319187,-1.369320111513044,-0.0010016452144284843
30505000000,-1.299307224171366,-1.3693201063150877,-0.001001645633744181
30537000000,-1.2993071714617512,-1.3693201012167011,-0.0010016460195567782
30571000000,-1.2993071200372566,-1.3693200960679044,-0.0010016463809203353
30605000000,-1.2993070682948265,-1.3693200907115992,-0.0010016467234193575
30644000000,-1.2993070191866374,-1.3693200854629983,-0.0010016470234938575
30672000000,-1.2993069711030578,-1.3693200801688716,-0.0010016472806103974
30709000000,-1.2993069226804863,-1.3693200746640763,-0.0010016477185417726
30750000000,-1.2993068762986473,-1.3693200685073887,-0.0010016479509560305
30778000000,-1.2993068305673963,-1.369320062354191,-0.0010016481847120035
30810000000,-1.2993067841374633,-1.3693200561285832,-0.0010016484206021824
30839000000,-1.2993067397076281,-1.369320050192811,-0.0010016486433268787
30873000000,-1.2993066958755892,-1.369320044360595,-0.0010016488595484263
30913000000,-1.299306651348652,-1.3693200384567654,-0.0010016490731108336
30954000000,-1.2993066087195124,-1.369320032829588,-0.0010016492719127947
30989000000,-1.2993065666394428,-1.3693200272990136,-0.00100164946185834
31027000000,-1.2993065238263526,-1.3693200216967691,-0.0010016496451259599
31043000000,-1.299306482771996,-1.3693200163479957,-0.0010016498225243857
31076000000,-1.2993064421957294,-1.3693200110737336,-0.0010016500037997693
31108000000,-1.2993064008411517,-1.3693200056657757,-0.0010016501795064685
31147000000,-1.2993063610907563,-1.3693200004103927,-0.0010016503401024876
31176000000,-1.2993063216830925,-1.3693199951510449,-0.00100165049105096
31217000000,-1.2993062814013094,-1.3693199897287016,-0.0010016506371519074
31261000000,-1.2993062425799125,-1.3693199844621646,-0.0010016507708957394
31298000000,-1.2993062039978163,-1.3693199791942134,-0.0010016508964693638
31325000000,-1.299306164465143,-1.3693199737658976,-0.001001651017787715
31358000000,-1.2993061262786751,-1.369319968496128,-0.0010016511290566535
31385000000,-1.299306088246671,-1.3693199632259658,-0.0010016512343561622
31418000000,-1.2993060491978183,-1.3693199577982675,-0.0010016513353849898
31458000000,-1.2993060114053196,-1.3693199525315862,-0.0010016514278170692
31492000000,-1.2993059736975872,-1.369319947266452,-0.00100165151549746
31521000000,-1.2993059349149005,-1.3693199418439426,-0.0010016516011880257
31556000000,-1.2993058973195175,-1.3693199365838156,-0.0010016516798884295
31590000000,-1.2993058597521352,-1.369319931328277,-0.0010016517527893683
31623000000,-1.2993058210580237,-1.3693199259172477,-0.0010016518242302666
31659000000,-1.299305783497828,-1.3693199206694016,-0.0010016518902616865
31698000000,-1.2993057459192972,-1.369319915425908,-0.0010016519532435597
31732000000,-1.2993057071689025,-1.369319910028445,-0.0010016520151507995
31767000000,-1.2993056695134184,-1.3693199047948452,-0.001001652072529089
31810000000,-1.2993056318019185,-1.3693198995674525,-0.0010016521261348027
31810000000,-1.2993055928769444,-1.3693198941881068,-0.0010016521782405113
31842000000,-1.2993055550178312,-1.3693198889730502,-0.0010016522267291342
31871000000,-1.2993055170714223,-1.3693198837642258,-0.0010016522733005753
31905000000,-1.2993054778745514,-1.3693198784043235,-0.0010016523194077004
31941000000,-1.2993054397245032,-1.3693198732088556,-0.0010016523624558384
31978000000,-1.2993054014622567,-1.3693198680202832,-0.0010016524039348981
32013000000,-1.2993053619156136,-1.3693198626818963,-0.0010016524451356978
32044000000,-1.2993053234039595,-1.3693198575079026,-0.0010016524837309464
32074000000,-1.2993052847597224,-1.369319852341351,-0.0010016525210419479
32103000000,-1.299305244799568,-1.3693198470261896,-0.0010016525582270848
32141000000,-1.2993052058683014,-1.3693198418756825,-0.001001652592336779
32174000000,-1.2993051667871556,-1.3693198367333546,-0.0010016526249785988
32206000000,-1.2993051263598878,-1.3693198314436321,-0.0010016526576727934
32239000000,-1.299305086959999,-1.369319826317799,-0.001001652688557026
32274000000,-1.2993050473966556,-1.3693198212002657,-0.0010016527186595472
32308000000,-1.2993050064593468,-1.3693198159364475,-0.0010016527489093603
32341000000,-1.2993049665524101,-1.3693198108360836,-0.0010016527775749719
32377000000,-1.2993049264709506,-1.369319805744322,-0.0010016528056005641
32420000000,-1.299304884988993,-1.3693198005073535,-0.0010016528338492071
32451000000,-1.2993048445435897,-1.369319795433321,-0.001001652860698355
32482000000,-1.2993048039145967,-1.369319790368142,-0.0010016528870235714
32520000000,-1.2993047618596405,-1.369319785158809,-0.0010016529136337889
32552000000,-1.299304720850032,-1.3693197801118255,-0.0010016529389958624
32582000000,-1.2993046796494039,-1.3693197750739043,-0.0010016529639290256
32617000000,-1.2993046369982189,-1.369319769892863,-0.0010016529891980139
32647000000,-1.2993045954033138,-1.3693197648735276,-0.0010016530133427244
32680000000,-1.2993045536113017,-1.3693197598634301,-0.0010016530371363096
32709000000,-1.2993045103448524,-1.3693197547112286,-0.0010016530613073185
32741000000,-1.2993044681473658,-1.3693197497200431,-0.0010016530844555067
32774000000,-1.299304425747783,-1.3693197447382426,-0.0010016531073162548
32805000000,-1.2993043818504675,-1.3693197396153407,-0.0010016531305885486
32838000000,-1.2993043390362322,-1.369319734652728,-0.001001653152921049
32871000000,-1.2993042960158094,-1.3693197296996245,-0.0010016531750182724
32906000000,-1.2993042514748352,-1.3693197246064122,-0.0010016531975549428
32939000000,-1.2993042080322328,-1.369319719672728,-0.0010016532192197933
32977000000,-1.2993041643800878,-1.369319714748659,-0.0010016532406921207
33009000000,-1.2993041191849635,-1.3693197096854655,-0.0010016532626267935
33038000000,-1.2993040751044669,-1.3693197047810126,-0.0010016532837452824
33071000000,-1.299304030811674,-1.3693196998862656,-0.001001653304706255
33104000000,-1.2993039849537922,-1.3693196948533715,-0.0010016533261482767
33138000000,-1.299303940227581,-1.3693196899784101,-0.0010016533468196996
33177000000,-1.2993038952868146,-1.3693196851132312,-0.0010016533673622603
33207000000,-1.299303848759111,-1.3693196801108785,-0.0010016533884011636
33251000000,-1.299303803380767,-1.369319675265631,-0.0010016534087068166
33289000000,-1.2993037577860118,-1.3693196704302326,-0.0010016534289070296
33325000000,-1.299303710582683,-1.3693196654586297,-0.0010016534496162383
33362000000,-1.2993036645469325,-1.36931966064329,-0.001001653469622693
33392000000,-1.2993036182932458,-1.3693196558378575,-0.0010016534895429113
33430000000,-1.2993035704095233,-1.3693196508971874,-0.0010016535099824433
33457000000,-1.2993035237120316,-1.3693196461119241,-0.0010016535297442362
33489000000,-1.299303476795349,-1.3693196413366202,-0.001001653549435478
33523000000,-1.2993034282273104,-1.3693196364270426,-0.0010016535696545058
33562000000,-1.2993033808645116,-1.3693196316720055,-0.0010016535892162885
33592000000,-1.299303333281488,-1.3693196269269732,-0.0010016536087204056
33632000000,-1.2993032840259033,-1.3693196220486303,-0.001001653628759206
33668000000,-1.2993032359948584,-1.3693196173239526,-0.0010016536481574564
33696000000,-1.2993031877427381,-1.3693196126093201,-0.0010016536675086507
33731000000,-1.2993031377969462,-1.3693196077623404,-0.0010016536874001593
33758000000,-1.2993030890952326,-1.369319603068142,-0.0010016537066649053
33790000000,-1.2993030401717403,-1.3693195983840256,-0.0010016537258911995
33816000000,-1.2993029895335422,-1.3693195935685243,-0.001001653745662471
33847000000,-1.2993029401591585,-1.3693195889049141,-0.0010016537648181896
33887000000,-1.2993028905624155,-1.3693195842514203,-0.0010016537839424716
33911000000,-1.2993028392299937,-1.3693195794675028,-0.0010016538036156306
33942000000,-1.2993027891812836,-1.3693195748345808,-0.0010016538226823475
33975000000,-1.2993027389097322,-1.3693195702118066,-0.0010016538417234565
34012000000,-1.299302686881578,-1.3693195654595713,-0.0010016538613165718
34045000000,-1.2993026361571676,-1.3693195608574285,-0.0010016538803107287
34073000000,-1.2993025852095152,-1.3693195562654634,-0.001001653899284069
34115000000,-1.2993025324843794,-1.3693195515450012,-0.00100165391881199
34152000000,-1.2993024810831255,-1.3693195469737258,-0.0010016539377470726
34187000000,-1.2993024294582967,-1.369319542412655,-0.0010016539566652244
34220000000,-1.2993023760351348,-1.369319537724052,-0.0010016539761400906
34251000000,-1.2993023239560844,-1.3693195331837251,-0.0010016539950271387
34282000000,-1.2993022716531797,-1.3693195286536284,-0.0010016540139003612
34321000000,-1.2993022175311184,-1.3693195239969649,-0.0010016540333320778
34349000000,-1.2993021647734726,-1.3693195194876642,-0.0010016540521801051
34390000000,-1.299302111791738,-1.3693195149886181,-0.001001654071016933
34427000000,-1.2993020569700453,-1.3693195103639715,-0.0010016540904136464
34455000000,-1.2993020035331337,-1.3693195058857706,-0.0010016541092299942
34492000000,-1.2993019498719338,-1.3693195014178488,-0.0010016541280373215
34529000000,-1.2993018943499905,-1.3693194968252946,-0.0010016541474057346
34568000000,-1.2993018402332441,-1.3693194923782654,-0.0010016541661965195
34599000000,-1.299301785892043,-1.3693194879415385,-0.0010016541849800081
34628000000,-1.2993017296693252,-1.369319483381148,-0.0010016542043255576
34647000000,-1.299301674872262,-1.3693194789653598,-0.0010016542230956646
34684000000,-1.2993016198505998,-1.3693194745598962,-0.0010016542418599048
34716000000,-1.2993015629266587,-1.3693194700317397,-0.0010016542611870592
34751000000,-1.299301507448864,-1.36931946564726,-0.0010016542799405823
34781000000,-1.2993014517463477,-1.369319461273127,-0.001001654298689432
34815000000,-1.2993013941207978,-1.3693194567772728,-0.0010016543180018586
34855000000,-1.2993013379619174,-1.3693194524241674,-0.0010016543367421284
34888000000,-1.2993012815782077,-1.3693194480814304,-0.001001654355478665
34914000000,-1.2993012232507153,-1.3693194436179466,-0.0010016543747793719
34951000000,-1.2993011664104377,-1.3693194392962804,-0.001001654393509105
34982000000,-1.2993011093452382,-1.3693194349850029,-0.0010016544122358854
35013000000,-1.2993010503155107,-1.3693194305539538,-0.001001654431527263
35049000000,-1.2993009927935646,-1.369319426263791,-0.001001654450248697
35083000000,-1.2993009350466136,-1.3693194219840379,-0.0010016544689678414
35118000000,-1.2993008753143942,-1.3693194175854901,-0.0010016544882519365
35158000000,-1.2993008171105396,-1.3693194133268929,-0.0010016545069668932
35191000000,-1.2993007586816065,-1.3693194090787266,-0.0010016545256800354
35225000000,-1.2993006982466642,-1.3693194047127442,-0.0010016545449585273
35259000000,-1.299300639360687,-1.3693194004857752,-0.0010016545636684672
35300000000,-1.299300580249565,-1.3693193962692574,-0.0010016545823770852
35333000000,-1.2993005191116938,-1.3693193919359037,-0.0010016546016513063
35366000000,-1.299300459543399,-1.3693193877406247,-0.0010016546203574887
35397000000,-1.2993003997499,-1.3693193835558164,-0.0010016546390626442
35428000000,-1.2993003379089125,-1.369319379255155,-0.001001654658333715
35465000000,-1.2993002776581248,-1.3693193750916268,-0.001001654677037115
35497000000,-1.2993002171820769,-1.36931937093859,-0.001001654695739821
35530000000,-1.2993001546378022,-1.369319366670684,-0.0010016547150086055
35565000000,-1.2993000937043577,-1.3693193625389686,-0.0010016547337100869
35605000000,-1.2993000325456023,-1.3693193584177645,-0.0010016547524110755
35606000000,-1.2992999692978793,-1.3693193541826758,-0.001001654771678337
35640000000,-1.2992999076816265,-1.3693193500828333,-0.0010016547903785172
35671000000,-1.299299845840015,-1.369319345993522,-0.0010016548090784304
35705000000,-1.299299781888693,-1.3693193417913136,-0.0010016548283447793
35738000000,-1.2992997195894898,-1.369319337723404,-0.001001654847044238
35772000000,-1.2992996570648827,-1.3693193336660459,-0.0010016548657435786
35805000000,-1.2992995924098234,-1.369319329496782,-0.0010016548850094904
35842000000,-1.2992995294275351,-1.369319325460867,-0.001001654903708727
35874000000,-1.299299466219801,-1.3693193214355228,-0.0010016549224079498
35905000000,-1.299299400860869,-1.369319317299262,-0.001001654941673813
35934000000,-1.299299337195368,-1.3693193132954002,-0.0010016549603731398
35971000000,-1.2992992733043796,-1.3693193093021294,-0.0010016549790725394
36007000000,-1.2992992072414467,-1.3693193051989347,-0.0010016549983387218
36040000000,-1.2992991428926097,-1.3693193012271871,-0.0010016550170384199
36079000000,-1.2992990783182452,-1.36931929726605,-0.0010016550357383296
36113000000,-1.299299011551187,-1.3693192931959832,-0.0010016550550051018
36147000000,-1.299298946518895,-1.3693192892564086,-0.0010016550737054347
36178000000,-1.2992988812610373,-1.369319285327465,-0.001001655092406059
36219000000,-1.299298813789733,-1.3693192812905877,-0.0010016551116736189
36260000000,-1.2992987480738702,-1.3693192773832474,-0.0010016551303748296
36293000000,-1.299298682132404,-1.3693192734865565,-0.0010016551490763907
36316000000,-1.2992986139567384,-1.3693192694829304,-0.0010016551683449566
36351000000,-1.2992985475571923,-1.3693192656078839,-0.0010016551870471561
36386000000,-1.2992984809320056,-1.3693192617435073,-0.00100165520574972
36411000000,-1.2992984120518616,-1.3693192577731952,-0.0010016552250194481
36450000000,-1.2992983449685214,-1.3693192539305012,-0.001001655243722796
36484000000,-1.2992982776595046,-1.3693192500984976,-0.0010016552624265776
36520000000,-1.2992982080747708,-1.3693192461615593,-0.0010016552816975617
36556000000,-1.2992981403075274,-1.369319242351279,-0.001001655300402169
36593000000,-1.299298072314572,-1.3693192385517075,-0.0010016553191072343
36615000000,-1.2992980020251368,-1.369319234648205,-0.001001655338379582
36653000000,-1.2992979335738826,-1.3693192308703974,-0.0010016553570855874
36685000000,-1.2992978648968814,-1.369319227103318,-0.0010016553757920266
36713000000,-1.2992977939026356,-1.3693192232333138,-0.0010016553950657897
36745000000,-1.2992977247672648,-1.3693192194880386,-0.001001655413773228
36772000000,-1.2992976554061129,-1.3693192157535123,-0.0010016554324811383
36810000000,-1.2992975837069465,-1.3693192119170676,-0.0010016554517562268
36847000000,-1.2992975138873397,-1.369319208204386,-0.001001655470460567
36878000000,-1.2992974438418985,-1.3693192045024736,-0.0010016554891651985
36909000000,-1.299297371437653,-1.3693192006996526,-0.0010016555084371957
36944000000,-1.2992973009336648,-1.369319197019625,-0.001001655527142896
36984000000,-1.2992972302038082,-1.3693191933503857,-0.0010016555458491165
37023000000,-1.2992971570943717,-1.3693191895812487,-0.001001655565122779
37060000000,-1.2992970859058979,-1.3693191859339344,-0.001001655583830096
37097000000,-1.299297014491523,-1.3693191822974284,-0.0010016556025379195
37134000000,-1.29929694067679,-1.3693191785620369,-0.0010016556218132577
37170000000,-1.2992968688037303,-1.3693191749474956,-0.00100165564052224
37202000000,-1.2992967967047344,-1.3693191713437822,-0.00100165565923176
37234000000,-1.2992967221845986,-1.3693191676421976,-0.0010016556785088192
37270000000,-1.2992966496268492,-1.369319164060489,-0.0010016556972194286
37303000000,-1.299296576843129,-1.3693191604896282,-0.0010016557159306487
37338000000,-1.2992965016174851,-1.369319156821913,-0.0010016557352093974
37338000000,-1.2992964283749435,-1.3693191532730968,-0.0010016557539217208
37374000000,-1.2992963549063972,-1.369319149735149,-0.0010016557726346131
37405000000,-1.2992962789751399,-1.3693191461013632,-0.0010016557919151417
37443000000,-1.2992962050477035,-1.3693191425854994,-0.0010016558106291304
37472000000,-1.2992961308942297,-1.369319139080523,-0.0010016558293437297
37508000000,-1.2992960542572536,-1.3693191354807293,-0.0010016558486260138
37541000000,-1.2992959796448216,-1.3693191319978777,-0.0010016558673417407
37577000000,-1.2992959048063173,-1.3693191285259319,-0.0010016558860580053
37607000000,-1.2992958274635171,-1.369319124960192,-0.0010016559053420832
37642000000,-1.2992957521659863,-1.3693191215104121,-0.0010016559240595517
37681000000,-1.29929567664235,-1.3693191180715591,-0.0010016559427776031
37713000000,-1.2992955985936208,-1.369319114539934,-0.001001655962063478
37745000000,-1.29929552261089,-1.3693191111232859,-0.001001655980782664
37783000000,-1.2992954464020208,-1.369319107717584,-0.001001655999502457
37824000000,-1.2992953676472585,-1.3693191042201351,-0.0010016560187901258
37854000000,-1.2992952909792257,-1.3693191008366783,-0.0010016560375110638
37885000000,-1.2992952140850207,-1.3693190974641871,-0.0010016560562325742
37923000000,-1.2992951346241197,-1.3693190940009767,-0.001001656075522054
37961000000,-1.2992950572706818,-1.3693190906507755,-0.0010016560942388564
37990000000,-1.2992949796909996,-1.3693190873116257,-0.0010016561128337355
38031000000,-1.2992948995237406,-1.3693190838827993,-0.001001656131988056
38064000000,-1.2992948214846116,-1.3693190805659965,-0.0010016561505798091
38092000000,-1.2992947432191708,-1.36931907726021,-0.0010016561691722214
38126000000,-1.299294662345338,-1.3693190738657752,-0.001001656188328752
38162000000,-1.2992945836203849,-1.369319070582373,-0.0010016562069225035
38192000000,-1.299294504669089,-1.3693190673100044,-0.0010016562255169281
38220000000,-1.299294423088582,-1.3693190639500226,-0.0010016562446754952
38252000000,-1.2992943436777076,-1.3693190607000787,-0.001001656263271214
38288000000,-1.2992942640404568,-1.3693190574611902,-0.001001656281867578
38327000000,-1.2992941817531758,-1.3693190541357225,-0.0010016563010280949
38370000000,-1.2992941016562818,-1.3693190509192978,-0.0010016563196256906
38406000000,-1.2992940213329787,-1.3693190477139479,-0.0010016563382239142
38407000000,-1.2992939383388211,-1.3693190444230554,-0.0010016563573863428
38438000000,-1.2992938575558073,-1.3693190412402094,-0.001001656375985767
38469000000,-1.2992937765463526,-1.369319038068459,-0.0010016563945858363
38505000000,-1.299293692845217,-1.369319034812205,-0.0010016564137501419
38539000000,-1.299293611375984,-1.3693190316629993,-0.0010016564323514117
38575000000,-1.299293529680277,-1.3693190285249073,-0.001001656450953247
38611000000,-1.2992934452720586,-1.3693190253033534,-0.0010016564701193914
38643000000,-1.2992933631165067,-1.3693190221878468,-0.0010016564887224202
38672000000,-1.2992932807344466,-1.369319019083474,-0.0010016565073260007
38709000000,-1.2992931956190412,-1.3693190158966817,-0.0010016565264939561
38738000000,-1.2992931127770693,-1.3693190128149344,-0.001001656545098699
38773000000,-1.2992930297085556,-1.3693190097443406,-0.0010016565637040245
38807000000,-1.2992929438858603,-1.3693190065923713,-0.001001656582873739
38838000000,-1.2992928603573655,-1.3693190035444431,-0.0010016566014802303
38870000000,-1.299292776602296,-1.3693190005076885,-0.0010016566200872316
38905000000,-1.2992926900722048,-1.3693189973906048,-0.0010016566392587259
38938000000,-1.2992926058570855,-1.3693189943765562,-0.0010016566578669034
38974000000,-1.2992925214153577,-1.3693189913737012,-0.0010016566764756325
39011000000,-1.2992924341777652,-1.3693189882915646,-0.0010016566956488233
39044000000,-1.2992923492759196,-1.3693189853114565,-0.0010016567142587043
39081000000,-1.299292264147432,-1.3693189823425609,-0.0010016567328691127
39112000000,-1.2992921762022334,-1.369318979295434,-0.0010016567520440382
39141000000,-1.299292090613559,-1.3693189763493248,-0.0010016567706555742
39175000000,-1.2992920047982086,-1.3693189734144489,-0.0010016567892676652
39209000000,-1.2992919161452978,-1.369318970402393,-0.0010016568084443497
39243000000,-1.2992918298696916,-1.3693189674903439,-0.0010016568270575267
39280000000,-1.2992917433673752,-1.369318964589548,-0.001001656845671283
39307000000,-1.2992916540066457,-1.3693189616126258,-0.0010016568648496295
39343000000,-1.2992915670440055,-1.3693189587346972,-0.001001656883464517
39381000000,-1.2992914798546211,-1.3693189558680414,-0.0010016569020799143
39417000000,-1.2992913897859677,-1.369318952926315,-0.0010016569212600128
39449000000,-1.2992913021361894,-1.3693189500825667,-0.0010016569398765135
39482000000,-1.2992912142596333,-1.369318947250111,-0.0010016569584935693
39506000000,-1.299291123482949,-1.369318944343642,-0.00100165697767534
39538000000,-1.2992910351459297,-1.3693189415341347,-0.0010016569962934922
39579000000,-1.2992909465820979,-1.36931893873594,-0.0010016570149121752
39617000000,-1.2992908550972748,-1.36931893586479,-0.0010016570340956599
39650000000,-1.2992907660729105,-1.3693189330895839,-0.0010016570527154392
39684000000,-1.299290676821699,-1.3693189303257107,-0.001001657071335791
39718000000,-1.2992905846286318,-1.3693189274899429,-0.0010016570905209514
39748000000,-1.2992904949168196,-1.3693189247490984,-0.0010016571091423752
39776000000,-1.2992904049781262,-1.369318922019607,-0.0010016571277643438
39804000000,-1.2992903120767079,-1.369318919219284,-0.0010016571469512008
39840000000,-1.2992902216773428,-1.369318916512861,-0.0010016571655742518
39871000000,-1.2992901310510623,-1.3693189138178103,-0.0010016571841978683
39905000000,-1.2992900374411858,-1.369318911052993,-0.0010016572033864045
39939000000,-1.2992899463541632,-1.3693189083810533,-0.0010016572220111035
39970000000,-1.2992898550401921,-1.3693189057205046,-0.0010016572406363507
40007000000,-1.2992897607217502,-1.3693189029912574,-0.0010016572598265036
40039000000,-1.2992896689469677,-1.3693189003538597,-0.0010016572784528367
40073000000,-1.2992895769452022,-1.3693188977278745,-0.0010016572970797041
40105000000,-1.2992894819180867,-1.3693188950342574,-0.0010016573162715744
40140000000,-1.2992893894554394,-1.3693188924314628,-0.0010016573348995347
40172000000,-1.299289296765774,-1.3693188898401,-0.001001657353528005
40210000000,-1.2992892010298767,-1.369318887182176,-0.001001657372721551
40245000000,-1.2992891078792603,-1.3693188846140454,-0.0010016573913511836
40277000000,-1.2992890145015916,-1.3693188820573672,-0.0010016574099813366
40308000000,-1.2992889180568072,-1.3693188794351987,-0.0010016574291765723
40339000000,-1.2992888242181173,-1.3693188769017923,-0.0010016574478078008
40373000000,-1.2992887301523413,-1.3693188743798579,-0.001001657466439574
40405000000,-1.2992886329985605,-1.369318871793507,-0.001001657485636482
40438000000,-1.2992885384716923,-1.3693188692948852,-0.001001657504269362
40483000000,-1.2992884437177028,-1.3693188668077558,-0.0010016575229027831
40515000000,-1.2992883458548012,-1.3693188642572858,-0.0010016575421022827
40538000000,-1.2992882506396266,-1.3693188617935101,-0.001001657560737456
40574000000,-1.2992881551972866,-1.3693188593412469,-0.0010016575793731636
40608000000,-1.2992880566251472,-1.36931885682672,-0.0010016575985741794
40638000000,-1.2992879607215588,-1.369318854397851,-0.0010016576172110075
40671000000,-1.2992878645907722,-1.3693188519805144,-0.0010016576358483388
40710000000,-1.2992877653092874,-1.3693188495019941,-0.0010016576550510269
40738000000,-1.2992876687195416,-1.3693188471080837,-0.001001657673735657
40771000000,-1.2992875720467132,-1.3693188447242348,-0.0010016576932382858
40805000000,-1.2995127197902132,-1.369309371945025,-0.0010011079977280644
40838000000,-1.300252816091375,-1.3692886035085956,-0.001002101242011881
40871000000,-1.3016773169891644,-1.3692677218991542,-0.001002141865010818
40905000000,-1.303815077266613,-1.3692836193677105,-0.0010018171132311245
40938000000,-1.3061079222354677,-1.369360388059541,-0.001001899534579763
40972000000,-1.3084176609966702,-1.3694981548462823,-0.0010012347906829186
41010000000,-1.3110893382837123,-1.369733607325203,-0.0010017581414544369
41047000000,-1.314186451910015,-1.370110324916403,-0.0010018600795553625
41080000000,-1.3177114116129025,-1.3706749943834076,-0.0010019336550046616
41108000000,-1.3216872604831515,-1.3714775518831248,-0.0010018895679704994
41138000000,-1.3257591928049182,-1.3724803702699055,-0.0010019126179237128
41173000000,-1.3299414768037967,-1.3736853939258458,-0.0010008241295583961
41204000000,-1.3344693990312346,-1.375178977457556,-0.0010009609707440185
41238000000,-1.3392449115459908,-1.3769456921562298,-0.0010011746546466013
41271000000,-1.3444877129211479,-1.3790971345315914,-0.0010015950662102605
41305000000,-1.3501059077618496,-1.3816464569004006,-0.001001448636127309
41338000000,-1.3554287078108807,-1.3842603696643339,-0.001001522602577607
41373000000,-1.360559781665942,-1.386938821941216,-0.001001515046766998
41407000000,-1.3655535110640202,-1.3896969303586781,-0.0010015482558930373
41444000000,-1.3702952660801273,-1.3924534383070033,-0.0010016034172385321
41477000000,-1.374977332942944,-1.3953116452398573,-0.0010017025689427542
41507000000,-1.3800418784141029,-1.3985531034370833,-0.0010021401244993955
41537000000,-1.3849611122084888,-1.401835772989967,-0.0010008742086426228
41571000000,-1.3896793446912041,-1.4051046299606509,-0.0010010245041541313
41605000000,-1.3942046215243429,-1.4083599716075919,-0.0010020758570019259
41638000000,-1.398270279883566,-1.4114123877601878,-0.0010019017511112456
41671000000,-1.4021517218055173,-1.414437015742486,-0.0010017141075998465
41705000000,-1.4062806942342219,-1.4177741561552164,-0.0010016214285285471
41738000000,-1.409970254893765,-1.4208709811989484,-0.0010011853274186598
41771000000,-1.4131697529583478,-1.423643843495588,-0.0010016409192109173
41805000000,-1.4163377037662328,-1.4264401186308253,-0.0010015802999864785
41838000000,-1.4193896371749464,-1.4291805021818713,-0.0010015864003070883
41874000000,-1.422091582550245,-1.4316422202314134,-0.0010009182534280806
41905000000,-1.424244340254232,-1.4336184832944419,-0.0010010180374986043
41940000000,-1.4257575264097562,-1.4350053057987795,-0.0010008936523488894
41974000000,-1.4266892759993577,-1.435849304468306,-0.0010009080459546758
42006000000,-1.4270573715667956,-1.4361748169451716,-0.001000806829426621
42045000000,-1.4268509077996732,-1.435991818049694,-0.0010008592955319494
42078000000,-1.4260674764696206,-1.4353278311615036,-0.0010010203826505103
42114000000,-1.4247047498208774,-1.4342181037267683,-0.0010011474557946216
42142000000,-1.422829926288063,-1.4327587007835751,-0.0010012691392876465
42170000000,-1.4203981872208815,-1.4309582335753113,-0.0010013871653686592
42205000000,-1.4176517872585834,-1.429021621319545,-0.0010009138088041304
42238000000,-1.414907902516761,-1.4271560569383,-0.0010017885170694255
42271000000,-1.4117850053509005,-1.4251069570927921,-0.0010016539818997992
42305000000,-1.4081304028875925,-1.422786585615237,-0.0010017623687135664
42338000000,-1.4043044511423899,-1.420409260136595,-0.0010008348508111636
42372000000,-1.400531791114564,-1.4181030061120719,-0.0010009013031802017
42406000000,-1.3965578303019852,-1.415722981022713,-0.0010008673320502821
42438000000,-1.3925166101930166,-1.4133604989056148,-0.0010008819786025622
42475000000,-1.3882104740225374,-1.410917985933921,-0.0010014207558783003
42512000000,-1.3840733456239676,-1.4086561640106114,-0.0010020482457794612
42538000000,-1.3808078225906883,-1.406941560083856,-0.0010020454252980017
42571000000,-1.377700711549465,-1.40536347445545,-0.0010014570434050754
42605000000,-1.374271420057586,-1.4036661213914894,-0.0010014486287247305
42637000000,-1.3708749494597605,-1.4020351163888807,-0.0010014766784543529
42671000000,-1.3679095395523477,-1.4006514749461108,-0.0010016794424089447
42705000000,-1.3657506823308379,-1.3996686681387864,-0.0010016209588522215
42740000000,-1.3645296573995713,-1.3991222926409492,-0.0010016095876166468
42777000000,-1.3641786734588972,-1.398966075629729,-0.001001615581281881
42807000000,-1.364097713929054,-1.3989298175543674,-0.0010014210976089233
42839000000,-1.3635275043677932,-1.3986860350285677,-0.0010013111646411318
42876000000,-1.362239249161355,-1.3981523793493686,-0.0010013910456344345
42905000000,-1.3608800133846413,-1.3976042831758348,-0.0010015085810405958
42938000000,-1.3600870852334854,-1.3972914371443794,-0.001001448439747532
42972000000,-1.3601393572527274,-1.3973087042523504,-0.0010014525897431466
43007000000,-1.3610716695887028,-1.3976569722264154,-0.0010015017538185164
43043000000,-1.3628525194547643,-1.3983169573551169,-0.0010015970847037682
43074000000,-1.3655333192135977,-1.399303113413671,-0.001001583216401404
43115000000,-1.3685048099299721,-1.4003775958075022,-0.0010014867087986684
43149000000,-1.3706889150797925,-1.4011374222705621,-0.0010009241923247397
43181000000,-1.3719077412518061,-1.4015447473586669,-0.0010010164767433258
43211000000,-1.3721830531798507,-1.4016324399946776,-0.001001118838574705
43238000000,-1.3715827885648322,-1.4014420265939225,-0.0010010784194943653
43274000000,-1.3701879949428326,-1.4010153751151064,-0.0010011605155380923
43310000000,-1.367916370300955,-1.4003424289755448,-0.001001279476771505
43338000000,-1.3649061709624182,-1.399476559646,-0.0010014087237102016
43371000000,-1.3612121715165126,-1.3984404298609345,-0.0010015599710293359
43406000000,-1.3572948114412413,-1.3973647435407148,-0.0010016436377107557
43440000000,-1.3534865494885429,-1.396340803502782,-0.0010017197468637044
43475000000,-1.3500386783609182,-1.3954329902579965,-0.001001084772837682
43515000000,-1.3471892187781795,-1.394703767790564,-0.0010010350110683588
43549000000,-1.3450699167659037,-1.394181743016852,-0.001001014031853275
43571000000,-1.3435760329571147,-1.3938308643637536,-0.0010010098985413461
43603000000,-1.3426358544913595,-1.3936254971178743,-0.0010010712178963634
43647000000,-1.3416392846775325,-1.3934276965074006,-0.0010019445931480145
43682000000,-1.3401637404333973,-1.393154378200832,-0.0010019821037914184
43710000000,-1.338211039473828,-1.39280190967969,-0.0010020690564438058
43738000000,-1.3361318385005463,-1.3924260752290925,-0.0010009794094155144
43772000000,-1.3339090444729824,-1.3920169521638674,-0.001001018419448406
43805000000,-1.331272866302337,-1.3915111530983384,-0.001000986167075224
43840000000,-1.3285098585933672,-1.390955246001328,-0.0010009872307270053
43876000000,-1.3255804422303346,-1.3903429401045486,-0.001001009341954913
43913000000,-1.3226909149815655,-1.3897213555031733,-0.0010013462500788571
43941000000,-1.3202997681114121,-1.389195188809576,-0.0010018440274373978
43974000000,-1.3184608951706347,-1.3887782707440477,-0.0010018400997159858
44005000000,-1.317137567323317,-1.3884658397262797,-0.001001858942725229
44039000000,-1.316404703062736,-1.388285870157863,-0.0010019039776730104
44077000000,-1.3162069175317694,-1.388240168275461,-0.001001964133760743
44105000000,-1.3165411429715084,-1.3883430486991593,-0.0010018668298240677
44141000000,-1.3172974762524545,-1.388573698024522,-0.0010019144316911963
44171000000,-1.3184146065118427,-1.3889287583499055,-0.0010019471522659425
44207000000,-1.319892674250941,-1.3894097721826324,-0.0010006879426597455
44238000000,-1.3216427483290165,-1.3899795458302602,-0.0010008928037680692
44272000000,-1.323799501994509,-1.390665950466205,-0.0010009777822691246
44305000000,-1.3265670910657723,-1.3915078934676783,-0.0010010748018826898
44338000000,-1.3298224665174962,-1.3924372948748036,-0.0010010163254561104
44374000000,-1.3334187863616187,-1.3933982245766539,-0.0010010428535156962
44405000000,-1.337303376738759,-1.3943641525115917,-0.0010013294080802489
44438000000,-1.3409966824835218,-1.3951818234125548,-0.001001533206463727
44472000000,-1.3442587957413248,-1.3958119129782844,-0.0010012051625874936
44508000000,-1.3468099264639375,-1.39623532054695,-0.001001221885319887
44539000000,-1.348522389246777,-1.3964753920814763,-0.0010012693493092507
44572000000,-1.3495139780524958,-1.3965906682102167,-0.0010013298619761246
44607000000,-1.349823563750635,-1.396618663858028,-0.0010014171904413442
44641000000,-1.349511207997044,-1.396595580288168,-0.0010015959217214258
44677000000,-1.3487900549965048,-1.3965591881371635,-0.0010015967612054082
44717000000,-1.3477157714213623,-1.3965143916582967,-0.0010017103603084977
44738000000,-1.346419422762784,-1.3964798727793821,-0.0010005851345893657
44772000000,-1.3447927232510515,-1.3964509683924038,-0.001000566846338695
44807000000,-1.3426489602950091,-1.396416898501858,-0.001000528947837507
44838000000,-1.3400426659395406,-1.396372760053427,-0.0010008777649721037
44872000000,-1.3369753269554177,-1.3963211200882442,-0.0010008651272355347
44910000000,-1.3334081738127181,-1.3962675378995735,-0.001000902025382628
44940000000,-1.3295832001012764,-1.3962341198555281,-0.001001372657916784
44971000000,-1.3257123194520641,-1.3962337276265704,-0.0010013862548018428
45005000000,-1.3212790938842303,-1.396272562327862,-0.0010011828176912548
45038000000,-1.3161613610462652,-1.396360118029504,-0.001001237871325767
45073000000,-1.310197851829428,-1.3965074856988733,-0.001001453335413214
45105000000,-1.303413700957207,-1.3967281654176176,-0.0010017334675003452
45138000000,-1.2964294105788492,-1.3970394136616877,-0.0010019524086519252
45169000000,-1.2895849441185248,-1.3974482178547591,-0.001000900057419176
45205000000,-1.2830295554102589,-1.3979567616896273,-0.0010008057487904919
45240000000,-1.2770263963241342,-1.3985488611481347,-0.0010020966789272903
45272000000,-1.2713398824615783,-1.3992460503370057,-0.0010019170926884279
45306000000,-1.2658784693287037,-1.4000641078247833,-0.001001901852022074
45343000000,-1.261012518499657,-1.4009345693873183,-0.0010018811562319888
45378000000,-1.2565970610277435,-1.4018592132476093,-0.0010019243218721517
45413000000,-1.2523676505135193,-1.4028718580090458,-0.0010021698406664642
45448000000,-1.2482145693363862,-1.4039671305699812,-0.0010016274154841416
45482000000,-1.2436885492844627,-1.4052625232160059,-0.0010012838143192808
45511000000,-1.2386013735027839,-1.4068464470871727,-0.001001467261109213
45539000000,-1.2332714373219462,-1.408670700725201,-0.001001292231611755
45575000000,-1.2281011900663106,-1.4106143419762467,-0.0010011185215554191
45612000000,-1.2233748354567853,-1.4125219036118712,-0.0010017095755774225
45643000000,-1.2194507022652197,-1.4141883152362993,-0.0010019058391362266
45671000000,-1.2162451730254147,-1.4156001830205098,-0.0010017981080119621
45710000000,-1.2136639761702426,-1.416768142243193,-0.0010017341533508362
45738000000,-1.211831016258279,-1.4176131552057378,-0.0010017226032449332
45771000000,-1.2101292247370017,-1.418413586804982,-0.0010015461174517522
45805000000,-1.2079294374146952,-1.419478050189751,-0.0010014126833280783
45841000000,-1.205380724930641,-1.4207605885636847,-0.0010015417169115456
45874000000,-1.2024656361565311,-1.4222861727657237,-0.0010016024855346237
45905000000,-1.199581524321714,-1.4238577009228541,-0.0010010783055115977
45940000000,-1.1972558529515993,-1.4251885201431458,-0.0010013782294114627
45980000000,-1.1952897603218344,-1.4263772274867832,-0.0010010283881393134
46009000000,-1.1934446469476214,-1.4275572339499358,-0.001001042878075887
46043000000,-1.1918147395098246,-1.4286541169434182,-0.001001042966220174
46071000000,-1.1903375034756185,-1.4296944649830612,-0.0010010430821681578
46105000000,-1.1889692652940917,-1.4306989831013952,-0.0010010431917593793
46138000000,-1.1877850461014134,-1.4316015220383917,-0.0010010429562723362
46171000000,-1.18673741517767,-1.4324265933183349,-0.0010010427868016036
46206000000,-1.1857960423436475,-1.4331900857366282,-0.0010010425818148608
46238000000,-1.1850120283149577,-1.4338421012580695,-0.001001032389984731
46273000000,-1.1843527145503228,-1.43440251568899,-0.0010010192457412595
46305000000,-1.1838007375052144,-1.4348804711057277,-0.0010010103506975475
46336000000,-1.1833863756731153,-1.4352444613521596,-0.001001011089017182
46372000000,-1.1829334342988054,-1.4356478650585043,-0.001001682322253103
46405000000,-1.1822880471330808,-1.4362243953893854,-0.0010006236748765149
46438000000,-1.1814762117434767,-1.4369455304060956,-0.0010005568070466618
46472000000,-1.180397720166289,-1.4378877185220693,-0.0010005709031119144
46505000000,-1.1789023795518783,-1.4391610886752588,-0.0010006095489959108
46538000000,-1.176987237088482,-1.4407411758598792,-0.0010006511794194636
46566000000,-1.1745369178450134,-1.4426905563284995,-0.001000741270986795
46605000000,-1.171387940677731,-1.4450957172772163,-0.0010008787704039838
46642000000,-1.1676870094626126,-1.4478034437183829,-0.0010010308653104344
46673000000,-1.1633544312320978,-1.4508467817700632,-0.001001218874654656
46705000000,-1.1583084994508868,-1.4542665006645223,-0.001001592990211915
46738000000,-1.1532143492689901,-1.4576117271398978,-0.0010017338754681887
46771000000,-1.1481757893172082,-1.4608120256561732,-0.0010010403562193092
46806000000,-1.1428825698503786,-1.4640481239655752,-0.0010010612997761702
46838000000,-1.1375321299353667,-1.4671823731946099,-0.0010011055483452672
46871000000,-1.1318875802955306,-1.470326810311298,-0.001001485877931363
46905000000,-1.1259276366171378,-1.4734511421373584,-0.001001498355011253
46939000000,-1.1200642129413383,-1.4763281792850882,-0.0010015612889126072
46972000000,-1.1138670861047688,-1.4791641155737176,-0.0010016539748610755
47005000000,-1.1072181858489853,-1.4819780835932974,-0.0010017042254343717
47037000000,-1.1006900922422913,-1.4845189236355296,-0.0010019261577034339
47072000000,-1.0941093411391811,-1.486864493185396,-0.0010017199963094497
47105000000,-1.0874197277781141,-1.4890319217158114,-0.0010014418191934445
47134000000,-1.0810242177827856,-1.4909033479085079,-0.0010019658229856072
47171000000,-1.0745291722363823,-1.4926142248796312,-0.0010003873232522671
