%time,field.x,field.y,field.z
1975893000000,-0.0010169153621990357,0.004975344133521843,-0.0010027166408870768
1975927000000,-0.0010172219347214743,0.004976233577830504,-0.001002716664605354
1975960000000,-0.0010175197861735453,0.004977096822227789,-0.0010027166876581811
1975993000000,-0.0010178179292816185,0.004977960027374839,-0.001002716710741841
1976027000000,-0.0010181254123923537,0.0049788493491469575,-0.0010027167345573323
1976060000000,-0.001018424148571128,0.004979712474445461,-0.0010027167577038101
1976093000000,-0.0010187231773135822,0.004980575560336649,-0.0010027167808812978
1976127000000,-0.001019031573846631,0.004981464759074072,-0.0010027168047936387
1976160000000,-0.001019331197505977,0.004982327764796011,-0.0010027168280342426
1976200000000,-0.0010196311146398887,0.00498319073095244,-0.001002716851306009
1976244000000,-0.0010199404274391808,0.004984079806160943,-0.0010027168753156193
1976288000000,-0.0010202409413426093,0.004984942691826071,-0.0010027168986507934
1976336000000,-0.0010205417496346762,0.004985805537766559,-0.001002716922017255
1976336000000,-0.0010208519815540652,0.00498669448894965,-0.0010027169461245926
1976380000000,-0.0010211533884747215,0.004987557254075263,-0.0010027169695547705
1976393000000,-0.0010214550907012817,0.0049884199793165255,-0.0010027169930163712
1976436000000,-0.0010217662446045713,0.004989308805975441,-0.0010027170172218804
1976480000000,-0.001022068547325279,0.0049901714500767,-0.001002717040747489
1976525000000,-0.001022371146272352,0.004991034054133104,-0.0010027170643046764
1976570000000,-0.001022683225033353,0.004991922755766785,-0.001002717088608815
1976570000000,-0.0010229864263466516,0.004992785278356488,-0.0010027171122302739
1976615000000,-0.0010232899248099874,0.004993647760740173,-0.0010027171358834817
1976627000000,-0.001023602931312522,0.0049945363368451385,-0.0010027171602866973
1976670000000,-0.0010239070340206987,0.004995398737433937,-0.0010027171840044716
1976714000000,-0.001024211434805817,0.0049962610976546995,-0.0010027172077541405
1976755000000,-0.0010245253719438066,0.004997149547725142,-0.001002717232256884
1976775000000,-0.0010248303788589468,0.004998011825821341,-0.0010027172560714177
1976819000000,-0.0010251356847811614,0.0049988740633866895,-0.0010027172799179848
1976858000000,-0.0010254505554586233,0.004999762386914377,-0.0010027173045207248
1976902000000,-0.0010257564694026262,0.00500062454202399,-0.0010027173284324412
1976902000000,-0.0010260626837145567,0.0050014866564196256,-0.0010027173523809163
1976949000000,-0.001026378492623074,0.005002374852786049,-0.001002717377092479
1976960000000,-0.0010266853194747143,0.0050032368842081315,-0.0010027174011101488
1977006000000,-0.0010269924485069868,0.0050040988746728465,-0.0010027174251602544
1977051000000,-0.0010273092008632806,0.005004986943165257,-0.0010027174499730798
1977095000000,-0.0010276169443715361,0.005005848850306264,-0.0010027174740891154
1977095000000,-0.0010279249910045791,0.0050067107163243064,-0.0010027174982376943
1977143000000,-0.0010282426897563765,0.005007598656425456,-0.001002717523152126
1977160000000,-0.0010285513527856617,0.0050084604387828895,-0.001002717547366902
1977202000000,-0.0010288603198871926,0.005009322179851062,-0.0010027175716143637
1977250000000,-0.0010291789679925832,0.005010209991041768,-0.001002717596630811
1977285000000,-0.0010294885534173652,0.005011071648110791,-0.0010027176209447507
1977327000000,-0.00102979844386518,0.005011933263723442,-0.0010027176452915218
1977327000000,-0.0010301180442926407,0.005012820945481957,-0.0010027176704104218
1977374000000,-0.0010304285549974628,0.005013682476755423,-0.0010027176948239555
1977393000000,-0.0010307393716794296,0.0050145439664046835,-0.001002717719270449
1977432000000,-0.0010310599274078423,0.005015431518206802,-0.0010027177444922493
1977471000000,-0.001031371366287369,0.0050162929231751825,-0.0010027177690057967
1977508000000,-0.0010316831121015167,0.0050171542863505815,-0.0010027177935524358
1977531000000,-0.0010320046261202212,0.005018041707669701,-0.0010027178188775979
1977577000000,-0.001032316996079279,0.005018902985821004,-0.0010027178434916136
1977621000000,-0.0010326296739337848,0.005019764222009913,-0.001002717868138863
1977663000000,-0.0010329521492426167,0.005020651512316734,-0.0010027178935678345
1977663000000,-0.0010332654531962308,0.005021512663136573,-0.0010027179182827556
1977708000000,-0.0010335790660094945,0.005022373771823701,-0.0010027179430310874
1977727000000,-0.0010339025056188122,0.0050232609305868505,-0.001002717968564333
1977766000000,-0.0010342167464922345,0.005024121953558441,-0.001002717993380621
1977796000000,-0.0010345312971928962,0.005024982934226272,-0.0010027180182304515
1977826000000,-0.0010348557041236477,0.005025869960911465,-0.0010027180438684571
1977873000000,-0.0010351708848524155,0.005026730855515622,-0.0010027180687865733
1977922000000,-0.0010354863763794141,0.0050275917076441435,-0.0010027180937383917
1977967000000,-0.0010358117536631486,0.005028478601714878,-0.0010027181194816222
1977968000000,-0.0010361278771931163,0.005029339367429877,-0.001002718144502042
1977994000000,-0.0010364443124957151,0.005030200090496592,-0.0010027181695562992
1978027000000,-0.0010367706631746526,0.0050310868514136155,-0.0010027181954052403
1978075000000,-0.001037087732462032,0.00503194748771538,-0.0010027182205284146
1978121000000,-0.001037405114499874,0.0050328080811952915,-0.0010027182456855896
1978166000000,-0.0010377324416269125,0.005033694708416937,-0.0010027182716407339
1978166000000,-0.0010380504596383096,0.005034555214778849,-0.0010027182968671278
1978210000000,-0.0010383687913814426,0.005035415678144559,-0.0010027183221276853
1978227000000,-0.0010386970980202515,0.005036302171126566,-0.0010027183481895324
1978265000000,-0.001039016067732726,0.005037162547019486,-0.001002718373519642
1978306000000,-0.0010393353521616555,0.005038022879741165,-0.0010027183988840643
1978351000000,-0.0010396646413866678,0.0050389092379366585,-0.0010027184250530723
1978395000000,-0.0010399845657877447,0.005039769482829073,-0.001002718450487352
1978395000000,-0.001040304805893468,0.005040629684374199,-0.0010027184759561283
1978440000000,-0.0010406350807899544,0.005041515907233817,-0.001002718502232814
1978460000000,-0.0010409559628776878,0.005042376020591641,-0.00100271852777176
1978501000000,-0.001041277161661738,0.005043236090425394,-0.0010027185533453623
1978533000000,-0.001041608425325839,0.0050441221773971185,-0.0010027185797302149
1978560000000,-0.0010419302681088502,0.005044982158683722,-0.0010027186053743163
1978596000000,-0.001042252428583349,0.005045842096268517,-0.0010027186310532232
1978638000000,-0.0010425846841221132,0.005046728046797725,-0.001002718657546739
1978687000000,-0.0010429074906196257,0.005047587895473877,-0.0010027186832964746
1978731000000,-0.0010432306158073053,0.0050484477002699325,-0.0010027187090811858
1978731000000,-0.0010435638663387542,0.005049333513799334,-0.0010027187356838711
1978776000000,-0.0010438876395806448,0.005050193229323397,-0.0010027187615397372
1978794000000,-0.0010442117325149087,0.005051052900787864,-0.001002718787430728
1978834000000,-0.0010445459811680357,0.00505193857675765,-0.0010027188141430964
1978868000000,-0.0010448707241948758,0.0050527981585852455,-0.0010027188401055681
1978894000000,-0.001045195787919828,0.005053657696173184,-0.001002718866103338
1978939000000,-0.0010455310378346995,0.005054543234020773,-0.0010027188929258926
1978983000000,-0.0010458567536977877,0.005055402681605154,-0.00100271891899548
1979022000000,-0.0010461827912682789,0.005056262084768769,-0.0010027189451005288
1979066000000,-0.001046519045596041,0.005057147483928976,-0.001002718972033776
1979066000000,-0.0010468457373574661,0.005058006796720571,-0.001002718998210965
1979110000000,-0.001047172751839149,0.0050588660649096414,-0.0010027190244237816
1979127000000,-0.0010475100137420802,0.005059751324814592,-0.0010027190514682385
1979170000000,-0.0010478376844747228,0.005060610502261528,-0.0010027190777535458
1979217000000,-0.00104816567894408,0.005061469634923,-0.001002719104074637
1979261000000,-0.0010485039515956314,0.005062354755002015,-0.001002719131230817
1979261000000,-0.0010488326043832773,0.00506321379654935,-0.0010027191576247353
1979292000000,-0.0010491615819276535,0.005064072793127786,-0.001002719184054597
1979337000000,-0.001049500868512505,0.005064957772807629,-0.0010027192113230242
1979376000000,-0.001049830506449816,0.005065816677898265,-0.0010027192378260497
1979421000000,-0.001050160470167507,0.005066675537835425,-0.001002719264365199
1979465000000,-0.0010505007738816161,0.005067560376540073,-0.0010027192917463831
1979465000000,-0.001050831400074211,0.005068419144613924,-0.0010027193183590397
1979509000000,-0.0010511623530744555,0.005069277867348943,-0.0010027193450079727
1979527000000,-0.0010515036771250735,0.005070162564499682,-0.001002719372502462
1979569000000,-0.0010518352946895827,0.005071021194994117,-0.0010027193992252319
1979613000000,-0.0010521672400926382,0.005071879779963512,-0.0010027194259844552
1979651000000,-0.0010525095876983892,0.00507276433497877,-0.0010027194535927736
1979674000000,-0.0010528421997624557,0.0050736228273285935,-0.0010027194804261806
1979716000000,-0.001053175140699629,0.005074481273966128,-0.0010027195072962354
1979767000000,-0.0010535185150905369,0.00507536568626161,-0.001002719535018886
1979768000000,-0.0010538521247929079,0.00507622403989872,-0.001002719561963468
1979813000000,-0.0010541860644066097,0.005077082347635504,-0.001002719588944826
1979827000000,-0.0010545304688241415,0.005077966616624138,-0.0010027196167823604
1979869000000,-0.0010548650793146819,0.005078824830977862,-0.0010027196438386066
1979895000000,-0.0010552000207584584,0.005079682999242304,-0.0010027196709318231
1979929000000,-0.0010555454584555849,0.005080567124334275,-0.001002719698884779
1979968000000,-0.001055881072895331,0.0050814251988311535,-0.0010027197260532236
1980014000000,-0.001056217019333918,0.005082283227048921,-0.001002719753258812
1980058000000,-0.0010565634935751468,0.005083167207651546,-0.0010027197813277135
1980103000000,-0.0010569001151363566,0.005084025141715447,-0.00100271980860887
1980104000000,-0.0010572370697457248,0.005084883029309528,-0.0010027198359273508
1980148000000,-0.0010575845838071496,0.0050857668648272136,-0.0010027198641127423
1980160000000,-0.0010579222156733483,0.005086624657879175,-0.0010027198915071485
1980200000000,-0.0010582601816407407,0.005087482404269624,-0.001002719918939042
1980248000000,-0.0010586087388100964,0.005088366094104095,-0.0010027199472414684
1980295000000,-0.001058947384176099,0.005089223745562413,-0.0010027199747496482
1980295000000,-0.0010592863647000822,0.0050900813501667435,-0.0010027200022954888
1980343000000,-0.0010596359682767823,0.0050909648937167784,-0.001002720030715512
1980360000000,-0.0010599756303487787,0.005091822402997037,-0.0010027200583380032
1980400000000,-0.0010603156286392952,0.005092679865229763,-0.0010027200859982974
1980442000000,-0.0010606662819344715,0.005093563261891247,-0.0010027201145364519
1980487000000,-0.001061006963930038,0.005094420628406205,-0.0010027201422737608
1980531000000,-0.0010613479832084294,0.005095277947679221,-0.0010027201700490984
1980531000000,-0.0010616996895450063,0.005096161196845172,-0.0010027201987059288
1980578000000,-0.001062041394693159,0.005097018420004664,-0.0010027202265586108
1980593000000,-0.0010623834381922343,0.005097875595726937,-0.0010027202544494844
1980633000000,-0.0010627362009049453,0.005098758696787505,-0.0010027202832255597
1980680000000,-0.0010630789324462021,0.005099615775998675,-0.0010027203111941697
1980717000000,-0.0010634220034102812,0.005100472807576328,-0.0010027203392011241
1980728000000,-0.0010637758258457367,0.005101355759918687,-0.0010027203680969994
1980769000000,-0.0010641195870321465,0.005102212694585828,-0.0010027203961820476
1980814000000,-0.001064463688717084,0.005103069581422255,-0.0010027204243056587
1980855000000,-0.0010648185742338154,0.005103952384430658,-0.0010027204533218682
1980901000000,-0.0010651633683290045,0.005104809173955213,-0.0010027204815239374
1980902000000,-0.001065508504002278,0.005105665915450843,-0.0010027205097647186
1980940000000,-0.001065864455970727,0.005106548568508732,-0.0010027205389019252
1980960000000,-0.0010662102862503998,0.005107405212296189,-0.001002720567222233
1981006000000,-0.0010665564591919169,0.0051082618078560444,-0.0010027205955813953
1981051000000,-0.0010669134809958899,0.005109144310345787,-0.0010027206248406778
1981099000000,-0.0010672603507476466,0.0051100008077865034,-0.0010027206532790128
1981099000000,-0.0010676075642485133,0.00511085725679972,-0.0010027206817564659
1981147000000,-0.001067965659282472,0.005111739608092378,-0.001002720711137814
1981161000000,-0.0010683135718049892,0.005112595958579216,-0.001002720739694797
1981207000000,-0.0010686618291677503,0.005113452260437619,-0.0010027207682910787
1981250000000,-0.0010690210008383848,0.005114334459905543,-0.0010027207977950509
1981293000000,-0.0010693699594420975,0.005115190662828367,-0.0010027208264712685
1981293000000,-0.0010697192639810855,0.005116046816920657,-0.0010027208551869338
1981341000000,-0.0010700795157072302,0.0051169288639332485,-0.0010027208848141025
1981360000000,-0.0010704295237143812,0.0051177849186789465,-0.001002720913610082
1981400000000,-0.0010707798787557635,0.005118640924391156,-0.0010027209424456895
1981444000000,-0.0010711412139684717,0.005119522818314663,-0.0010027209721966482
1981487000000,-0.001071492274713189,0.0051203787242671776,-0.0010027210011129446
1981531000000,-0.0010718436835950003,0.005121234580982273,-0.0010027210300690807
1981531000000,-0.0010722061057375845,0.005122116321179877,-0.0010027210599443878
1981560000000,-0.001072558222565901,0.005122972077720198,-0.001002721088981584
1981593000000,-0.0010729106886381247,0.00512382778481819,-0.00100272111805879
1981636000000,-0.0010732742011662025,0.005124709370650117,-0.0010027211480590492
1981681000000,-0.001073627377436109,0.00512556497715631,-0.0010027211772177004
1981724000000,-0.0010739809040607009,0.005126420534014145,-0.001002721206416559
1981771000000,-0.0010743455104422466,0.00512730196483756,-0.0010027212365423498
1981771000000,-0.001074699749523754,0.0051281574206845865,-0.0010027212658230249
1981809000000,-0.0010750543400746878,0.005129012826676332,-0.0010027212951440982
1981827000000,-0.0010754200438302238,0.005129894101844128,-0.001002721325397065
1981860000000,-0.001075775349909983,0.005130749406359356,-0.0010027213548060403
1981902000000,-0.0010761310096115409,0.005131604660733197,-0.001002721384256628
1981947000000,-0.0010764978171296496,0.005132485779386575,-0.0010027214146422665
1981996000000,-0.0010768541959325344,0.005133340931739629,-0.0010027214441756076
1981996000000,-0.0010772109294831782,0.0051341960337388136,-0.0010027214737497875
1982040000000,-0.0010775788445704978,0.005135076995180841,-0.001002721504262935
1982060000000,-0.0010779362995129854,0.005135931994733237,-0.001002721533920243
1982104000000,-0.001078294110333419,0.005136786943721458,-0.0010027215636185562
1982148000000,-0.001078663136518573,0.005137667747295375,-0.0010027215942597888
1982190000000,-0.0010790216710295994,0.005138522593408728,-0.0010027216240415665
1982233000000,-0.001079380562552826,0.005139377388746433,-0.001002721653864544
1982234000000,-0.0010797507033770875,0.005140258033792478,-0.001002721684634427
1982283000000,-0.0010801103208979103,0.005141112725825121,-0.0010027217145412541
1982293000000,-0.00108047029656925,0.005141967366869834,-0.0010027217444894716
1982339000000,-0.0010808415555866157,0.005142847852724758,-0.0010027217753885743
1982382000000,-0.0010812022595708412,0.005143702390032124,-0.0010027218054210023
1982431000000,-0.0010815633228479903,0.005144556876138255,-0.0010027218354950185
1982431000000,-0.0010819357036252093,0.005145437202135884,-0.0010027218665239236
1982478000000,-0.0010822974975388464,0.005146291584070263,-0.0010027218966825457
1982493000000,-0.001082659651891922,0.005147145914588894,-0.0010027219268829365
1982535000000,-0.0010830331580085522,0.005148026080059665,-0.0010027219580422513
1982562000000,-0.0010833960453300526,0.0051488803059701604,-0.0010027219883276296
1982599000000,-0.0010837592942416225,0.005149734480249435,-0.0010027220186549918
1982638000000,-0.0010841339292900886,0.0051506144845205205,-0.0010027220499453093
1982682000000,-0.0010844979135104082,0.005151468553753107,-0.0010027220803580476
1982723000000,-0.0010848622604755645,0.005152322571137863,-0.0010027221108129536
1982771000000,-0.0010852380280611997,0.005153202413533319,-0.0010027221422348846
1982771000000,-0.0010856031126838476,0.005154056325430741,-0.0010027221727755727
1982817000000,-0.0010859685612102541,0.0051549101852628185,-0.0010027222033586122
1982827000000,-0.0010863454649513628,0.005155789865103245,-0.0010027222349127743
1982873000000,-0.0010867116534924483,0.005156643619005071,-0.0010027222655820053
1982913000000,-0.0010870782071003742,0.005157497320622914,-0.0010027222962937857
1982960000000,-0.0010874562506282739,0.005158376837225714,-0.0010027223279808206
1982961000000,-0.0010878235466165401,0.005159230432468378,-0.0010027223587791984
1983005000000,-0.0010881912088389302,0.005160083975207376,-0.00100272238962033
1983027000000,-0.0010885703957980008,0.005160963327886643,-0.0010027224214408277
1983063000000,-0.0010889388027749127,0.005161816763803329,-0.0010027224523689593
1983108000000,-0.001089307577157422,0.005162670146995532,-0.0010027224833400392
1983151000000,-0.0010896879112051701,0.005163549335061956,-0.0010027225152946413
1983194000000,-0.0010900574327249385,0.005164402610982521,-0.0010027225463531408
1983195000000,-0.0010904273228260009,0.005165255833956761,-0.0010027225774547864
1983237000000,-0.001090808807633105,0.005166134856717818,-0.001002722609544121
1983260000000,-0.0010911794472627427,0.0051669879719689615,-0.0010027226407335992
1983300000000,-0.0010915504566536161,0.005167841034050876,-0.0010027226719664314
1983338000000,-0.001091933095903985,0.005168719890810506,-0.00100272270419113
1983360000000,-0.0010923048572233675,0.00516957284471562,-0.0010027227355122112
1983403000000,-0.0010926769894881701,0.00517042574522752,-0.0010027227668768443
1983448000000,-0.0010930607868789985,0.005171304435286324,-0.0010027227992375591
1983496000000,-0.0010934336734809078,0.0051721572271653865,-0.001002722830690847
1983496000000,-0.0010938069322166911,0.005173009965426131,-0.0010027228621879124
1983541000000,-0.001094191891458502,0.005173888488081378,-0.0010027228946852679
1983560000000,-0.001094565906948679,0.00517474111725128,-0.0010027229262713905
1983601000000,-0.001094940295765478,0.005175593692576638,-0.0010027229579015126
1983644000000,-0.001095326420582199,0.0051764720471221,-0.0010027229905361819
1983688000000,-0.0010957015685793946,0.005177324512896275,-0.001002723022255781
1983732000000,-0.0010960770911002723,0.00517817692459857,-0.001002723054019567
1983732000000,-0.001096464385229267,0.005179055110324505,-0.0010027230867921746
1983776000000,-0.001096840669365307,0.005179907412013009,-0.0010027231186458818
1983793000000,-0.0010972173292264136,0.005180759659401242,-0.0010027231505439806
1983835000000,-0.0010976057964185385,0.0051816376755946065,-0.0010027231834551925
1983879000000,-0.0010979832203383772,0.005182489812504111,-0.0010027232154436183
1983923000000,-0.0010983610211889898,0.00518334189488383,-0.0010027232474766785
1983954000000,-0.0010987506652086615,0.005184219740828019,-0.0010027232805271472
1983980000000,-0.0010991292325704125,0.005185071712261936,-0.0010027233126509681
1984017000000,-0.0010995081780730215,0.005185923628935426,-0.0010027233448196005
1984060000000,-0.0010998990026982718,0.0051868013039103045,-0.001002723378009985
1984060000000,-0.0011002787171732736,0.005187653109168498,-0.0010027234102698325
1984102000000,-0.0011006588110035968,0.005188504859434536,-0.0010027234425746753
1984127000000,-0.0011010508200261244,0.005189382362716509,-0.0010027234759056453
1984168000000,-0.0011014316852990206,0.0051902340010955075,-0.001002723508302144
1984212000000,-0.0011018129311460827,0.005191085584249387,-0.0010027235407438842
1984227000000,-0.0011022061283712924,0.005191962915111258,-0.0010027235742160988
1984263000000,-0.00110258814814004,0.005192814385904142,-0.0010027236067499078
1984308000000,-0.0011029705497062215,0.005193665801237834,-0.0010027236393291734
1984352000000,-0.0011033649389533065,0.005194542958948891,-0.0010027236729433023
1984397000000,-0.001103748116929264,0.005195394261445229,-0.0010027237056150738
1984397000000,-0.001104131677930345,0.005196245508247267,-0.001002723738332524
1984440000000,-0.0011045272630323425,0.005197122492073106,-0.0010027237720892472
1984460000000,-0.0011049116029403097,0.005197973625559015,-0.0010027238048996232
1984506000000,-0.0011052963271055462,0.005198824703114238,-0.0010027238377559103
1984553000000,-0.0011056931119093711,0.00519970151231709,-0.0010027238716559007
1984594000000,-0.0011060786174876547,0.005200552476075197,-0.0010027239046055715
1984594000000,-0.001106464508559813,0.005201403383665074,-0.0010027239376013408
1984629000000,-0.0011068624969263266,0.005202280017503308,-0.0010027239716452856
1984660000000,-0.0011072491719267778,0.0052031308108127445,-0.001002724004734886
1984704000000,-0.001107636233662201,0.00520398154771527,-0.0010027240378708245
1984747000000,-0.0011080354294662762,0.005204858005443769,-0.0010027240720594
1984790000000,-0.001108423277654362,0.0052057086275800885,-0.0010027241052896
1984834000000,-0.0011088115138230305,0.005206559193069635,-0.0010027241385663459
1984834000000,-0.0011092119209535917,0.005207435473939551,-0.00100272417290026
1984882000000,-0.0011096009461084577,0.005208285924174668,-0.0010027242062717358
1984893000000,-0.0011099903604940209,0.0052091363175220725,-0.0010027242396899866
1984933000000,-0.0011103919828541328,0.005210012420780821,-0.001002724274169909
1984956000000,-0.001110782188768632,0.005210862698383253,-0.0010027243076833302
1985008000000,-0.0011111727851684976,0.005211712918855728,-0.001002724341243738
1985051000000,-0.00111157562667538,0.0052125888437472255,-0.001002724375870366
1985096000000,-0.0011119670171561473,0.0052134389479817226,-0.0010027244095264128
1985096000000,-0.001112358799381508,0.005214288994842865,-0.0010027244432296786
1985139000000,-0.0011127628639666263,0.005215164740607136,-0.001002724478003713
1985160000000,-0.0011131554428341463,0.005216014670734974,-0.0010027245118030548
1985203000000,-0.0011135484147100569,0.005216864543244852,-0.0010027245456498413
1985244000000,-0.0011139537063191655,0.005217740109118251,-0.0010027245805719828
1985288000000,-0.0011143474774077938,0.0052185898643969586,-0.0010027246145153206
1985314000000,-0.0011147416427732156,0.005219439561811953,-0.001002724648506318
1985352000000,-0.0011151481653664348,0.0052203149470269545,-0.001002724683577278
1985398000000,-0.0011155431325244958,0.005221164526710486,-0.0010027247176652744
1985398000000,-0.0011159384952323676,0.005222014048283237,-0.00100272475180117
1985442000000,-0.001116346252784217,0.005222889252068727,-0.0010027247870216596
1985460000000,-0.0011167424198740275,0.005223738655407316,-0.0010027248212550119
1985499000000,-0.001117138983791303,0.005224588000386924,-0.0010027248555364923
1985528000000,-0.0011175479802907713,0.00522546302196786,-0.001002724890907223
1985576000000,-0.0011179453511887304,0.0052263122482080005,-0.0010027249252866355
1985619000000,-0.0011183431201964482,0.005227161415839732,-0.0010027249597144017
1985659000000,-0.001118753359647063,0.005228036254437286,-0.0010027249952360845
1985688000000,-0.0011191519382436768,0.005228885302821814,-0.0010027250297622511
1985735000000,-0.0011195509162370302,0.005229734292347241,-0.001002725064336997
1985735000000,-0.0011199624026569073,0.0052306089471787255,-0.0010027251000103606
1985779000000,-0.001120362192856863,0.0052314578169467656,-0.0010027251346839752
1985793000000,-0.0011207623837452326,0.005232306627603719,-0.001002725169406412
1985832000000,-0.001121175121167133,0.00523318109788251,-0.0010027252052321675
1985876000000,-0.001121576126889361,0.005234029788269375,-0.0010027252400539345
1985923000000,-0.001121977534596379,0.005234878419292023,-0.00100272527492477
1985960000000,-0.0011223915270677778,0.005235752704227797,-0.0010027253109036495
1985960000000,-0.001122793752245505,0.00523660121446505,-0.0010027253458742974
1986007000000,-0.0011231963807091447,0.005237449665083557,-0.0010027253808942115
1986026000000,-0.0011236116322922854,0.005238323763881936,-0.0010027254170269645
1986065000000,-0.0011240150808730998,0.005239172093197246,-0.0010027254521471872
1986093000000,-0.0011244189340456788,0.005240020362638185,-0.0010027254873169293
1986139000000,-0.0011248354488176387,0.005240894274500873,-0.001002725523604267
1986182000000,-0.001125240124763535,0.005241742422118212,-0.0010027255588747758
1986226000000,-0.0011256452066118342,0.005242590509604261,-0.0010027255941950398
1986271000000,-0.0011260629886645796,0.005243464233729046,-0.001002725630637736
1986271000000,-0.0011264688959520307,0.005244312198868454,-0.0010027256660592489
1986315000000,-0.0011268752104573098,0.005245160103618338,-0.001002725701530753
1986327000000,-0.001127294263897776,0.0052460336391989895,-0.0010027257381295361
1986372000000,-0.0011277014065177848,0.005246881421076729,-0.0010027257737027853
1986418000000,-0.0011281089576758562,0.00524772914230544,-0.0010027258093262686
1986463000000,-0.0011285292866259717,0.005248602488531739,-0.0010027258460818707
1986463000000,-0.0011289376685841438,0.005249450086360136,-0.0010027258818075917
1986507000000,-0.0011293464604054428,0.005250297623278651,-0.0010027259175837758
1986527000000,-0.0011297680690022212,0.00525117077933645,-0.0010027259544969636
1986568000000,-0.0011301776943188156,0.0052520181923238225,-0.0010027259903758676
1986613000000,-0.0011305877308284461,0.0052528655441393,-0.0010027260263054914
1986661000000,-0.0011310106232240514,0.005253738509210329,-0.0010027260633770005
1986661000000,-0.00113142149593404,0.005254585736561209,-0.0010027260994098404
1986703000000,-0.0011318327811718348,0.0052554329024768484,-0.0010027261354936291
1986727000000,-0.0011322569615336278,0.005256305675738778,-0.00100272617272424
1986762000000,-0.001132669085686754,0.005257152716653768,-0.0010027262089117445
1986793000000,-0.001133081623707356,0.005257999695868799,-0.0010027262451504475
1986835000000,-0.0011335070962179622,0.005258872276495185,-0.0010027262825409132
1986879000000,-0.0011339204758788095,0.005259719130170823,-0.001002726318883821
1986903000000,-0.0011343342707517117,0.0052605659218804696,-0.0010027263552781704
1986944000000,-0.001134761039609077,0.005261438309040835,-0.0010027263928292784
1986989000000,-0.0011351756788571246,0.0052622849746696895,-0.0010027264293283322
1987026000000,-0.0011355907346667395,0.005263131578065242,-0.0010027264658790842
1987052000000,-0.0011360188040842132,0.005264003770924966,-0.001002726503591577
1987094000000,-0.0011364347070139053,0.005264850247695559,-0.0010027265402475366
1987094000000,-0.0011368510278596203,0.005265696661964172,-0.0010027265769554337
1987138000000,-0.0011372804020659995,0.005266568659684389,-0.0010027266148301163
1987160000000,-0.0011376975703383217,0.00526741495564746,-0.001002726652155013
1987204000000,-0.0011381151508493854,0.00526826119449756,-0.001002726689903543
1987248000000,-0.001138545816818725,0.005269133013617019,-0.0010027267289071835
1987292000000,-0.0011389642354462486,0.005269979128967519,-0.0010027267668162969
1987337000000,-0.0011393830675500653,0.005270825183183635,-0.0010027268047766748
1987337000000,-0.0011398150244584819,0.005271696811372276,-0.0010027268439422067
1987386000000,-0.0011402346973897939,0.005272542741197192,-0.0010027268820089578
1987393000000,-0.001140654785122733,0.0052733886096232715,-0.0010027269201281705
1987436000000,-0.00114108803709653,0.0052742600461161025,-0.0010027269594574534
1987480000000,-0.0011415089683507306,0.005275105789616346,-0.0010027269976834279
1987521000000,-0.001141930315735746,0.005275951471454066,-0.001002727035962117
1987547000000,-0.0011423648669247584,0.005276822715428246,-0.0010027270754560044
1987586000000,-0.0011427870605345176,0.005277668271803705,-0.0010027271138419967
1987629000000,-0.00114320967160906,0.005278513766251692,-0.0010027271522809883
1987630000000,-0.0011436455261781197,0.005279384816880144,-0.0010027271919403093
1987679000000,-0.0011440689861906645,0.005280230185326704,-0.0010027272304871417
1987693000000,-0.0011444928650067802,0.00528107549157959,-0.0010027272690872092
1987731000000,-0.0011449300271357786,0.005281946348031127,-0.0010027273089127618
1987769000000,-0.0011453547576129588,0.005282791527740698,-0.0010027273476212253
1987813000000,-0.0011457799082373469,0.0052836366449890825,-0.001002727386383167
1987841000000,-0.0011462183821212757,0.005284507306428432,-0.0010027274263757942
1987872000000,-0.0011466443871396437,0.005285352296588985,-0.0010027274652466486
1987913000000,-0.0011470708136537156,0.0052861972240194665,-0.001002727504171269
1987959000000,-0.0011475106035027669,0.005287067689607224,-0.0010027275443317586
1988002000000,-0.0011479378871536248,0.005287912489402722,-0.0010027275833658054
1988002000000,-0.0011483656336181052,0.005288757180662304,-0.001002727615085991
1988046000000,-0.0011488070003381626,0.005289627318182375,-0.0010027276411643526
1988060000000,-0.001149236042423717,0.00529047174466199,-0.001002727666863934
1988104000000,-0.0011496657327195025,0.005291316053182122,-0.0010027276927028171
1988148000000,-0.0012410777049704962,0.0052816959534498185,-0.0010026035693378559
1988192000000,-0.0014535772330435386,0.00525451836259438,-0.001002572391016563
1988234000000,-0.0017426616328610452,0.005207830528150902,-0.0010028834812890741
1988235000000,-0.0020439898584676437,0.0051492486939753645,-0.0010030347050571896
1988279000000,-0.002335073276976906,0.00508233265340038,-0.0010032017480517685
1988293000000,-0.0026243262715195384,0.005005609838854943,-0.0010034061028771461
1988334000000,-0.0029200480524267996,0.004916346392404831,-0.001003659859611969
1988379000000,-0.003204460056378744,0.0048198504542752854,-0.0010039520295111425
1988422000000,-0.0034857633297791335,0.004713718822158531,-0.0010041742918356598
1988466000000,-0.003771656976141444,0.004594330746878083,-0.0010043145459314902
1988466000000,-0.004045288406808026,0.004468967161134993,-0.0010044667458111618
1988509000000,-0.0043145839430746,0.004334588134183175,-0.0010046109852025371
1988527000000,-0.00458689221285093,0.004187111471412,-0.001004738666528348
1988573000000,-0.00484565993545009,0.004035146339616026,-0.0010047817302916116
1988621000000,-0.005098668265010715,0.0038745165790953816,-0.0010046776225684229
1988663000000,-0.005353948287925276,0.003700213297276253,-0.001004388423925414
1988664000000,-0.00560321146621347,0.0035262791624808614,-0.00100316607732134
1988707000000,-0.005894817747470579,0.003381475117770704,-0.0010033968970390092
1988727000000,-0.006226559945135227,0.0032593325193522693,-0.0010040682552584154
1988767000000,-0.006528870157507038,0.0031197814550192543,-0.0010030650194937409
1988813000000,-0.0067688651941623925,0.0029294524403688394,-0.0010043862640189659
1988853000000,-0.006983404308896517,0.0027128012195332145,-0.0010050239900655684
1988896000000,-0.0071807253117445865,0.0025003925670951986,-0.0010049083405142129
1988896000000,-0.007370610163992803,0.0022825183294262544,-0.001004692781016371
1988940000000,-0.007558458287723085,0.0020522428320310284,-0.0010044892210080841
1988960000000,-0.007733306762734586,0.0018230212925921707,-0.00100432219756608
1988999000000,-0.007900674805043537,0.0015881960553314669,-0.001004182398531464
1989048000000,-0.008064921563085964,0.0013406330052921495,-0.0010039592678433365
1989093000000,-0.00821619840923757,0.0010951927182841856,-0.0010036681266567121
1989141000000,-0.008359531051361566,0.0008447165207395857,-0.0010034311433982958
1989141000000,-0.00849875343223493,0.0005815664480154636,-0.0010032280467941086
1989189000000,-0.008625515566178013,0.00032142988263185587,-0.0010030663954883334
1989193000000,-0.008743878453948662,5.6858801555404424e-05,-0.0010029359824739875
1989232000000,-0.008856879205785859,-0.0002201212704496542,-0.0010028311562516462
1989276000000,-0.008957715182594255,-0.0004929654174086044,-0.0010027557482140577
1989320000000,-0.009049693586240033,-0.0007695008437191581,-0.0010027046563932107
1989363000000,-0.009135046049435547,-0.0010579948813569731,-0.001002676431314662
1989364000000,-0.009208614044235142,-0.001341194024933959,-0.0010026723838431825
1989406000000,-0.009272917815616222,-0.0016272477525141335,-0.0010026916135372418
1989427000000,-0.009329354231746242,-0.0019246448295263527,-0.0010027367269009844
1989469000000,-0.0093744890249446,-0.00221558063449755,-0.0010028066574524139
1989514000000,-0.009410021690823021,-0.0025084523244263864,-0.0010029045823101886
1989557000000,-0.009436488438768471,-0.0028118822205828974,-0.0010030378323431406
1989603000000,-0.009452245392366242,-0.0031076776398292006,-0.0010032022551264078
1989603000000,-0.009458144002791146,-0.0034043905168076828,-0.0010034054839186922
1989635000000,-0.009453910247660555,-0.0037138126304784424,-0.0010036784623901791
1989660000000,-0.009439561306345197,-0.00401444590049088,-0.001003957806795193
1989703000000,-0.009415048428945739,-0.004314671260189189,-0.0010041376530240329
1989747000000,-0.00937907753516004,-0.0046230834395414935,-0.0010042823691505734
1989791000000,-0.00933395892345271,-0.004921484772345621,-0.00100443930338983
1989836000000,-0.009278916228103713,-0.005218435449672539,-0.0010045924949051918
1989836000000,-0.009212028962140597,-0.005522138164531367,-0.0010047258924170376
1989882000000,-0.00913686367551323,-0.00581431346155219,-0.0010047530844179212
1989893000000,-0.009051651790444822,-0.006103993632825118,-0.0010046423478057807
1989937000000,-0.008953211382209296,-0.006401569074028822,-0.0010041694668359372
1989981000000,-0.008851352048408909,-0.006702191745555491,-0.0010034490605613199
1990026000000,-0.008777880661586678,-0.007054057657284764,-0.0010039520969615558
1990069000000,-0.008716768760442691,-0.007451067012743657,-0.0010042744435940325
1990069000000,-0.008612842188196612,-0.007835508152136173,-0.0010037863194004779
1990113000000,-0.008446054470151078,-0.008183069167048591,-0.0010042345199537638
1990127000000,-0.008286549765787165,-0.008469484246914447,-0.0010051551579915233
1990168000000,-0.00813697281145611,-0.008718064431351398,-0.0010048474546907604
1990212000000,-0.007979523235414336,-0.00896149682734481,-0.001004651530736471
1990254000000,-0.0078095996468114616,-0.00920625371942231,-0.0010044594171077885
1990289000000,-0.007637122005916231,-0.009438142990195332,-0.0010042993426396599
1990309000000,-0.007457191233950248,-0.009664343531071127,-0.0010041663222562953
1990354000000,-0.007264150391075398,-0.009891005760151202,-0.0010039331943140772
1990404000000,-0.007069577094073079,-0.010104569661045741,-0.001003640735749333
1990404000000,-0.006867961811863574,-0.010311890959039272,-0.0010034098988555978
1990446000000,-0.006653012758146799,-0.010518745992791149,-0.0010032126540175067
1990459000000,-0.006437528269698791,-0.010712757781199126,-0.0010030562047199446
1990503000000,-0.006215456896606979,-0.010899899402395824,-0.0010029306092642284
1990552000000,-0.005979958169053218,-0.011085301925694452,-0.001002830413379393
1990597000000,-0.005745084299804465,-0.011257841023776471,-0.0010027592339537997
1990597000000,-0.005504211636342132,-0.011422866614815667,-0.001002712157374186
1990639000000,-0.005249996084127503,-0.011584813808783314,-0.0010026878878555204
1990660000000,-0.004997626418068854,-0.011733945821228494,-0.0010026875365456087
1990707000000,-0.004739951900281259,-0.011874943036755979,-0.0010027103468053487
1990751000000,-0.004469185181651509,-0.012011497513360832,-0.0010027590470185373
1990793000000,-0.0042015215941982025,-0.012135381009293605,-0.0010028323689728023
1990805000000,-0.003929345401009497,-0.012250551859867058,-0.0010029335939103039
1990840000000,-0.0036445030230862806,-0.012359910403554011,-0.0010030701268132318
1990888000000,-0.0033640568166719742,-0.012456845781511433,-0.0010032375718559243
1990936000000,-0.003080007311246262,-0.012544542770091064,-0.0010034435643132
1990936000000,-0.002783935718549203,-0.012625065012103098,-0.0010037007684517672
1990980000000,-0.0024936482360670646,-0.012693510460140767,-0.0010039801876428056
1990993000000,-0.0022010601850536533,-0.012752053985435616,-0.0010041920080866087
1991035000000,-0.0018978011119706643,-0.012801864950052868,-0.0010043325455916068
1991079000000,-0.0016021975297296253,-0.012840102007783842,-0.0010044861688876354
1991123000000,-0.001306178399575246,-0.012868398501727645,-0.0010046270353315095
1991167000000,-0.001001409531917219,-0.012887171989151163,-0.0010047578065784137
1991167000000,-0.0007065244507993493,-0.012894704989328135,-0.0010047718591141667
1991211000000,-0.00041001349223777125,-0.012891935168170122,-0.0010047149659408137
1991227000000,-7.344301537103026e-05,-0.012879043535569219,-0.0010041163202623889
1991266000000,0.00026756167442475165,-0.012860526643688492,-0.0010037624823137255
1991309000000,0.0006659872271637408,-0.012872471983407,-0.001004421686970569
1991351000000,0.0011135011147172785,-0.012886239560959448,-0.0010039916046385884
1991396000000,0.0015622563410029149,-0.012842896952366924,-0.0010034279928891228
1991396000000,0.001968950340754899,-0.012767187422160348,-0.0010032372265574088
1991444000000,0.0023160002155087423,-0.012688470331485414,-0.001004572024913452
1991460000000,0.002598426066554656,-0.01261266629723537,-0.001004813168388543
1991504000000,0.0028770837915158727,-0.012528592647374118,-0.0010045978823339588
1991551000000,0.0031603412716481893,-0.012432914756320902,-0.0010044187978050408
1991596000000,0.0034317650751673943,-0.0123312162022224,-0.0010042658899547495
1991596000000,0.003699732388195116,-0.01222079121619556,-0.0010041390105106351
1991639000000,0.003971611612769543,-0.012097846677004323,-0.0010038737296386435
1991660000000,0.004231378934808812,-0.01196982176359392,-0.0010036054333913483
1991703000000,0.004487032110242782,-0.011833298018701569,-0.0010033807444066282
1991732000000,0.004745900351626429,-0.011683825838856394,-0.0010031891734508108
1991766000000,0.004992519934872219,-0.011530287392437472,-0.0010030377529090667
1991810000000,0.005234329634351522,-0.011368514953688555,-0.0010029168092067324
1991855000000,0.005478172526987629,-0.011193349174196296,-0.001002821097242191
1991900000000,0.005709443970869062,-0.011015224172354099,-0.0010027540398420166
1991900000000,0.005935136566630512,-0.010829249590369284,-0.0010027109167448124
1991943000000,0.006161560364034381,-0.010629588841366097,-0.0010026905960225825
1991960000000,0.006375131448145369,-0.0104281531090484,-0.0010026939999375518
1992001000000,0.006582341807954137,-0.010219359532559018,-0.0010027205261749043
1992045000000,0.006788908213082943,-0.009996738752123912,-0.0010027730468352425
1992082000000,0.0069824192791355265,-0.00977358788436786,-0.001002850094266667
1992106000000,0.007168800172872849,-0.00954367606350096,-0.0010029550772302567
1992150000000,0.007353107370644676,-0.009299960809144704,-0.0010030955157630285
1992189000000,0.007524244841702244,-0.009057021466795562,-0.0010032667567684249
1992237000000,0.007687499945703713,-0.008808041909201075,-0.0010034764770306716
1992237000000,0.007847198617921276,-0.008545489544814731,-0.0010037372911341283
1992282000000,0.007993685079763984,-0.008285128488485859,-0.0010040240621065517
1992293000000,0.008131321107758764,-0.008019766379312152,-0.001004230746860825
1992333000000,0.008263558370477365,-0.007741629651925452,-0.001004372405686134
1992360000000,0.008382628300373516,-0.007467503620116342,-0.0010045209908104077
1992393000000,0.00849230407737017,-0.007190101118179103,-0.0010046559426742895
1992440000000,0.00859531214920565,-0.006901485288625566,-0.0010047757670469115
1992488000000,0.008684862957629063,-0.0066191068907164585,-0.0010047751062692949
1992533000000,0.008764073141382958,-0.006335651691016916,-0.0010046460783520832
1992533000000,0.008836414051015862,-0.006046737745051146,-0.0010043383295942968
1992577000000,0.008905613043155148,-0.005781427799950464,-0.0010032752961509732
1992593000000,0.009013108349719913,-0.005557885387306421,-0.0010034282893554743
1992627000000,0.009122975211149766,-0.005385661943981442,-0.0010042408691429486
1992668000000,0.00916480375538396,-0.005246771602557041,-0.001003965014589929
1992716000000,0.009177504827274708,-0.005065427088355139,-0.0010037998361890517
1992760000000,0.009188416177015967,-0.004813373169615876,-0.0010049204349348792
1992760000000,0.009193094891254172,-0.0045253220118803795,-0.001004859991559054
1992793000000,0.009188637653295193,-0.004233703540639477,-0.0010045183110391001
1992827000000,0.009174421788906413,-0.0039351825188500555,-0.0010043618519698892
1992869000000,0.0091511507878993,-0.003646154437137512,-0.0010042150297762224
1992909000000,0.009118455292674379,-0.003358034152421359,-0.0010040606735249279
1992953000000,0.009074900000120099,-0.0030625531419166867,-0.001003815934203612
1992993000000,0.009023069350689,-0.0027773457112064658,-0.0010035484744796014
1992993000000,0.008961921463460256,-0.0024936920473617686,-0.0010033299779193226
1993027000000,0.008889176926150844,-0.002203324841662474,-0.0010031442228535352
1993060000000,0.00880913467533487,-0.0019235852686681622,-0.0010029980916242236
1993102000000,0.00871982628041075,-0.001646172820478594,-0.0010028821672564692
1993146000000,0.008618163258135216,-0.0013630821026169265,-0.0010027914136953656
1993179000000,0.008510179168731053,-0.001091258691843487,-0.001002729018571638
1993199000000,0.00839308675456717,-0.000822626669538837,-0.0010026904575168513
1993241000000,0.0082629982537673,-0.0005495038219089626,-0.0010026747765548988
1993285000000,0.008127653798696208,-0.0002882612360805459,-0.0010026826644403443
1993329000000,0.007983460771091796,-3.111066187614156e-05,-0.0010027136921592315
1993329000000,0.007825758084864966,0.00022923514332831574,-0.0010027709053411077
1993373000000,0.007663945770015313,0.00047715278589442094,-0.0010028525930240173
1993393000000,0.007493650107242926,0.0007200654379780525,-0.0010029623279778459
1993438000000,0.00730947533878247,0.000964783738460275,-0.0010031077969212022
1993486000000,0.007122419772115002,0.0011965996062398548,-0.0010032840468023572
1993530000000,0.006927368843303204,0.0014224850345612066,-0.0010034988575206329
1993530000000,0.006718251709510695,0.0016486839217011206,-0.001003764883242577
1993573000000,0.006507591598758401,0.0018615671843283848,-0.001004065668292014
1993593000000,0.006289682624547302,0.0020672957205802823,-0.0010042463735081102
1993633000000,0.0060579213969309004,0.0022714041226564105,-0.001004387941352134
1993677000000,0.005826286689732368,0.0024618427940001756,-0.0010045363719596787
1993721000000,0.005588800209882708,0.0026442293412114086,-0.0010046683189059227
1993765000000,0.005338507679224813,0.0028233871812887055,-0.0010047791760099956
1993765000000,0.005090321566089479,0.0029880361230532762,-0.0010047635323882677
1993813000000,0.0048377339755918064,0.0031434073411230994,-0.0010046097364282969
1993827000000,0.0045754686393985455,0.0032946962115877913,-0.0010041802819453043
1993860000000,0.004331652519951124,0.0034490070395784347,-0.0010028562786623813
1993907000000,0.004125422469444488,0.0036475798257213105,-0.001003909053605801
1993952000000,0.003957897731466318,0.0038454152969382193,-0.0010037254648493678
1993994000000,0.0038068527268133676,0.0039705340882066325,-0.00100389922864964
1993994000000,0.0036175341675445207,0.004041740873946979,-0.0010042849631495335
1994028000000,0.003359538510701008,0.0041281894460432015,-0.0010052907456850196
1994060000000,0.0030823784118479184,0.004212863039416939,-0.0010048527209719632
1994099000000,0.0028043558293761287,0.004287830897652039,-0.001004635562981037
1994142000000,0.0025159253626908734,0.004355594354540773,-0.0010044321835430865
1994186000000,0.0022340285112057877,0.0044121730091851025,-0.0010042738202306264
1994230000000,0.0019503705979738895,0.004459493220059107,-0.0010040863082674198
1994230000000,0.0016566476955488618,0.004498518705710431,-0.0010038575538560274
1994274000000,0.0013704503198707792,0.00452682949032585,-0.001003573422476478
1994293000000,0.001083158788041942,0.00454582972812014,-0.0010033467798203112
1994332000000,0.000786278869785492,0.00455559465404171,-0.0010031526717869318
1994381000000,0.0004960231787641879,0.004555490690919112,-0.0010029713749363338
1994425000000,0.0002035935144611505,0.004545942825977173,-0.0010028523206590707
1994468000000,-5.418302311494417e-05,0.004530106154434769,-0.0010027710180994971
1994469000000,-0.00028160407088779257,0.004509689128452479,-0.0010027194200837898
1994517000000,-0.0005087531876858771,0.004483468325949012,-0.0010026820000047613
1994527000000,-0.000742444126706359,0.004450283293220534,-0.0010026588584554214
1994573000000,-0.000968785449574276,0.0044120747017754045,-0.001002650701330647
1994617000000,-0.0011945116792581858,0.0043679493231591655,-0.0010026565705160036
1994655000000,-0.001426279379702895,0.004316295196286014,-0.0010026774595905848
1994702000000,-0.0016503018287000954,0.00426015159039686,-0.0010027125395543346
1994703000000,-0.0018732561879432758,0.004198093669354693,-0.0010027628322663573
1994745000000,-0.00210168672800523,0.004127978596630114,-0.0010028314713130364
1994760000000,-0.002321995856286615,0.004053944124869879,-0.0010029155532233457
1994806000000,-0.0025407624287049194,0.003974034997046301,-0.0010030182003909448
1994853000000,-0.002764373989451915,0.0038855836073032318,-0.0010031450535784511
1994898000000,-0.002979507845135532,0.0037938212784333803,-0.0010032904936264665
1994898000000,-0.003192599015168686,0.003696268518573037,-0.001003459887128473
1994943000000,-0.00340982857412902,0.0035897457172881604,-0.0010036615744534842
1994960000000,-0.0036182361277702167,0.0034805680027920984,-0.0010038855978347222
1995004000000,-0.0038240522052249187,0.0033657561112536974,-0.0010041033785750109
1995049000000,-0.004032889327125675,0.003241625746684838,-0.001004225716154078
1995094000000,-0.004232370514268715,0.0031156307764211907,-0.001004332304923701
1995094000000,-0.004428738255430775,0.0029842558327505416,-0.001004451176175189
1995141000000,-0.004627482987651258,0.002843503203839274,-0.0010045694604556114
1995160000000,-0.004816540236118921,0.0027019784298636146,-0.001004671832315309
1995204000000,-0.005001605817300985,0.002555773857048436,-0.001004754528228121
1995252000000,-0.005187739629084389,0.002400158115151822,-0.0010047612008797432
1995300000000,-0.005363902769456724,0.00224443882229007,-0.0010046763331798304
1995300000000,-0.005535940009241934,0.002084228194731721,-0.001004488798880012
1995343000000,-0.00571029925390419,0.001914166495054802,-0.001003976216736608
1995359000000,-0.005893145984470498,0.001753082591123165,-0.0010028289114988181
1995394000000,-0.0061290601321805135,0.001621952798531289,-0.0010032851225690344
1995426000000,-0.006393828119388224,0.0015307195657239788,-0.0010045772198480525
1995469000000,-0.006633614285971584,0.0014500399642625014,-0.0010032157568287924
1995515000000,-0.006811929997509359,0.0013457169635312674,-0.0010032036130510798
1995560000000,-0.006926968241885838,0.0012043908483356431,-0.0010047253555116528
1995560000000,-0.007051901075813934,0.0010309260322644764,-0.0010052884816730175
1995605000000,-0.007179539077818833,0.0008445532041697298,-0.0010049949290936167
1995627000000,-0.007305309737081307,0.0006500979406528031,-0.0010048127397589805
1995669000000,-0.0074221529470678595,0.0004589800762122226,-0.0010046497068055514
1995713000000,-0.0075339842395809355,0.00026536283322995237,-0.0010044950617766717
1995756000000,-0.007644036424069108,6.316284901244397e-05,-0.0010043557346166403
1995780000000,-0.007745832531746425,-0.00013573269232287997,-0.0010042454025557604
1995803000000,-0.007842499113655352,-0.0003371948029005324,-0.001004104318651628
1995849000000,-0.007936687316518472,-0.0005472398984964124,-0.0010039323969294363
1995891000000,-0.008022702960543403,-0.0007533560806187753,-0.0010036970457835588
1995936000000,-0.008103535266378418,-0.0009617687994082965,-0.0010035036535786628
1995936000000,-0.00818133196959079,-0.0011788161373443668,-0.00100333047074214
1995981000000,-0.008251456759909492,-0.0013916389609225353,-0.001003185325453397
1995993000000,-0.008316218055308104,-0.0016064902928505792,-0.0010030608542306238
1996036000000,-0.008377269066293432,-0.0018298632368959674,-0.001002952474421736
1996080000000,-0.0084309580027312,-0.0020485042933100347,-0.0010028651124340225
1996129000000,-0.008479105072304463,-0.00226883795663414,-0.0010027941447937408
1996129000000,-0.008522855359524618,-0.0024974901405840745,-0.0010027372168952692
1996176000000,-0.008559579612666852,-0.0027208813303852527,-0.0010026969986906484
1996193000000,-0.008590597666075452,-0.0029455831607217084,-0.0010026711625330496
1996236000000,-0.008616535097780183,-0.003178323311739126,-0.0010026593851395586
1996279000000,-0.008635818090426935,-0.0034052700506988793,-0.0010026624016774219
1996323000000,-0.008649252943813,-0.0036331104696196385,-0.001002679927211543
1996367000000,-0.008656934904993321,-0.003868637186290734,-0.001002713702044876
1996367000000,-0.008658373245447134,-0.004097831554503623,-0.0010027625914131658
1996412000000,-0.008653890084252254,-0.004331764838637762,-0.001002825143413679
1996427000000,-0.008642922564756699,-0.004571746905886792,-0.0010029198516634044
1996468000000,-0.008626097582935543,-0.004804702827608436,-0.0010030300807434903
1996512000000,-0.008603159515885438,-0.0050375949709712715,-0.0010031607895176937
1996555000000,-0.00857310966183554,-0.005277345457154856,-0.0010033189959515916
1996599000000,-0.008537700306516172,-0.005509674191592798,-0.0010034974695055793
1996599000000,-0.008496130944300954,-0.005741460136958795,-0.001003702491594028
1996643000000,-0.008446852113480985,-0.005979529413044845,-0.0010039406486780193
1996660000000,-0.008392761747681493,-0.00620955500310449,-0.001004116678262064
1996702000000,-0.00833242671309331,-0.006438157172033603,-0.0010042194284702634
1996745000000,-0.008263889930690268,-0.006672227374843472,-0.001004332636548845
1996789000000,-0.008191200358370565,-0.00689797293338361,-0.00100445569327701
1996834000000,-0.008112566720446909,-0.007121960489115294,-0.0010045735013170902
1996834000000,-0.008025539853449943,-0.007350453981225556,-0.0010046794889541286
1996878000000,-0.007935204322197737,-0.007569766744626319,-0.0010047441023871076
1996893000000,-0.007838942449400392,-0.007786461608270718,-0.0010047262714061797
1996933000000,-0.007733659856625912,-0.008007201359020432,-0.0010046132310452122
1996972000000,-0.007625259238262708,-0.00822016287347662,-0.0010043389060913517
1997015000000,-0.007508883866726615,-0.008436471475930006,-0.0010036934729977243
1997059000000,-0.007394005088415528,-0.008693758513199834,-0.0010031254910196734
1997102000000,-0.007316339821670966,-0.009001468784435864,-0.0010036851060435704
1997102000000,-0.007262831372991705,-0.009321106566866223,-0.0010043645518404525
1997145000000,-0.007186762111523727,-0.009635128377084367,-0.0010031778451540865
1997160000000,-0.0070596713028394315,-0.00988705025031925,-0.0010038529831510358
1997193000000,-0.006905219038421553,-0.010095394923833177,-0.0010051138212755252
1997227000000,-0.006762036685331027,-0.010277647259855784,-0.0010051402631948633
1997269000000,-0.006617868482256012,-0.010451508243062117,-0.0010049192964405804
1997314000000,-0.006469970088642543,-0.010621032551331242,-0.0010047515388949962
1997357000000,-0.006313713328911397,-0.010791215951216833,-0.0010045937236464568
1997401000000,-0.006158195707884957,-0.010952222582614557,-0.0010044486492814461
1997401000000,-0.005998793190549354,-0.011109229365478287,-0.0010043227266566083
1997448000000,-0.005830449315570075,-0.011266768797484112,-0.0010042065731212003
1997460000000,-0.005663179485208589,-0.011415303778209478,-0.0010040415614538216
1997504000000,-0.005492180148807656,-0.011559569796950416,-0.001003872858933639
1997548000000,-0.005312204206405102,-0.011703515757217228,-0.001003639525609442
1997574000000,-0.005133800734023338,-0.011838824849669579,-0.0010034555281829942
1997601000000,-0.0049517977333668065,-0.011969705364116245,-0.0010032956254741876
1997646000000,-0.004760590664531071,-0.012099832093801624,-0.0010031538813209395
1997690000000,-0.004571508449972099,-0.01222146218515155,-0.001003036746591312
1997731000000,-0.004379066612294541,-0.012338403706991527,-0.001002938129373597
1997731000000,-0.004177376873926418,-0.012453891109161114,-0.0010028544676445907
1997760000000,-0.003978403736671526,-0.01256103959381438,-0.0010027895592360746
1997793000000,-0.0037763672244951374,-0.012663229922236724,-0.0010027398429694398
1997833000000,-0.0035651182956731456,-0.01276323819187855,-0.0010027038684496288
1997877000000,-0.00335719851325058,-0.012855092587233349,-0.001002683368995904
1997922000000,-0.003146555445648906,-0.01294172617437074,-0.0010026769263154663
1997966000000,-0.0029268084286832984,-0.013025436222726523,-0.0010026850822777676
1997967000000,-0.002711011627795597,-0.013101214868465947,-0.0010027076827621127
1998012000000,-0.002492869424160737,-0.013171525374616064,-0.001002745307473036
1998027000000,-0.0022658041128834953,-0.013238165484986322,-0.0010028006298787202
1998066000000,-0.0020433130648290568,-0.013297138118491982,-0.0010028714721698646
1998113000000,-0.0018188923439184097,-0.013350414946017821,-0.0010029605263888117
1998154000000,-0.0015858075492835482,-0.013399274665525089,-0.0010030729840869862
1998198000000,-0.0013579253686841317,-0.013440773829607892,-0.0010032040915898682
1998198000000,-0.0011285746834326154,-0.013476372445670253,-0.0010033588784267335
1998246000000,-0.0008909124801215794,-0.013506813185382686,-0.0010035454187018837
1998260000000,-0.0006590965935024066,-0.01353024576335405,-0.001003754983751378
1998303000000,-0.00042639837015366654,-0.013547573419216518,-0.0010039609134160875
1998353000000,-0.00018605688295351627,-0.01355888160729534,-0.0010041317574438421
1998390000000,4.74027719742174e-05,-0.013563483548038355,-0.0010042348404791235
1998406000000,0.0002824327799795818,-0.013561887957773076,-0.001004372897663603
1998449000000,0.000528697573845759,-0.013554044085583679,-0.0010044384576695896
1998494000000,0.000766870708100666,-0.013540017809602454,-0.0010045570637162715
1998494000000,0.0010046753673176156,-0.013519803078719535,-0.001004662393496003
1998541000000,0.001249116124590422,-0.013492298423061072,-0.00100471246289777
1998560000000,0.0014858297401595597,-0.013458996830708902,-0.0010046683190694863
1998600000000,0.0017226853143166325,-0.013419362792973205,-0.001004531825417418
1998643000000,0.001969380261586123,-0.013371376221734288,-0.0010039577295031313
1998687000000,0.0022266339053158297,-0.013315688729836649,-0.0010036841321990689
1998730000000,0.0025350924696988008,-0.013271994971374816,-0.0010036363639266896
1998730000000,0.0029086210271301637,-0.013260189651496248,-0.0010037265985590425
1998760000000,0.0032828862305295634,-0.013247691907619596,-0.0010040901913407098
1998795000000,0.003656927419085569,-0.01318530275617309,-0.0010035686703997425
1998835000000,0.004002383319476764,-0.01307130549152688,-0.0010034859318078238
1998880000000,0.0042710503352392844,-0.012971741543532584,-0.0010045637707114287
1998925000000,0.004483797190053993,-0.01288485263603635,-0.0010049884228958209
1998969000000,0.004697948697554825,-0.012791172495077194,-0.0010048293336507794
1998969000000,0.004902430935941509,-0.012695514847233885,-0.0010046737448433096
1999014000000,0.005103739087454195,-0.012595119113117259,-0.0010045320357799647
1999027000000,0.005308056194915401,-0.012486674006906666,-0.001004392947354115
1999070000000,0.00550352095255098,-0.01237649545367324,-0.0010042761297684236
1999112000000,0.0056961210649808785,-0.012261395566636643,-0.0010041640054783106
1999156000000,0.005891326154308596,-0.012137740883773073,-0.0010039918018731643
1999195000000,0.006077551545883495,-0.012012881604028018,-0.0010037844150819764
1999200000000,0.006260565964319844,-0.011883277057415402,-0.001003582106533743
1999242000000,0.006445797882958317,-0.011744793123919762,-0.0010034013159486016
1999260000000,0.00662225536952408,-0.011605617328039336,-0.0010032496259492416
1999304000000,0.006795336157445035,-0.011461794385407871,-0.001003119339712196
1999346000000,0.00697002009299909,-0.011308808262252367,-0.0010030056282273533
1999390000000,0.007135920955718768,-0.01115571828269453,-0.0010029136160877722
1999435000000,0.007298119088733023,-0.01099815852229151,-0.0010028383943737965
1999435000000,0.007461240630261275,-0.010831222837256809,-0.001002777368020999
1999479000000,0.007615573560874653,-0.010664807605577592,-0.0010027333204102283
1999493000000,0.007765859654513646,-0.010494148820366636,-0.0010027036736077535
1999534000000,0.007916346303427364,-0.010313969134747452,-0.0010026878533146155
1999582000000,0.008018542384638276,-0.010186594204134064,-0.0010026748033030858
1999626000000,0.008042054031072802,-0.010155803043983716,-0.001002452737003657
1999668000000,0.008042745856892623,-0.01015621972350569,-0.0010024473610300115
1999668000000,0.008043411243305272,-0.010156621277587992,-0.0010024530759950405
1999712000000,0.008044054830148636,-0.010157009948264325,-0.0010024543399859177
1999727000000,0.008044712235553544,-0.010157407018317452,-0.0010024546455393545
1999768000000,0.008045348953236197,-0.010157791597345851,-0.0010024547010004208
1999811000000,0.008045985363346405,-0.010158175982805471,-0.0010024547022978066
1999855000000,0.008046641001591755,-0.010158571970660507,-0.001002454693798973
1999901000000,0.008047277365331167,-0.010158956305648684,-0.0010024546869985065
1999901000000,0.008047913753725423,-0.010159340643977895,-0.001002454683986062
1999927000000,0.008048569456484838,-0.010159736634879686,-0.0010024546851267052
1999960000000,0.008049205903846926,-0.010160120985396435,-0.001002454690134394
2000005000000,0.008049842380979274,-0.010160505342401207,-0.0010024546986728278
2000049000000,0.008050498176493458,-0.010160901353442362,-0.001002454710836466
2000077000000,0.008051134714194537,-0.010161285723789342,-0.0010024547256146238
2000116000000,0.008051771281734432,-0.010161670100752675,-0.0010024547430545518
2000165000000,0.008052427170406804,-0.010162066132446843,-0.001002454763553616
2000165000000,0.00805306379852295,-0.010162450522910574,-0.0010024547856823628
2000209000000,0.00805370045647228,-0.010162834920052476,-0.0010024548098101181
2000227000000,0.008054356438288038,-0.010163230972594936,-0.001002454836569515
2000269000000,0.00805499315680325,-0.010163615383345034,-0.0010024548642185646
2000313000000,0.008055629905147698,-0.010163999800819121,-0.0010024548933689065
2000357000000,0.008056285980094492,-0.010164395874353431,-0.0010024549248299833
2000391000000,0.008056922789229422,-0.01016478030565252,-0.001002454956659106
2000420000000,0.00805755962841996,-0.010165164743844409,-0.0010024549896499105
2000457000000,0.008058215797054622,-0.010165560838809698,-0.0010024550247203431
2000501000000,0.0080588526969481,-0.010165945290835294,-0.0010024550597073252
2000502000000,0.008059489626717748,-0.010166329749673289,-0.0010024550955421152
2000530000000,0.008060145888635734,-0.010166725865910511,-0.0010024551332686836
2000557000000,0.008060782879059753,-0.010167110338598042,-0.0010024551705966889
2000602000000,0.008061419899358654,-0.010167494818115783,-0.0010024552085614834
2000647000000,0.00806207625455015,-0.01016789095567731,-0.0010024552482822968
2000692000000,0.008062713335506006,-0.010168275449077965,-0.0010024552873692735
2000736000000,0.008063350446338812,-0.010168659949323196,-0.0010024553269349472
