%time,field.x,field.y,field.z
1659376599606994628,1.1498936414718628,0.14162103831768036,0.0
1659376599661448478,1.1499189138412476,0.1416216790676117,0.0
1659376599685056924,1.1499189138412476,0.1416216790676117,0.0
1659376599740360498,1.1499189138412476,0.1416216790676117,0.0
1659376599769134521,1.1498936414718628,0.14162103831768036,0.0
1659376599827057123,1.1498936414718628,0.14162103831768036,0.0
1659376599856592416,1.1498936414718628,0.14162103831768036,0.0
1659376599910713672,1.1498936414718628,0.14162103831768036,0.0
1659376599936820507,1.1498936414718628,0.14162103831768036,0.0
1659376599990525007,1.1498936414718628,0.14162103831768036,0.0
1659376600022210597,1.1499189138412476,0.1416216790676117,0.0
1659376600074098825,1.1499189138412476,0.1416216790676117,0.0
1659376600125413417,1.1498936414718628,0.14162103831768036,0.0
1659376600182103872,1.1498936414718628,0.14162103831768036,0.0
1659376600227432250,1.1498936414718628,0.14162103831768036,0.0
1659376600277655601,1.1498936414718628,0.14162103831768036,0.0
1659376600322268009,1.1498936414718628,0.14162103831768036,0.0
1659376600366816520,1.1498936414718628,0.14162103831768036,0.0
1659376600410200834,1.1498936414718628,0.14162103831768036,0.0
1659376600458445310,1.1499189138412476,0.1416216790676117,0.0
1659376600506301403,1.1499189138412476,0.1416216790676117,0.0
1659376600550535678,1.1498936414718628,0.14162103831768036,0.0
1659376600594320535,1.1498936414718628,0.14162103831768036,0.0
1659376600640209674,1.1499189138412476,0.1416216790676117,0.0
1659376600690117359,1.1498936414718628,0.14162103831768036,0.0
1659376600742174148,1.1498936414718628,0.14162103831768036,0.0
1659376600790560245,1.1498936414718628,0.14162103831768036,0.0
1659376600834291458,1.1498936414718628,0.14162103831768036,0.0
1659376600878983020,1.1499189138412476,0.1416216790676117,0.0
1659376600926622629,1.1498936414718628,0.14162103831768036,0.0
1659376600974359750,1.1498936414718628,0.14162103831768036,0.0
1659376601021140813,1.1498936414718628,0.14162103831768036,0.0
1659376601021291971,1.1499189138412476,0.1416216790676117,0.0
1659376601072690248,1.1498936414718628,0.14162103831768036,0.0
1659376601116700887,1.1499189138412476,0.1416216790676117,0.0
1659376601163693428,1.1499189138412476,0.1416216790676117,0.0
1659376601206257104,1.1498936414718628,0.14162103831768036,0.0
1659376601261448383,1.1499189138412476,0.1416216790676117,0.0
1659376601310442924,1.1498936414718628,0.14162103831768036,0.0
1659376601358554601,1.1498936414718628,0.14162103831768036,0.0
1659376601403360366,1.1498936414718628,0.14162103831768036,0.0
1659376601450318098,1.1499189138412476,0.1416216790676117,0.0
1659376601494302511,1.1499189138412476,0.1416216790676117,0.0
1659376601540735244,1.1498936414718628,0.14162103831768036,0.0
1659376601586432456,1.1492104530334473,0.14160461723804474,0.0
1659376601631740093,1.1470847129821777,0.1415645033121109,0.0
1659376601631857395,1.1423519849777222,0.14150898158550262,0.0
1659376601713803052,1.1382265090942383,0.14147572219371796,0.0
1659376601718876600,1.1316457986831665,0.141438290476799,0.0
1659376601766932010,1.1367079019546509,0.14143365621566772,0.0
1659376601814881563,1.1263315677642822,0.14157813787460327,0.0
1659376601868005037,1.1200820207595825,0.14174464344978333,0.0
1659376601914886236,1.1110273599624634,0.14208823442459106,0.0
1659376601958847761,1.104504942893982,0.14240507781505585,0.0
1659376602002799272,1.0953770875930786,0.14281640946865082,0.0
1659376602046199560,1.0912526845932007,0.14291536808013916,0.0
1659376602090248823,1.0970487594604492,0.1429501473903656,0.0
1659376602134331464,1.0920140743255615,0.14280404150485992,0.0
1659376602182755947,1.0842504501342773,0.14247921109199524,0.0
1659376602230940103,1.078359842300415,0.14219525456428528,0.0
1659376602231011867,1.069434642791748,0.14178429543972015,0.0
1659376602278347492,1.0635170936584473,0.1415376514196396,0.0
1659376602327907800,1.055023193359375,0.14111483097076416,0.0
1659376602383220672,1.0507290363311768,0.140842467546463,0.0
1659376602427400112,1.0444438457489014,0.14037755131721497,0.0
1659376602488110065,1.039449691772461,0.13996051251888275,0.0
1659376602534386634,1.031053900718689,0.13921944797039032,0.0
1659376602585795402,1.0252306461334229,0.13869614899158478,0.0
1659376602585960388,1.0165835618972778,0.13792352378368378,0.0
1659376602637664318,1.0114901065826416,0.13747994601726532,0.0
1659376602691439151,1.0027365684509277,0.13676312565803528,0.0
1659376602738412380,0.9985476732254028,0.13643662631511688,0.0
1659376602782319068,0.9925901889801025,0.13600222766399384,0.0
1659376602831410884,0.9883216023445129,0.1357264518737793,0.0
1659376602878170728,0.981195330619812,0.13532380759716034,0.0
1659376602922657489,0.9756590127944946,0.13505126535892487,0.0
1659376602970662593,0.9664281606674194,0.13467718660831451,0.0
1659376603014553546,0.9601291418075562,0.1344718039035797,0.0
1659376603062438964,0.9481611251831055,0.13416406512260437,0.0
1659376603107365131,0.9417839646339417,0.13404284417629242,0.0
1659376603154786825,0.9325716495513916,0.13392400741577148,0.0
1659376603204035997,0.9390258193016052,0.1339515596628189,0.0
1659376603250542163,0.9287247061729431,0.1340315192937851,0.0
1659376603294313669,0.9222716689109802,0.13415607810020447,0.0
1659376603338296175,0.9110370874404907,0.1344318389892578,0.0
1659376603386498212,0.9044840931892395,0.13461114466190338,0.0
1659376603434062480,0.8954538106918335,0.1349295675754547,0.0
1659376603479505777,0.8889302015304565,0.13522151112556458,0.0
1659376603479614496,0.8791752457618713,0.1357618123292923,0.0
1659376603534228086,0.8731904625892639,0.1361694633960724,0.0
1659376603583976030,0.8614379167556763,0.13716661930084229,0.0
1659376603638338804,0.855243444442749,0.13779674470424652,0.0
1659376603687353372,0.8465168476104736,0.13878896832466125,0.0
1659376603729683160,0.8401869535446167,0.13957300782203674,0.0
1659376603774975299,0.8309769630432129,0.14078210294246674,0.0
1659376603817775726,0.8250870108604431,0.14161105453968048,0.0
1659376603865678071,0.8153887987136841,0.14315639436244965,0.0
1659376603913373708,0.8097344636917114,0.14417600631713867,0.0
1659376603963913202,0.800846517086029,0.1459396332502365,0.0
1659376604005782127,0.7949801683425903,0.1471923440694809,0.0
1659376604050427675,0.7856230139732361,0.1493052989244461,0.0
1659376604093929767,0.7793939113616943,0.1507900208234787,0.0
1659376604138266801,0.7668758034706116,0.15394052863121033,0.0
1659376604184943914,0.7608292102813721,0.15552881360054016,0.0
1659376604229797124,0.7498173713684082,0.1585361212491989,0.0
1659376604285404443,0.743803858757019,0.16024555265903473,0.0
1659376604345211029,0.7356468439102173,0.16265130043029785,0.0
1659376604401203870,0.7293773293495178,0.164566308259964,0.0
1659376604401318550,0.719515323638916,0.16762948036193848,0.0
1659376604448269367,0.7133329510688782,0.16956926882266998,0.0
1659376604498039484,0.7019467353820801,0.17326819896697998,0.0
1659376604555317401,0.69578617811203,0.17535635828971863,0.0
1659376604599011898,0.6876539587974548,0.17817126214504242,0.0
1659376604646379232,0.681660532951355,0.1802782118320465,0.0
1659376604691371202,0.6720564961433411,0.18371427059173584,0.0
1659376604742669582,0.6660705208778381,0.1859167069196701,0.0
1659376604786045074,0.6553199887275696,0.19004623591899872,0.0
1659376604830221414,0.6492980718612671,0.19243812561035156,0.0
1659376604878296375,0.6412742137908936,0.19568602740764618,0.0
1659376604922645330,0.6351144909858704,0.19820980727672577,0.0
1659376604970167398,0.6260927319526672,0.20195944607257843,0.0
1659376605014555692,0.6199634075164795,0.20455621182918549,0.0
1659376605062431335,0.6083316206932068,0.20960600674152374,0.0
1659376605106477260,0.6026908159255981,0.2121204137802124,0.0
1659376605157375574,0.5932092070579529,0.21652166545391083,0.0
1659376605206357955,0.5874940156936646,0.2192959487438202,0.0
1659376605254314661,0.5766658782958984,0.22469273209571838,0.0
1659376605299293279,0.5712295174598694,0.22745944559574127,0.0
1659376605347486972,0.5635656714439392,0.2314838469028473,0.0
1659376605397387981,0.5580538511276245,0.2344873696565628,0.0
1659376605442182302,0.5490978956222534,0.2395261973142624,0.0
1659376605486423969,0.5434805154800415,0.24275565147399902,0.0
1659376605530218601,0.533141016960144,0.24884085357189178,0.0
1659376605574345588,0.527290403842926,0.2523724138736725,0.0
1659376605618417739,0.5193369388580322,0.2572684586048126,0.0
1659376605666406631,0.5135009288787842,0.26092052459716797,0.0
1659376605714468955,0.5039401650428772,0.2669224739074707,0.0
1659376605763857603,0.49806731939315796,0.270611047744751,0.0
1659376605810100078,0.48740166425704956,0.27732840180397034,0.0
1659376605854341745,0.48151883482933044,0.28104862570762634,0.0
1659376605898078680,0.47305354475975037,0.2864152193069458,0.0
1659376605942561864,0.46731042861938477,0.29007217288017273,0.0
1659376605990272760,0.4583151638507843,0.29587841033935547,0.0
1659376606051878213,0.4524243474006653,0.29972660541534424,0.0
1659376606052028894,0.4448724091053009,0.304688036441803,0.0
1659376606098883867,0.43900156021118164,0.3085666596889496,0.0
1659376606114470958,0.43074554204940796,0.31402361392974854,0.0
1659376606168562889,0.4250020682811737,0.3178195357322693,0.0
1659376606216848611,0.41664761304855347,0.3234027326107025,0.0
1659376606263244628,0.4108469486236572,0.327340692281723,0.0
1659376606306155443,0.4029786288738251,0.332738995552063,0.0
1659376606357157945,0.3972281813621521,0.3367055058479309,0.0
1659376606402147293,0.3895145654678345,0.3420161008834839,0.0
1659376606452869653,0.38411107659339905,0.3457277715206146,0.0
1659376606453050613,0.3769506812095642,0.3506813645362854,0.0
1659376606508110046,0.37182706594467163,0.35426366329193115,0.0
1659376606528999090,0.3646862208843231,0.3593333959579468,0.0
1659376606583827257,0.3602997958660126,0.3625110685825348,0.0
1659376606639507293,0.3532046377658844,0.36773043870925903,0.0
1659376606707267045,0.34971311688423157,0.3703307509422302,0.0
1659376606754057407,0.3451076149940491,0.3738080859184265,0.0
1659376606802636623,0.34181174635887146,0.37633150815963745,0.0
1659376606850338459,0.3364720046520233,0.38047361373901367,0.0
1659376606894432544,0.3332065939903259,0.383036345243454,0.0
1659376606943011760,0.32746177911758423,0.3876051604747772,0.0
1659376606986458063,0.3242894411087036,0.3901629149913788,0.0
1659376607033456325,0.3196016848087311,0.393986314535141,0.0
1659376607084525823,0.3164181709289551,0.39661046862602234,0.0
1659376607084626913,0.3114036023616791,0.4007934033870697,0.0
1659376607130804061,0.3087165057659149,0.4030643403530121,0.0
1659376607181052207,0.3079291582107544,0.4037403166294098,0.0
1659376607238212585,0.30878886580467224,0.40299323201179504,0.0
1659376607286266565,0.3100300431251526,0.4019133448600769,0.0
1659376607342389583,0.3100109398365021,0.40192994475364685,0.0
1659376607394546031,0.3066672682762146,0.40483495593070984,0.0
1659376607447983980,0.30366250872612,0.4074353873729706,0.0
1659376607499545335,0.29565873742103577,0.4143156409263611,0.0
1659376607554486751,0.29100120067596436,0.4182937443256378,0.0
1659376607608977317,0.2804320156574249,0.4271973967552185,0.0
1659376607664787530,0.2752130925655365,0.4315304756164551,0.0
1659376607716066122,0.26667067408561707,0.4385567009449005,0.0
1659376607771084070,0.262774258852005,0.4417484998703003,0.0
1659376607814486265,0.25905075669288635,0.44479191303253174,0.0
1659376607863109827,0.2575978636741638,0.4459739327430725,0.0
1659376607908481121,0.2567143142223358,0.44669270515441895,0.0
1659376607957618951,0.2561057209968567,0.4471879303455353,0.0
1659376608002531051,0.25213590264320374,0.450409859418869,0.0
1659376608047484159,0.24894556403160095,0.45298561453819275,0.0
1659376608090297937,0.24337324500083923,0.45744597911834717,0.0
1659376608136239767,0.23898440599441528,0.4609139859676361,0.0
1659376608184642076,0.23191234469413757,0.4663742482662201,0.0
1659376608231950283,0.22713720798492432,0.4699629247188568,0.0
1659376608281361103,0.21788538992404938,0.47677820920944214,0.0
1659376608340742588,0.21278490126132965,0.4804801940917969,0.0
1659376608340862512,0.20499271154403687,0.48603156208992004,0.0
1659376608424913167,0.19963449239730835,0.48976418375968933,0.0
1659376608431572914,0.18975195288658142,0.4965663552284241,0.0
1659376608486073017,0.18438099324703217,0.500235915184021,0.0
1659376608544036865,0.17303375899791718,0.5078093409538269,0.0
1659376608598512887,0.16738614439964294,0.5114744305610657,0.0
1659376608642147541,0.1595703810453415,0.5164473652839661,0.0
1659376608687481641,0.15405744314193726,0.5198999643325806,0.0
1659376608730284452,0.14622703194618225,0.5247544050216675,0.0
1659376608777147531,0.14130032062530518,0.5277594327926636,0.0
1659376608828138589,0.13508522510528564,0.5314211249351501,0.0
1659376608880564451,0.13107557594776154,0.5336889028549194,0.0
1659376608926198959,0.12266027927398682,0.5382406711578369,0.0
1659376608974867820,0.1177205890417099,0.5408108830451965,0.0
1659376609018263816,0.1099620908498764,0.5447624921798706,0.0
1659376609062436103,0.10454798489809036,0.5474607944488525,0.0
1659376609106243371,0.09550895541906357,0.5517917275428772,0.0
1659376609154312133,0.0897788479924202,0.554415762424469,0.0
1659376609198206901,0.0792521983385086,0.5590865612030029,0.0
1659376609242624521,0.0733272060751915,0.5616461634635925,0.0
1659376609288281917,0.06520958244800568,0.5650647878646851,0.0
1659376609334477663,0.05910048633813858,0.5675786137580872,0.0
1659376609382664680,0.04922889173030853,0.5715230703353882,0.0
1659376609426562309,0.04297713190317154,0.573952853679657,0.0
1659376609473997831,0.03180181607604027,0.578175961971283,0.0
1659376609523388624,0.025740381330251694,0.5803931951522827,0.0
1659376609523482561,0.017149418592453003,0.5834298133850098,0.0
1659376609578620910,0.011112314648926258,0.585487961769104,0.0
1659376609611745595,0.0020592992659658194,0.5885037779808044,0.0
1659376609666913270,-0.004029069095849991,0.5904881954193115,0.0
1659376609710590362,-0.012592975981533527,0.593207597732544,0.0
1659376609754820823,-0.018905578181147575,0.5951547622680664,0.0
1659376609801632165,-0.02832101099193096,0.597946286201477,0.0
1659376609846772670,-0.03460110351443291,0.5997360944747925,0.0
1659376609890430212,-0.04587164148688316,0.6028527617454529,0.0
1659376609934257507,-0.05212634056806564,0.6045448184013367,0.0
1659376609982263803,-0.060987893491983414,0.6068736910820007,0.0
1659376610026689291,-0.0672949030995369,0.6084657311439514,0.0
1659376610070417165,-0.07651973515748978,0.6106998324394226,0.0
1659376610114748239,-0.0828305259346962,0.6121689081192017,0.0
1659376610161491394,-0.09410103410482407,0.6146560311317444,0.0
1659376610213866949,-0.10017424076795578,0.6159090399742126,0.0
1659376610258441448,-0.10904902219772339,0.6176078915596008,0.0
1659376610302863836,-0.11490588635206223,0.618645191192627,0.0
1659376610350306749,-0.12450101226568222,0.6201938390731812,0.0
1659376610394331455,-0.13046333193778992,0.6210532784461975,0.0
1659376610438809156,-0.1413598507642746,0.622443437576294,0.0
1659376610486803531,-0.14747267961502075,0.623123049736023,0.0
1659376610531268596,-0.15616309642791748,0.6239760518074036,0.0
1659376610579788446,-0.16239163279533386,0.624514102935791,0.0
1659376610621997594,-0.1718325912952423,0.625204861164093,0.0
1659376610665900468,-0.17825016379356384,0.6255864500999451,0.0
1659376610713883399,-0.18990583717823029,0.6261274814605713,0.0
1659376610762712717,-0.1962549388408661,0.626349687576294,0.0
1659376610805619239,-0.20528830587863922,0.626564085483551,0.0
1659376610850841760,-0.21161557734012604,0.6266356706619263,0.0
1659376610850975751,-0.20257966220378876,0.6266283988952637,0.0
1659376610901491403,-0.20933742821216583,0.6265770792961121,0.0
1659376610929696083,-0.2192584127187729,0.6264504790306091,0.0
1659376610989064216,-0.22614209353923798,0.6263436079025269,0.0
1659376611033892631,-0.23548008501529694,0.6261675953865051,0.0
1659376611080470085,-0.24210987985134125,0.626021683216095,0.0
1659376611125922918,-0.24965113401412964,0.6258801221847534,0.0
1659376611169690608,-0.25514331459999084,0.6258291602134705,0.0
1659376611213661432,-0.24676547944545746,0.625817060470581,0.0
1659376611257757425,-0.2528398931026459,0.6258606314659119,0.0
1659376611305935859,-0.26433059573173523,0.6259492039680481,0.0
1659376611349793434,-0.2709871828556061,0.6259897351264954,0.0
1659376611397845029,-0.2794155478477478,0.626028299331665,0.0
1659376611442115545,-0.2834900915622711,0.626089870929718,0.0
1659376611485898971,-0.28978797793388367,0.6263275742530823,0.0
1659376611529981851,-0.2948681116104126,0.6266000866889954,0.0
1659376611574582338,-0.3031820058822632,0.6270706653594971,0.0
1659376611618192672,-0.3090454041957855,0.6273900270462036,0.0
1659376611662664890,-0.3166041970252991,0.6277608275413513,0.0
1659376611707450628,-0.3220917284488678,0.6279922127723694,0.0
1659376611707623720,-0.3300586938858032,0.6282989978790283,0.0
1659376611759222269,-0.33577531576156616,0.6285014152526855,0.0
1659376611782273530,-0.3437444865703583,0.6287437677383423,0.0
1659376611837749242,-0.34999439120292664,0.628895103931427,0.0
1659376611886539697,-0.3592567443847656,0.6290532350540161,0.0
1659376611931369781,-0.36576125025749207,0.6291186809539795,0.0
1659376611978346347,-0.3741389811038971,0.6291629076004028,0.0
1659376612023495435,-0.3805931806564331,0.6291825771331787,0.0
1659376612066077232,-0.3920336067676544,0.6292002201080322,0.0
1659376612120953798,-0.385275661945343,0.6292064189910889,0.0
1659376612170249700,-0.39737388491630554,0.629124104976654,0.0
1659376612214896917,-0.4038275480270386,0.629039466381073,0.0
1659376612262295484,-0.41298821568489075,0.6288580894470215,0.0
1659376612322558164,-0.4194651246070862,0.6286733746528625,0.0
1659376612322959661,-0.42983314394950867,0.6282324194908142,0.0
1659376612372907161,-0.4361250400543213,0.6278693079948425,0.0
1659376612417173385,-0.4476909339427948,0.6270871758460999,0.0
1659376612473443508,-0.45407634973526,0.6266049742698669,0.0
1659376612525331974,-0.4628255069255829,0.6258367300033569,0.0
1659376612572546005,-0.4690697491168976,0.6251957416534424,0.0
1659376612619758129,-0.47872427105903625,0.6240755319595337,0.0
1659376612668453454,-0.4850008189678192,0.6232728958129883,0.0
1659376612714491367,-0.4964250326156616,0.6216303706169128,0.0
1659376612758411407,-0.5026972889900208,0.6206206679344177,0.0
1659376612802619457,-0.5112746357917786,0.6191242933273315,0.0
1659376612850677728,-0.5173464417457581,0.6179957985877991,0.0
1659376612898351669,-0.5272282361984253,0.6160390973091125,0.0
1659376612942379951,-0.533419132232666,0.6147306561470032,0.0
1659376612990499496,-0.5451535582542419,0.6121143698692322,0.0
1659376613034471273,-0.5513635277748108,0.6106588244438171,0.0
1659376613078437328,-0.5602412223815918,0.608496904373169,0.0
1659376613122227907,-0.5663742423057556,0.6069395542144775,0.0
1659376613170367002,-0.5757335424423218,0.6044142842292786,0.0
1659376613213827371,-0.5816701054573059,0.602712094783783,0.0
1659376613258523702,-0.5925648808479309,0.599478542804718,0.0
1659376613302711248,-0.5985504388809204,0.597673773765564,0.0
1659376613346136093,-0.6069150567054749,0.5950802564620972,0.0
1659376613390179157,-0.6130813360214233,0.5930899381637573,0.0
1659376613436637878,-0.623187243938446,0.5897110104560852,0.0
1659376613485005617,-0.629435658454895,0.5875667929649353,0.0
1659376613531168460,-0.6412631273269653,0.5833576917648315,0.0
1659376613574387550,-0.6475073099136353,0.5810506939888,0.0
1659376613618357896,-0.656456708908081,0.577667772769928,0.0
1659376613662976980,-0.6625030040740967,0.5753382444381714,0.0
1659376613706532955,-0.6725830435752869,0.5713701248168945,0.0
1659376613750337600,-0.6787044405937195,0.5688863396644592,0.0
1659376613794624090,-0.6898701786994934,0.5642280578613281,0.0
1659376613838220596,-0.6958088874816895,0.5617004036903381,0.0
1659376613900878667,-0.703454852104187,0.5584016442298889,0.0
1659376613948112010,-0.7091110348701477,0.5559220314025879,0.0
1659376613999586105,-0.7190659642219543,0.5513991117477417,0.0
1659376614042548418,-0.7243533730506897,0.5489034652709961,0.0
1659376614042697191,-0.7316855192184448,0.5453450083732605,0.0
1659376614100681781,-0.7365116477012634,0.542942225933075,0.0
1659376614125858068,-0.7436684370040894,0.5392593741416931,0.0
1659376614180651187,-0.7485188841819763,0.5366825461387634,0.0
1659376614226425647,-0.7548944354057312,0.5332011580467224,0.0
1659376614271665334,-0.759705662727356,0.5304997563362122,0.0
1659376614314812421,-0.7665297389030457,0.5265256762504578,0.0
1659376614359400510,-0.7713484168052673,0.523586630821228,0.0
1659376614408832311,-0.7779055237770081,0.5194173455238342,0.0
1659376614460269927,-0.7823597192764282,0.5164709091186523,0.0
1659376614508945465,-0.7893320322036743,0.5116904377937317,0.0
1659376614554768800,-0.7934629917144775,0.5087646245956421,0.0
1659376614598587989,-0.8017664551734924,0.502625048160553,0.0
1659376614642559289,-0.8063374161720276,0.4991024136543274,0.0
1659376614690345525,-0.8128510117530823,0.493914395570755,0.0
1659376614734983205,-0.8173461556434631,0.49021536111831665,0.0
1659376614778437614,-0.8245195746421814,0.4841165542602539,0.0
1659376614822796344,-0.8293575644493103,0.4798828065395355,0.0
1659376614822907447,-0.8351798057556152,0.4746607542037964,0.0
1659376614877371072,-0.8398942351341248,0.47032713890075684,0.0
1659376614900869369,-0.8468292355537415,0.4638098180294037,0.0
1659376614957404375,-0.8515087366104126,0.4593280255794525,0.0
1659376615002367496,-0.8584659695625305,0.4525774419307709,0.0
1659376615046760559,-0.8632388114929199,0.4479009509086609,0.0
1659376615090212821,-0.8700010776519775,0.4411686658859253,0.0
1659376615138092517,-0.8746147155761719,0.4364759922027588,0.0
1659376615182430028,-0.882418692111969,0.42835450172424316,0.0
1659376615228485345,-0.8865649700164795,0.4239150881767273,0.0
1659376615274328470,-0.8921041488647461,0.4177653193473816,0.0
1659376615322230100,-0.8960196375846863,0.4132542610168457,0.0
1659376615407544851,-0.9014579653739929,0.40678197145462036,0.0
1659376615408006191,-0.9051815867424011,0.40220877528190613,0.0
1659376615450187444,-0.9106371402740479,0.39529359340667725,0.0
1659376615476774692,-0.9142500758171082,0.3905685842037201,0.0
1659376615522454738,-0.9196596145629883,0.383236289024353,0.0
1659376615567754745,-0.922931969165802,0.3786374032497406,0.0
1659376615615095138,-0.9266678690910339,0.37321987748146057,0.0
1659376615670706748,-0.9278133511543274,0.3715195655822754,0.0
1659376615714129924,-0.9284601807594299,0.3705514967441559,0.0
1659376615758921146,-0.9286144971847534,0.37031975388526917,0.0
1659376615806211471,-0.9286565780639648,0.37025654315948486,0.0
1659376615850466489,-0.9286565780639648,0.37025654315948486,0.0
1659376615894946098,-0.9286565780639648,0.37025654315948486,0.0
1659376615944503307,-0.9286565780639648,0.37025654315948486,0.0
1659376615996723890,-0.9286565780639648,0.37025654315948486,0.0
1659376615996818780,-0.9286565780639648,0.37025654315948486,0.0
1659376616045928001,-0.9286565780639648,0.37025654315948486,0.0
1659376616107597589,-0.9286565780639648,0.37025654315948486,0.0
1659376616149971485,-0.9286565780639648,0.37025654315948486,0.0
1659376616198553800,-0.9286565780639648,0.37025654315948486,0.0
1659376616244035482,-0.9286565780639648,0.37025654315948486,0.0
1659376616295064926,-0.9286565780639648,0.37025654315948486,0.0
1659376616342237234,-0.9286565780639648,0.37025654315948486,0.0
1659376616386399269,-0.9286565780639648,0.37025654315948486,0.0
1659376616434358835,-0.9286565780639648,0.37025654315948486,0.0
1659376616478583335,-0.9286565780639648,0.37025654315948486,0.0
1659376616526414155,-0.9286565780639648,0.37025654315948486,0.0
1659376616570500850,-0.9286565780639648,0.37025654315948486,0.0
1659376616619344711,-0.9286565780639648,0.37025654315948486,0.0
1659376616666267156,-0.9286565780639648,0.37025654315948486,0.0
1659376616715579509,-0.9286565780639648,0.37025654315948486,0.0
1659376616772154569,-0.9286565780639648,0.37025654315948486,0.0
1659376616821519851,-0.9286565780639648,0.37025654315948486,0.0
1659376616867075681,-0.9286565780639648,0.37025654315948486,0.0
1659376616910531044,-0.9286565780639648,0.37025654315948486,0.0
1659376616954761028,-0.9286565780639648,0.37025654315948486,0.0
1659376617000499963,-0.9295389652252197,0.36892834305763245,0.0
1659376617046886205,-0.9307673573493958,0.36707034707069397,0.0
1659376617090065240,-0.9331612586975098,0.36340391635894775,0.0
1659376617134557485,-0.9351451992988586,0.36031630635261536,0.0
1659376617179206609,-0.9384613633155823,0.35504642128944397,0.0
1659376617224070549,-0.9406994581222534,0.351401150226593,0.0
1659376617269665002,-0.9444355964660645,0.3451419472694397,0.0
1659376617317680835,-0.9465396404266357,0.34150514006614685,0.0
1659376617361880540,-0.9495773911476135,0.3360700309276581,0.0
1659376617406482934,-0.9518075585365295,0.3319239914417267,0.0
1659376617450346946,-0.9551317691802979,0.32546505331993103,0.0
1659376617494354724,-0.9574413299560547,0.3207622766494751,0.0
1659376617538229703,-0.9607728719711304,0.313686341047287,0.0
1659376617582876205,-0.9631752371788025,0.3083837032318115,0.0
1659376617626047372,-0.9665932059288025,0.30051353573799133,0.0
1659376617670643806,-0.9689829349517822,0.2947913706302643,0.0
1659376617670735120,-0.9720390439033508,0.2872087061405182,0.0
1659376617726553916,-0.9741091132164001,0.28184905648231506,0.0
1659376617755521297,-0.9770054221153259,0.27393385767936707,0.0
1659376617825070858,-0.9786507487297058,0.26917335391044617,0.0
1659376617870048999,-0.9812265634536743,0.2610684335231781,0.0
1659376617914819478,-0.9824999570846558,0.2566413879394531,0.0
1659376617958156824,-0.9843090772628784,0.24984155595302582,0.0
1659376618004877090,-0.9856502413749695,0.24443714320659637,0.0
1659376618054496049,-0.9875248670578003,0.2365056276321411,0.0
1659376618098490715,-0.9889475703239441,0.23023611307144165,0.0
1659376618142263889,-0.9910755157470703,0.2206229567527771,0.0
1659376618186274290,-0.9925556778907776,0.21389944851398468,0.0
1659376618230365514,-0.9945869445800781,0.2046278417110443,0.0
1659376618274702787,-0.9960656762123108,0.1978003978729248,0.0
1659376618274783849,-0.9981465339660645,0.18794400990009308,0.0
1659376618327894926,-0.9995409846305847,0.18115051090717316,0.0
1659376618358308553,-1.0015127658843994,0.1715557873249054,0.0
1659376618415235280,-1.0029312372207642,0.16468970477581024,0.0
1659376618460283756,-1.0056344270706177,0.15134356915950775,0.0
1659376618515690565,-1.0069632530212402,0.1446143239736557,0.0
1659376618558705806,-1.008833408355713,0.1350250542163849,0.0
1659376618608152866,-1.010132074356079,0.12831570208072662,0.0
1659376618654258966,-1.0120179653167725,0.11854901164770126,0.0
1659376618698062181,-1.0133823156356812,0.11146565526723862,0.0
1659376618742242097,-1.0152355432510376,0.10164119303226471,0.0
1659376618790149688,-1.0164874792099,0.0948457345366478,0.0
1659376618838762044,-1.0183943510055542,0.08418191969394684,0.0
1659376618882031202,-1.0195379257202148,0.0775214284658432,0.0
1659376618930796623,-1.021393895149231,0.066001757979393,0.0
1659376618974206924,-1.0224254131317139,0.05914377048611641,0.0
1659376619022536993,-1.0242996215820312,0.045988500118255615,0.0
1659376619068042993,-1.025205135345459,0.0392659492790699,0.0
1659376619117515802,-1.0268090963363647,0.026508554816246033,0.0
1659376619162272691,-1.0276055335998535,0.019772209227085114,0.0
1659376619210935115,-1.02865731716156,0.01072127465158701,0.0
1659376619254301548,-1.029422402381897,0.003981292247772217,0.0
1659376619298334360,-1.0305787324905396,-0.006967970170080662,0.0
1659376619346271276,-1.031234622001648,-0.013719450682401657,0.0
1659376619390371799,-1.0323317050933838,-0.02614929899573326,0.0
1659376619517767906,-1.0328567028045654,-0.03296298906207085,0.0
1659376619517927646,-1.0334484577178955,-0.041903410106897354,0.0
1659376619591373920,-1.0338369607925415,-0.0487515926361084,0.0
1659376619591457366,-1.0343565940856934,-0.05881183594465256,0.0
1659376619592645406,-1.03469717502594,-0.06566257029771805,0.0
1659376619642987012,-1.0352091789245605,-0.07782623916864395,0.0
1659376619699798107,-1.0354340076446533,-0.08478304743766785,0.0
1659376619742292642,-1.035667061805725,-0.0943223312497139,0.0
1659376619788363695,-1.0357849597930908,-0.10105393826961517,0.0
1659376619838928222,-1.0359545946121216,-0.11186026781797409,0.0
1659376619888457059,-1.0360660552978516,-0.1189970076084137,0.0
1659376619936733961,-1.0362083911895752,-0.12843681871891022,0.0
1659376619986723899,-1.0363034009933472,-0.13544723391532898,0.0
1659376619986903667,-1.0364023447036743,-0.14450791478157043,0.0
1659376620030675172,-1.0364570617675781,-0.15129095315933228,0.0
1659376620054198741,-1.0365122556686401,-0.16111133992671967,0.0
1659376620109643697,-1.0365272760391235,-0.16791990399360657,0.0
1659376620204041957,-1.0364933013916016,-0.17763914167881012,0.0
1659376620254680871,-1.0364142656326294,-0.18462444841861725,0.0
1659376620254885196,-1.0362238883972168,-0.19401277601718903,0.0
1659376620298518419,-1.0360424518585205,-0.20084425806999207,0.0
1659376620313372611,-1.0356906652450562,-0.21248185634613037,0.0
1659376620368213653,-1.0354559421539307,-0.21931171417236328,0.0
1659376620418861865,-1.0349684953689575,-0.23175503313541412,0.0
1659376620474904537,-1.0346794128417969,-0.23843079805374146,0.0
1659376620522505760,-1.034272313117981,-0.24773623049259186,0.0
1659376620566338062,-1.03398597240448,-0.2546401023864746,0.0
1659376620614203929,-1.0335274934768677,-0.26533669233322144,0.0
1659376620658129930,-1.0331956148147583,-0.27233991026878357,0.0
1659376620709014415,-1.0325651168823242,-0.28525829315185547,0.0
1659376620756432533,-1.0322339534759521,-0.29210948944091797,0.0
1659376620802549839,-1.0317966938018799,-0.3009827733039856,0.0
1659376620850749969,-1.0314481258392334,-0.30783310532569885,0.0
1659376620850872993,-1.0309126377105713,-0.3175376355648041,0.0
1659376620903604745,-1.0304920673370361,-0.3244599997997284,0.0
1659376620949232101,-1.0300792455673218,-0.33090099692344666,0.0
1659376620994517564,-1.0296120643615723,-0.3378203809261322,0.0
1659376621042411565,-1.029126524925232,-0.3445354998111725,0.0
1659376621090129137,-1.0282763242721558,-0.3549033999443054,0.0
1659376621135471343,-1.0276637077331543,-0.3616335391998291,0.0
1659376621135882854,-1.0267077684402466,-0.3718142807483673,0.0
1659376621184742212,-1.0260566473007202,-0.3786933422088623,0.0
1659376621218737125,-1.0249727964401245,-0.38944652676582336,0.0
1659376621269253969,-1.0242465734481812,-0.3960125744342804,0.0
1659376621320931911,-1.0228062868118286,-0.4087894856929779,0.0
1659376621376178503,-1.0220390558242798,-0.4157584309577942,0.0
1659376621423852205,-1.021167278289795,-0.42381080985069275,0.0
1659376621465989112,-1.0204319953918457,-0.43070685863494873,0.0
1659376621509905576,-1.0189701318740845,-0.4437105655670166,0.0
1659376621557715892,-1.0181472301483154,-0.4504947364330292,0.0
1659376621601642847,-1.0173395872116089,-0.4568982422351837,0.0
1659376621646279573,-1.0164110660552979,-0.46400073170661926,0.0
1659376621694348573,-1.0155036449432373,-0.47074857354164124,0.0
1659376621694463968,-1.0140509605407715,-0.4812537729740143,0.0
1659376621757964611,-1.0130993127822876,-0.4880210757255554,0.0
1659376621772798299,-1.0117485523223877,-0.49744153022766113,0.0
1659376621829103469,-1.0107461214065552,-0.5041759014129639,0.0
1659376621875200986,-1.0093648433685303,-0.5131056308746338,0.0
1659376621930058240,-1.0082496404647827,-0.5200273990631104,0.0
1659376621973976850,-1.006033182144165,-0.5333346724510193,0.0
1659376622018814325,-1.0048660039901733,-0.540247917175293,0.0
1659376622062030315,-1.0031484365463257,-0.5501483678817749,0.0
1659376622109753847,-1.0019100904464722,-0.5570234656333923,0.0
1659376622157928228,-0.9995467662811279,-0.570151150226593,0.0
1659376622202526569,-0.9983363151550293,-0.5770055055618286,0.0
1659376622250712871,-0.9965298771858215,-0.5870187282562256,0.0
1659376622294371128,-0.9952717423439026,-0.5937873125076294,0.0
1659376622342305898,-0.9934589266777039,-0.6034133434295654,0.0
1659376622386685609,-0.9921957850456238,-0.610052227973938,0.0
1659376622386781215,-0.9904686808586121,-0.6192308068275452,0.0
1659376622438186407,-0.9891844987869263,-0.6261232495307922,0.0
1659376622467708587,-0.9873436689376831,-0.6359757781028748,0.0
1659376622523157835,-0.9860402941703796,-0.6429161429405212,0.0
1659376622572294950,-0.9836610555648804,-0.655397355556488,0.0
1659376622624080181,-0.9823365807533264,-0.6621790528297424,0.0
1659376622670804977,-0.9804601073265076,-0.6715090274810791,0.0
1659376622736785888,-0.9790676832199097,-0.6782253980636597,0.0
1659376622782005548,-0.9770898222923279,-0.6875085234642029,0.0
1659376622826404094,-0.9756574630737305,-0.6940611004829407,0.0
1659376622826689004,-0.9736819267272949,-0.7029043436050415,0.0
1659376622872947931,-0.9722172021865845,-0.7093459963798523,0.0
1659376622922145605,-0.9692355394363403,-0.7218012809753418,0.0
1659376622972641468,-0.9675955176353455,-0.7282789349555969,0.0
1659376623019120454,-0.9651578664779663,-0.7377398610115051,0.0
1659376623065640211,-0.9634143114089966,-0.7444260716438293,0.0
1659376623112342596,-0.9600179195404053,-0.757220447063446,0.0
1659376623164616107,-0.9582791328430176,-0.7636722922325134,0.0
1659376623215724468,-0.9556000828742981,-0.773435652256012,0.0
1659376623258345365,-0.953776478767395,-0.7799692153930664,0.0
1659376623301693439,-0.9508638978004456,-0.790219247341156,0.0
1659376623345686435,-0.9489209055900574,-0.7969030141830444,0.0
1659376623431995153,-0.945122241973877,-0.8098741173744202,0.0
1659376623476435899,-0.9431900382041931,-0.81648188829422,0.0
1659376623476822853,-0.9402198791503906,-0.8265043497085571,0.0
1659376623527035951,-0.9381780624389648,-0.8332644104957581,0.0
1659376623550103187,-0.9350144267082214,-0.843413233757019,0.0
1659376623604958295,-0.9328368306159973,-0.8501839637756348,0.0
1659376623654506206,-0.9298704862594604,-0.8593598008155823,0.0
1659376623701976299,-0.9276990294456482,-0.8661324977874756,0.0
1659376623750826358,-0.9236260652542114,-0.8787012100219727,0.0
1659376623799584865,-0.9214303493499756,-0.8853062391281128,0.0
1659376623846415758,-0.9181074500083923,-0.8951639533042908,0.0
1659376623890215396,-0.915892481803894,-0.9017091393470764,0.0
1659376623935371875,-0.9117265939712524,-0.9138733744621277,0.0
1659376623983546257,-0.909405529499054,-0.9205158948898315,0.0
1659376624032762289,-0.9062532782554626,-0.9293881058692932,0.0
1659376624082294940,-0.9038320779800415,-0.9361293911933899,0.0
1659376624126165151,-0.9000418186187744,-0.9467895030975342,0.0
1659376624170341491,-0.8976776599884033,-0.9535510540008545,0.0
1659376624214214086,-0.8934001326560974,-0.9657570123672485,0.0
1659376624260397195,-0.8910505771636963,-0.9723895192146301,0.0
1659376624310400247,-0.8872548937797546,-0.9831550717353821,0.0
1659376624365499496,-0.8849052786827087,-0.9898948669433594,0.0
1659376624414154291,-0.8808342218399048,-1.0015562772750854,0.0
1659376624458487272,-0.8785728812217712,-1.0079783201217651,0.0
1659376624502329587,-0.8753299713134766,-1.0171674489974976,0.0
1659376624550917863,-0.8730409741401672,-1.0236603021621704,0.0
1659376624551044464,-0.8695473074913025,-1.0335662364959717,0.0
1659376624608217000,-0.8671613335609436,-1.0403201580047607,0.0
1659376624636499881,-0.8632854223251343,-1.0512453317642212,0.0
1659376624692007064,-0.8609346151351929,-1.057823657989502,0.0
1659376624738284826,-0.856621265411377,-1.069775104522705,0.0
1659376624793451070,-0.8542269468307495,-1.0763376951217651,0.0
1659376624844427347,-0.8506535291671753,-1.086053490638733,0.0
1659376624890435218,-0.8483074903488159,-1.0924181938171387,0.0
1659376624933908939,-0.8437431454658508,-1.1046009063720703,0.0
1659376624980044364,-0.841240644454956,-1.1111230850219727,0.0
1659376625030359268,-0.8374910354614258,-1.1208807229995728,0.0
1659376625074132680,-0.8350656628608704,-1.1272426843643188,0.0
1659376625122522354,-0.8304777145385742,-1.139227032661438,0.0
1659376625171797990,-0.8279560208320618,-1.1457418203353882,0.0
1659376625214630365,-0.8245534300804138,-1.1544123888015747,0.0
1659376625260859251,-0.8219283223152161,-1.1610225439071655,0.0
1659376625306868076,-0.8180334568023682,-1.1708593368530273,0.0
1659376625354098320,-0.8154903650283813,-1.1773386001586914,0.0
1659376625402343511,-0.810770571231842,-1.1892988681793213,0.0
1659376625446486473,-0.8082247376441956,-1.19566810131073,0.0
1659376625490590810,-0.8046979308128357,-1.2044527530670166,0.0
1659376625538257122,-0.8021276593208313,-1.2108668088912964,0.0
1659376625582576036,-0.7984303832054138,-1.220101237297058,0.0
1659376625630111455,-0.7957906723022461,-1.2266782522201538,0.0
1659376625678592205,-0.7910245656967163,-1.2384837865829468,0.0
1659376625730455398,-0.7884293794631958,-1.2448604106903076,0.0
1659376625730649232,-0.7846049666404724,-1.2540977001190186,0.0
1659376625780942916,-0.7819540500640869,-1.2603964805603027,0.0
1659376625803945541,-0.7782781720161438,-1.2689822912216187,0.0
1659376625859608173,-0.7754939794540405,-1.2753616571426392,0.0
1659376625906545639,-0.7716381549835205,-1.284062385559082,0.0
1659376625951307058,-0.7688392400741577,-1.2902967929840088,0.0
1659376625994436264,-0.7648307681083679,-1.2991231679916382,0.0
1659376626040340662,-0.7619306445121765,-1.3054227828979492,0.0
1659376626081684589,-0.7574032545089722,-1.3150689601898193,0.0
1659376626129847764,-0.7544460296630859,-1.3212579488754272,0.0
1659376626173629045,-0.7490780353546143,-1.332382082939148,0.0
1659376626220294475,-0.7459806799888611,-1.3387844562530518,0.0
1659376626270048856,-0.7413519620895386,-1.3482416868209839,0.0
1659376626317833423,-0.7381840944290161,-1.3545812368392944,0.0
1659376626365776538,-0.7334781885147095,-1.3639436960220337,0.0
1659376626414081335,-0.7304144501686096,-1.3700523376464844,0.0
1659376626461955547,-0.7259126901626587,-1.3790075778961182,0.0
1659376626510285377,-0.7228307127952576,-1.3851070404052734,0.0
1659376626510379791,-0.7188303470611572,-1.3929259777069092,0.0
1659376626554691076,-0.7155735492706299,-1.3991918563842773,0.0
1659376626581621408,-0.7109702825546265,-1.407923936843872,0.0
1659376626638163566,-0.7077987790107727,-1.4138628244400024,0.0
1659376626686165094,-0.7018318176269531,-1.4248794317245483,0.0
1659376626738755226,-0.6985085010528564,-1.4309086799621582,0.0
1659376626782166242,-0.6938722133636475,-1.43924880027771,0.0
1659376626833512783,-0.6905666589736938,-1.4451720714569092,0.0
1659376626881556749,-0.6854920387268066,-1.4541950225830078,0.0
1659376626929882287,-0.6820726990699768,-1.4602285623550415,0.0
1659376626983183145,-0.6757601499557495,-1.4712846279144287,0.0
1659376627029044151,-0.6722496151924133,-1.477382779121399,0.0
1659376627074105262,-0.6673721671104431,-1.485848069190979,0.0
1659376627118728876,-0.6638492345809937,-1.4919973611831665,0.0
1659376627118865728,-0.6585622429847717,-1.5012781620025635,0.0
1659376627172300815,-0.6551024317741394,-1.5073469877243042,0.0
1659376627200734376,-0.6501752138137817,-1.5159296989440918,0.0
1659376627260857343,-0.6466758251190186,-1.5219757556915283,0.0
1659376627309569597,-0.6419225931167603,-1.5301913022994995,0.0
1659376627354524135,-0.6384578943252563,-1.5362281799316406,0.0
1659376627402245998,-0.6335093379020691,-1.5448278188705444,0.0
1659376627447353601,-0.6300004124641418,-1.5508683919906616,0.0
1659376627490291357,-0.6237684488296509,-1.5615326166152954,0.0
1659376627538235187,-0.6203580498695374,-1.5673376321792603,0.0
1659376627586938142,-0.6154994964599609,-1.5755796432495117,0.0
1659376627636658668,-0.611939013004303,-1.581589937210083,0.0
1659376627636766672,-0.6070308685302734,-1.5898319482803345,0.0
1659376627688665151,-0.6034608483314514,-1.5958070755004883,0.0
1659376627722807407,-0.5970782041549683,-1.6064409017562866,0.0
1659376627779475212,-0.5936042070388794,-1.6122080087661743,0.0
1659376627826912403,-0.5900488495826721,-1.61807382106781,0.0
1659376627870704174,-0.5861716866493225,-1.6244252920150757,0.0
1659376627918293476,-0.5826597809791565,-1.63016939163208,0.0
1659376627966030836,-0.5770121812820435,-1.6393543481826782,0.0
1659376628010403394,-0.573432445526123,-1.6451160907745361,0.0
1659376628058177232,-0.5678042769432068,-1.6540448665618896,0.0
1659376628107069015,-0.5641406178474426,-1.659753680229187,0.0
1659376628150391817,-0.5571969747543335,-1.6704548597335815,0.0
1659376628195149898,-0.5534365177154541,-1.6762216091156006,0.0
1659376628237922191,-0.547758936882019,-1.6848475933074951,0.0
1659376628292550325,-0.5440536141395569,-1.6904082298278809,0.0
1659376628292664051,-0.5387239456176758,-1.698323130607605,0.0
1659376628341313123,-0.5348504781723022,-1.704014539718628,0.0
1659376628375363826,-0.5291849374771118,-1.7122212648391724,0.0
1659376628439588308,-0.5251557230949402,-1.717958927154541,0.0
1659376628488348960,-0.5197769403457642,-1.7255011796951294,0.0
1659376628537752628,-0.5158312320709229,-1.7309564352035522,0.0
1659376628585962295,-0.5096959471702576,-1.7393258810043335,0.0
1659376628635312080,-0.5058793425559998,-1.744467854499817,0.0
1659376628635459423,-0.5004478693008423,-1.751657485961914,0.0
1659376628685412883,-0.4964962303638458,-1.7567925453186035,0.0
1659376628714013814,-0.4907180666923523,-1.7641624212265015,0.0
1659376628770334720,-0.48655128479003906,-1.7693861722946167,0.0
1659376628814023971,-0.4801504611968994,-1.7773281335830688,0.0
1659376628862779140,-0.47590047121047974,-1.7825498580932617,0.0
1659376628909955263,-0.469913512468338,-1.7898168563842773,0.0
1659376628954052448,-0.46566832065582275,-1.7949113845825195,0.0
1659376629002371549,-0.4598790407180786,-1.8018161058425903,0.0
1659376629046057224,-0.4560774862766266,-1.8063247203826904,0.0
1659376629093833923,-0.4497939646244049,-1.8136732578277588,0.0
1659376629138146877,-0.44634225964546204,-1.8176484107971191,0.0
1659376629185726165,-0.4397145211696625,-1.8251672983169556,0.0
1659376629230114221,-0.4356144070625305,-1.8297518491744995,0.0
1659376629274030685,-0.42945030331611633,-1.8365650177001953,0.0
1659376629321752071,-0.42488837242126465,-1.8415508270263672,0.0
1659376629370143890,-0.41796961426734924,-1.8490458726882935,0.0
1659376629414484739,-0.4131946563720703,-1.8541795015335083,0.0
1659376629414622783,-0.4061727821826935,-1.8617169857025146,0.0
1659376629486791372,-0.4014030694961548,-1.866855502128601,0.0
1659376629504503965,-0.39388105273246765,-1.874964714050293,0.0
1659376629563245058,-0.3890894651412964,-1.8801175355911255,0.0
1659376629606519460,-0.38265570998191833,-1.8870267868041992,0.0
1659376629649960994,-0.3778197765350342,-1.8922075033187866,0.0
1659376629697776079,-0.37023094296455383,-1.900323748588562,0.0
1659376629745821952,-0.36518439650535583,-1.9057233333587646,0.0
1659376629789901018,-0.3591049015522003,-1.9122360944747925,0.0
1659376629845452547,-0.35420191287994385,-1.9174926280975342,0.0
1659376629845580101,-0.3470410406589508,-1.9251773357391357,0.0
1659376629893030881,-0.34243422746658325,-1.9301217794418335,0.0
1659376629933174133,-0.3335357904434204,-1.9396469593048096,0.0
1659376629990232467,-0.32863467931747437,-1.9448705911636353,0.0
1659376630039578676,-0.31959861516952515,-1.9544401168823242,0.0
1659376630094130516,-0.31475207209587097,-1.9595412015914917,0.0
1659376630138317823,-0.3076435625553131,-1.9669970273971558,0.0
1659376630185908794,-0.3028155267238617,-1.9720458984375,0.0
1659376630230893135,-0.29637208580970764,-1.9787719249725342,0.0
1659376630274136304,-0.2914881408214569,-1.9838722944259644,0.0
1659376630318322896,-0.28401580452919006,-1.99168062210083,0.0
1659376630366325616,-0.27922022342681885,-1.9966903924942017,0.0
1659376630410302400,-0.2724519670009613,-2.0037710666656494,0.0
1659376630457733869,-0.2676338255405426,-2.008829355239868,0.0
1659376630501936912,-0.26034921407699585,-2.0165019035339355,0.0
1659376630593430757,-0.2555992901325226,-2.0215201377868652,0.0
1659376630593529462,-0.24806515872478485,-2.0295140743255615,0.0
1659376630652466773,-0.24330349266529083,-2.03459095954895,0.0
1659376630652752876,-0.23855069279670715,-2.0396761894226074,0.0
1659376630698544502,-0.2338256984949112,-2.044752597808838,0.0
1659376630728973150,-0.22911012172698975,-2.049837827682495,0.0
1659376630774307727,-0.2223762571811676,-2.0570900440216064,0.0
1659376630822497606,-0.21775995194911957,-2.0620601177215576,0.0
1659376630866155862,-0.2112833857536316,-2.0691020488739014,0.0
1659376630910462379,-0.20676320791244507,-2.074091672897339,0.0
1659376630954208612,-0.19962401688098907,-2.082104206085205,0.0
1659376631002381086,-0.19510725140571594,-2.0872325897216797,0.0
1659376631046098709,-0.18638752400875092,-2.0972259044647217,0.0
1659376631089963912,-0.1819721907377243,-2.102342128753662,0.0
1659376631138473033,-0.17544782161712646,-2.1099841594696045,0.0
1659376631182558059,-0.17107343673706055,-2.115168571472168,0.0
1659376631230337381,-0.16519173979759216,-2.1221940517425537,0.0
1659376631278235673,-0.16091540455818176,-2.127328395843506,0.0
1659376631278305292,-0.1545615792274475,-2.13494873046875,0.0
1659376631324644565,-0.15022847056388855,-2.140134572982788,0.0
1659376631368998765,-0.1423080712556839,-2.1496782302856445,0.0
1659376631423686504,-0.1382114440202713,-2.15466570854187,0.0
1659376631465724945,-0.13217534124851227,-2.162088632583618,0.0
1659376631510113000,-0.1280507594347,-2.1672165393829346,0.0
1659376631553911447,-0.12077995389699936,-2.176374912261963,0.0
1659376631611495971,-0.11664069443941116,-2.181652784347534,0.0
1659376631653883457,-0.11090599745512009,-2.1890244483947754,0.0
1659376631697872638,-0.10679901391267776,-2.1943273544311523,0.0
1659376631741706132,-0.10082175582647324,-2.2021193504333496,0.0
1659376631789889812,-0.09679491817951202,-2.207451820373535,0.0
1659376631838211536,-0.09138292074203491,-2.2147507667541504,0.0
1659376631882400035,-0.08751194179058075,-2.2200725078582764,0.0
1659376631926725387,-0.08196204900741577,-2.227834701538086,0.0
1659376631972091197,-0.07856113463640213,-2.2326526641845703,0.0
1659376632020817756,-0.07192852348089218,-2.2422215938568115,0.0
1659376632066571950,-0.06829752027988434,-2.2475881576538086,0.0
1659376632114031791,-0.06322938203811646,-2.255221366882324,0.0
1659376632158374547,-0.05998925119638443,-2.260179281234741,0.0
1659376632215137481,-0.05316148325800896,-2.2708346843719482,0.0
1659376632257987737,-0.04968622326850891,-2.2763633728027344,0.0
1659376632258079528,-0.044681839644908905,-2.2844879627227783,0.0
1659376632307598114,-0.04162522405385971,-2.2895610332489014,0.0
1659376632336067914,-0.03629482537508011,-2.2985236644744873,0.0
1659376632385286092,-0.03330371901392937,-2.3036062717437744,0.0
1659376632436133861,-0.02667924016714096,-2.315154552459717,0.0
1659376632492166042,-0.023487886413931847,-2.320880651473999,0.0
1659376632542713642,-0.017243679612874985,-2.332322835922241,0.0
1659376632597590923,-0.01413445919752121,-2.338122844696045,0.0
1659376632643252372,-0.011147977784276009,-2.3437588214874268,0.0
1659376632687137365,-0.007933494634926319,-2.3499040603637695,0.0
1659376632729849338,-0.00499538891017437,-2.355565309524536,0.0
1659376632778084039,0.00045051693450659513,-2.3661131858825684,0.0
1659376632821683645,0.003361930139362812,-2.371788263320923,0.0
1659376632869567632,0.008333783596754074,-2.3815550804138184,0.0
1659376632917686223,0.011372778564691544,-2.3875627517700195,0.0
1659376632965678453,0.01596577651798725,-2.3966987133026123,0.0
1659376633009786367,0.01885192282497883,-2.4024717807769775,0.0
1659376633057873725,0.02443227730691433,-2.41371750831604,0.0
1659376633104638099,0.027478475123643875,-2.419919729232788,0.0
1659376633104805469,0.031663764268159866,-2.428494930267334,0.0
1659376633150052309,0.03445110097527504,-2.434231996536255,0.0
1659376633194601774,0.03958641737699509,-2.444962501525879,0.0
1659376633251457452,0.04227045550942421,-2.450692653656006,0.0
1659376633297567129,0.04676823318004608,-2.4604921340942383,0.0
1659376633341537475,0.04930954426527023,-2.466120958328247,0.0
1659376633385785579,0.05435199663043022,-2.4773964881896973,0.0
1659376633434568166,0.05686463788151741,-2.4830658435821533,0.0
1659376633481817960,0.06051317974925041,-2.4914705753326416,0.0
1659376633529755830,0.0630849301815033,-2.4975554943084717,0.0
1659376633573782205,0.06719259172677994,-2.507469892501831,0.0
1659376633617756605,0.06970135122537613,-2.513608455657959,0.0
1659376633662184953,0.07359437644481659,-2.523282527923584,0.0
1659376633705890893,0.07609206438064575,-2.529616355895996,0.0
1659376633750417232,0.0805540606379509,-2.541106700897217,0.0
1659376633793873310,0.08294235914945602,-2.5473201274871826,0.0
1659376633837768077,0.08636630326509476,-2.5564162731170654,0.0
1659376633882231235,0.08852174133062363,-2.5623116493225098,0.0
1659376633926177263,0.09132364392280579,-2.5702338218688965,0.0
1659376633973882913,0.09322292357683182,-2.575817108154297,0.0
1659376634021907091,0.09597601741552353,-2.584183931350708,0.0
1659376634068818330,0.09763780236244202,-2.5893924236297607,0.0
1659376634114093780,0.10061557590961456,-2.599015951156616,0.0
1659376634157792091,0.10210960358381271,-2.603984832763672,0.0
1659376634201975584,0.10400576144456863,-2.610445022583008,0.0
1659376634253118753,0.10480774939060211,-2.6132431030273438,0.0
1659376634297971487,0.10550206154584885,-2.6157033443450928,0.0
1659376634346331834,0.10570730268955231,-2.616434335708618,0.0
1659376634346471786,0.10580964386463165,-2.616799831390381,0.0
1659376634401256561,0.10582327097654343,-2.6168484687805176,0.0
1659376634429061174,0.10582327097654343,-2.6168484687805176,0.0
1659376634494299411,0.10583008080720901,-2.616872787475586,0.0
1659376634539201021,0.10582327097654343,-2.6168484687805176,0.0
1659376634585919141,0.10582327097654343,-2.6168484687805176,0.0
1659376634633965253,0.10582327097654343,-2.6168484687805176,0.0
1659376634682294130,0.10583008080720901,-2.616872787475586,0.0
1659376634725573301,0.10583008080720901,-2.616872787475586,0.0
1659376634775088787,0.10582327097654343,-2.6168484687805176,0.0
1659376634832983016,0.10583008080720901,-2.616872787475586,0.0
1659376634881988763,0.10595276206731796,-2.617311477661133,0.0
1659376634930184602,0.10705216228961945,-2.621209144592285,0.0
1659376634974356651,0.10803622007369995,-2.6246395111083984,0.0
1659376635018573522,0.11058919876813889,-2.6332015991210938,0.0
1659376635064014911,0.11207414418458939,-2.6379616260528564,0.0
1659376635106802701,0.11366405338048935,-2.642927408218384,0.0
1659376635150442123,0.1157100647687912,-2.649075508117676,0.0
1659376635195750951,0.11740763485431671,-2.65395188331604,0.0
1659376635238210678,0.1202879473567009,-2.661792039871216,0.0
1659376635282766342,0.12221541255712509,-2.66674542427063,0.0
1659376635326007127,0.12541663646697998,-2.674569606781006,0.0
1659376635370504379,0.12772952020168304,-2.679966926574707,0.0
1659376635414236068,0.13220125436782837,-2.6899170875549316,0.0
1659376635461533069,0.13483625650405884,-2.695558547973633,0.0
1659376635506289243,0.1386847347021103,-2.703509569168091,0.0
1659376635550392389,0.14121577143669128,-2.70855450630188,0.0
1659376635594863653,0.1454818993806839,-2.716805934906006,0.0
1659376635638690710,0.14814744889736176,-2.7218098640441895,0.0
1659376635682096481,0.15222735702991486,-2.729271650314331,0.0
1659376635729286670,0.1550745964050293,-2.734349250793457,0.0
1659376635729662179,0.15939418971538544,-2.741821527481079,0.0
1659376635778441190,0.16237100958824158,-2.7467949390411377,0.0
1659376635808906555,0.16729223728179932,-2.754762649536133,0.0
1659376635864738464,0.17032602429389954,-2.759552240371704,0.0
1659376635914001941,0.1755516678094864,-2.7676267623901367,0.0
1659376635958221197,0.17885710299015045,-2.772632598876953,0.0
1659376636001842498,0.1833818554878235,-2.7793502807617188,0.0
1659376636049823045,0.18680645525455475,-2.784336805343628,0.0
1659376636093760251,0.19220589101314545,-2.7920193672180176,0.0
1659376636140324115,0.19576354324817657,-2.7969744205474854,0.0
1659376636186205863,0.2032885104417801,-2.8072750568389893,0.0
1659376636234545946,0.20686806738376617,-2.81208872795105,0.0
1659376636278455018,0.2126990109682083,-2.8197696208953857,0.0
1659376636328331232,0.21639645099639893,-2.8245253562927246,0.0
1659376636328443765,0.22264398634433746,-2.832427740097046,0.0
1659376636377227783,0.22635243833065033,-2.837045669555664,0.0
1659376636423220872,0.23379381000995636,-2.8460659980773926,0.0
1659376636476053476,0.23765507340431213,-2.850623607635498,0.0
1659376636525195598,0.24373070895671844,-2.8576502799987793,0.0
1659376636570235729,0.24764792621135712,-2.8620924949645996,0.0
1659376636614897012,0.25418564677238464,-2.8694205284118652,0.0
1659376636663220643,0.25823748111724854,-2.8739123344421387,0.0
1659376636706243991,0.26583996415138245,-2.8821539878845215,0.0
1659376636754209518,0.26999321579933167,-2.886552095413208,0.0
1659376636802697658,0.27641561627388,-2.893263101577759,0.0
1659376636846353054,0.2806558609008789,-2.8976480960845947,0.0
1659376636894352197,0.2891269624233246,-2.906250476837158,0.0
1659376636942168474,0.2934192717075348,-2.910512924194336,0.0
1659376636942306280,0.3004353940486908,-2.9173481464385986,0.0
1659376636990611553,0.30480438470840454,-2.921532154083252,0.0
1659376637025684595,0.311747282743454,-2.928114891052246,0.0
1659376637077432870,0.31610560417175293,-2.932199716567993,0.0
1659376637128247022,0.3254154920578003,-2.940734624862671,0.0
1659376637184962511,0.33021649718284607,-2.9450483322143555,0.0
1659376637234492063,0.3367782533168793,-2.9508862495422363,0.0
1659376637278854370,0.34138938784599304,-2.954956293106079,0.0
1659376637322494029,0.35083937644958496,-2.963143825531006,0.0
1659376637372232198,0.3559195101261139,-2.9674453735351562,0.0
1659376637418293952,0.36346176266670227,-2.9736952781677246,0.0
1659376637464992284,0.36852946877479553,-2.977813720703125,0.0
1659376637514295101,0.37819692492485046,-2.985501527786255,0.0
1659376637562646389,0.3830752372741699,-2.989288806915283,0.0
1659376637610409021,0.39248204231262207,-2.996487855911255,0.0
1659376637658709049,0.39778655767440796,-3.00050950050354,0.0
1659376637706346273,0.405097097158432,-3.005990743637085,0.0
1659376637756294488,0.40998223423957825,-3.009601354598999,0.0
1659376637807527065,0.4197366535663605,-3.0166726112365723,0.0
1659376637857734203,0.42466652393341064,-3.0201783180236816,0.0
1659376637906884670,0.4299968481063843,-3.023906707763672,0.0
1659376637907172203,0.43782612681388855,-3.0292723178863525,0.0
1659376637951409339,0.443235844373703,-3.0329298973083496,0.0
1659376637972073316,0.4515194892883301,-3.038482427597046,0.0
1659376638021551370,0.4566808342933655,-3.041919708251953,0.0
1659376638078826904,0.4687853157520294,-3.0498623847961426,0.0
1659376638129362106,0.47399792075157166,-3.0532212257385254,0.0
1659376638186878919,0.4795304834842682,-3.0567376613616943,0.0
1659376638234755039,0.4870651960372925,-3.0614445209503174,0.0
1659376638278575658,0.49251529574394226,-3.0648064613342285,0.0
1659376638322359561,0.5018264055252075,-3.0704903602600098,0.0
1659376638370360612,0.5070913434028625,-3.073669910430908,0.0
1659376638418646097,0.5162307620048523,-3.079099416732788,0.0
1659376638462505102,0.5220073461532593,-3.082458019256592,0.0
1659376638462638378,0.5300043225288391,-3.0870327949523926,0.0
1659376638514253377,0.5352962613105774,-3.090015411376953,0.0
1659376638555209636,0.5449160933494568,-3.0953187942504883,0.0
1659376638604928016,0.5503314137458801,-3.0982346534729004,0.0
1659376638654869079,0.5594302415847778,-3.103010654449463,0.0
1659376638698124170,0.5647451281547546,-3.1057369709014893,0.0
1659376638754966497,0.5704863667488098,-3.1086299419403076,0.0
1659376638802928924,0.5780971646308899,-3.112367630004883,0.0
1659376638851807117,0.5834575891494751,-3.114945411682129,0.0
1659376638852241516,0.5933738946914673,-3.119611978530884,0.0
1659376638896065711,0.5987566113471985,-3.1220827102661133,0.0
1659376638919388532,0.6074194312095642,-3.1259613037109375,0.0
1659376638969941616,0.6130310893058777,-3.1284162998199463,0.0
1659376639020085573,0.6240536570549011,-3.133153200149536,0.0
1659376639076797008,0.6300463080406189,-3.135683298110962,0.0
1659376639128071308,0.6392425298690796,-3.139540433883667,0.0
1659376639174720525,0.6450074315071106,-3.1419591903686523,0.0
1659376639218950986,0.6556643843650818,-3.146390914916992,0.0
1659376639263054847,0.6614285111427307,-3.14874529838562,0.0
1659376639310304164,0.6708465814590454,-3.1524603366851807,0.0
1659376639358160018,0.676828145980835,-3.1547465324401855,0.0
1659376639406630992,0.6879790425300598,-3.1589627265930176,0.0
1659376639451107978,0.6939986944198608,-3.161219835281372,0.0
1659376639498865604,0.7034218311309814,-3.1647088527679443,0.0
1659376639542867183,0.7093669176101685,-3.1668756008148193,0.0
1659376639543044090,0.7193664908409119,-3.170483350753784,0.0
1659376639592149972,0.7254191040992737,-3.1726505756378174,0.0
1659376639622155666,0.7362349629402161,-3.1764559745788574,0.0
1659376639674158334,0.7422671318054199,-3.1785285472869873,0.0
1659376639723074674,0.7558861970901489,-3.183133363723755,0.0
1659376639774874210,0.7618603706359863,-3.185140609741211,0.0
1659376639823304891,0.7730050683021545,-3.188844680786133,0.0
1659376639875461339,0.7789463996887207,-3.1907901763916016,0.0
1659376639918452978,0.7889627814292908,-3.1940362453460693,0.0
1659376639966659069,0.7949162721633911,-3.195944309234619,0.0
1659376640010713815,0.8040803670883179,-3.198864221572876,0.0
1659376640065989017,0.8101119995117188,-3.200777053833008,0.0
1659376640111252784,0.8231054544448853,-3.204765558242798,0.0
1659376640158635616,0.8291749954223633,-3.206554412841797,0.0
1659376640206592559,0.8403539657592773,-3.209808349609375,0.0
1659376640254990100,0.8466247916221619,-3.211630344390869,0.0
1659376640298409461,0.8560867309570312,-3.21435284614563,0.0
1659376640342840671,0.8622962832450867,-3.2161130905151367,0.0
1659376640386463403,0.8759464025497437,-3.219931125640869,0.0
1659376640430713891,0.882168173789978,-3.2216475009918213,0.0
1659376640478722333,0.8914560079574585,-3.2241461277008057,0.0
1659376640522647857,0.8976032137870789,-3.225749969482422,0.0
1659376640566601037,0.9089291095733643,-3.228659152984619,0.0
1659376640614691495,0.9150600433349609,-3.230224609375,0.0
1659376640662669658,0.926298201084137,-3.2329630851745605,0.0
1659376640706864833,0.9324631094932556,-3.234389066696167,0.0
1659376640750695943,0.9424636363983154,-3.236640453338623,0.0
1659376640794990301,0.9485737085342407,-3.2379636764526367,0.0
1659376640843059062,0.9585486054420471,-3.240095615386963,0.0
1659376640893355607,0.9647841453552246,-3.2414374351501465,0.0
1659376640893593072,0.9764901399612427,-3.2439470291137695,0.0
1659376640939085006,0.9827306270599365,-3.245265483856201,0.0
1659376640989954710,0.9943559169769287,-3.247667074203491,0.0
1659376641041482448,1.0005087852478027,-3.2489094734191895,0.0
1659376641090572595,1.0098439455032349,-3.250760316848755,0.0
1659376641138489484,1.0159082412719727,-3.2519285678863525,0.0
1659376641183144807,1.0270586013793945,-3.2539894580841064,0.0
1659376641226330995,1.0330411195755005,-3.2550432682037354,0.0
1659376641270511150,1.0421987771987915,-3.2565999031066895,0.0
1659376641318194866,1.0482650995254517,-3.2576143741607666,0.0
1659376641379488706,1.0549618005752563,-3.258694648742676,0.0
1659376641379595041,1.0636954307556152,-3.2600185871124268,0.0
1659376641422558307,1.0701326131820679,-3.260953903198242,0.0
1659376641440872192,1.0813285112380981,-3.2625834941864014,0.0
1659376641488706827,1.0876381397247314,-3.263516664505005,0.0
1659376641545071840,1.0944000482559204,-3.264505624771118,0.0
