%time,field.x,field.y,field.z
1659363045027302980,-6.865555769763887e-05,-7.49269311199896e-05,0.0
1659363045083142757,-6.865555769763887e-05,-7.49269311199896e-05,0.0
1659363045105860948,-6.865555769763887e-05,-7.49269311199896e-05,0.0
1659363045164625167,-6.865555769763887e-05,-7.49269311199896e-05,0.0
1659363045193062543,-6.865555769763887e-05,-7.49269311199896e-05,0.0
1659363045248466491,-6.865555769763887e-05,-7.49269311199896e-05,0.0
1659363045276104450,-6.865555769763887e-05,-7.49269311199896e-05,0.0
1659363045329474210,-6.865555769763887e-05,-7.49269311199896e-05,0.0
1659363045357954025,-6.865555769763887e-05,-7.49269311199896e-05,0.0
1659363045410213708,-6.865555769763887e-05,-7.49269311199896e-05,0.0
1659363045443697214,-6.865555769763887e-05,-7.49269311199896e-05,0.0
1659363045493400096,-6.865555769763887e-05,-7.49269311199896e-05,0.0
1659363045545643329,-6.865555769763887e-05,-7.49269311199896e-05,0.0
1659363045595058202,-6.865555769763887e-05,-7.49269311199896e-05,0.0
1659363045638334989,-6.865555769763887e-05,-7.49269311199896e-05,0.0
1659363045702023506,-6.865555769763887e-05,-7.49269311199896e-05,0.0
1659363045771149158,-6.865555769763887e-05,-7.49269311199896e-05,0.0
1659363045771386623,-6.865555769763887e-05,-7.49269311199896e-05,0.0
1659363045836566448,-6.865555769763887e-05,-7.49269311199896e-05,0.0
1659363045836779594,-6.865555769763887e-05,-7.49269311199896e-05,0.0
1659363045902172565,-6.865555769763887e-05,-7.49269311199896e-05,0.0
1659363045938134193,-6.865555769763887e-05,-7.49269311199896e-05,0.0
1659363046002629518,-6.865555769763887e-05,-7.49269311199896e-05,0.0
1659363046066912412,-6.865555769763887e-05,-7.49269311199896e-05,0.0
1659363046067010879,-6.865555769763887e-05,-7.49269311199896e-05,0.0
1659363046157953262,-6.865555769763887e-05,-7.49269311199896e-05,0.0
1659363046158126831,-6.865555769763887e-05,-7.49269311199896e-05,0.0
1659363046226278066,-6.865555769763887e-05,-7.49269311199896e-05,0.0
1659363046229746580,-6.865555769763887e-05,-7.49269311199896e-05,0.0
1659363046294130086,-6.865555769763887e-05,-7.49269311199896e-05,0.0
1659363046362366914,-6.865555769763887e-05,-7.49269311199896e-05,0.0
1659363046362540960,-6.865555769763887e-05,-7.49269311199896e-05,0.0
1659363046429146528,-6.865555769763887e-05,-7.49269311199896e-05,0.0
1659363046432528972,-6.865555769763887e-05,-7.49269311199896e-05,0.0
1659363046499147891,-6.865555769763887e-05,-7.49269311199896e-05,0.0
1659363046564863920,-6.865555769763887e-05,-7.49269311199896e-05,0.0
1659363046565042495,-6.865555769763887e-05,-7.49269311199896e-05,0.0
1659363046633649587,-6.865555769763887e-05,-7.49269311199896e-05,0.0
1659363046642812252,-6.865555769763887e-05,-7.49269311199896e-05,0.0
1659363046710529088,-6.865555769763887e-05,-7.49269311199896e-05,0.0
1659363046773629188,-6.865555769763887e-05,-7.49269311199896e-05,0.0
1659363046843936204,-6.865555769763887e-05,-7.49269311199896e-05,0.0
1659363046844255685,-6.865555769763887e-05,-7.49269311199896e-05,0.0
1659363046906377077,-6.865555769763887e-05,-7.49269311199896e-05,0.0
1659363046906449556,-6.865555769763887e-05,-7.49269311199896e-05,0.0
1659363046975089550,-6.865555769763887e-05,-7.49269311199896e-05,0.0
1659363046981466054,-6.865555769763887e-05,-7.49269311199896e-05,0.0
1659363047051135301,-6.865555769763887e-05,-7.49269311199896e-05,0.0
1659363047115577697,-6.865555769763887e-05,-7.49269311199896e-05,0.0
1659363047179202318,-6.865555769763887e-05,-7.49269311199896e-05,0.0
1659363047179282188,-6.865555769763887e-05,-7.49269311199896e-05,0.0
1659363047250422000,-6.865555769763887e-05,-7.49269311199896e-05,0.0
1659363047250542163,-6.865555769763887e-05,-7.49269311199896e-05,0.0
1659363047319036483,-6.865555769763887e-05,-7.49269311199896e-05,0.0
1659363047319164514,-6.865555769763887e-05,-7.49269311199896e-05,0.0
1659363047387157678,-6.865555769763887e-05,-7.49269311199896e-05,0.0
1659363047405812263,-6.865555769763887e-05,-7.49269311199896e-05,0.0
1659363047475358486,-6.865555769763887e-05,-7.49269311199896e-05,0.0
1659363047544056177,-6.865555769763887e-05,-7.49269311199896e-05,0.0
1659363047615979433,-6.865555769763887e-05,-7.49269311199896e-05,0.0
1659363047616321802,-6.865555769763887e-05,-7.49269311199896e-05,0.0
1659363047684470415,-6.865555769763887e-05,-7.49269311199896e-05,0.0
1659363047684945821,-6.865555769763887e-05,-7.49269311199896e-05,0.0
1659363047751377582,-6.865555769763887e-05,-7.49269311199896e-05,0.0
1659363047761453151,-6.865555769763887e-05,-7.49269311199896e-05,0.0
1659363047826590538,-7.392661791527644e-05,-9.968267113436013e-05,0.0
1659363047896454334,-6.86580387991853e-05,-7.492639997508377e-05,0.0
1659363047974326848,-6.86580387991853e-05,-7.492639997508377e-05,0.0
1659363047974507570,-6.86580387991853e-05,-7.492639997508377e-05,0.0
1659363048060802698,-6.86580387991853e-05,-7.492639997508377e-05,0.0
1659363048060898065,-6.86580387991853e-05,-7.492639997508377e-05,0.0
1659363048130077600,-6.86580387991853e-05,-7.492639997508377e-05,0.0
1659363048138849496,-6.86580387991853e-05,-7.492639997508377e-05,0.0
1659363048206801891,-6.86580387991853e-05,-7.492639997508377e-05,0.0
1659363048273845195,-6.86580387991853e-05,-7.492639997508377e-05,0.0
1659363048357250213,-6.86580387991853e-05,-7.492639997508377e-05,0.0
1659363048357412815,-6.86580387991853e-05,-7.492639997508377e-05,0.0
1659363048422603607,-6.86580387991853e-05,-7.492639997508377e-05,0.0
1659363048422788858,-6.86580387991853e-05,-7.492639997508377e-05,0.0
1659363048490508556,-6.86580387991853e-05,-7.492639997508377e-05,0.0
1659363048490796566,-6.86580387991853e-05,-7.492639997508377e-05,0.0
1659363048553865194,-6.86580387991853e-05,-7.492639997508377e-05,0.0
1659363048557469606,-6.86580387991853e-05,-7.492639997508377e-05,0.0
1659363048625982284,-6.86580387991853e-05,-7.492639997508377e-05,0.0
1659363048695078611,-6.86580387991853e-05,-7.492639997508377e-05,0.0
1659363048695188760,-6.86580387991853e-05,-7.492639997508377e-05,0.0
1659363048758192539,-6.86580387991853e-05,-7.492639997508377e-05,0.0
1659363048785154342,-6.86580387991853e-05,-7.492639997508377e-05,0.0
1659363048850603580,-6.86580387991853e-05,-7.492639997508377e-05,0.0
1659363048914759635,-6.86580387991853e-05,-7.492639997508377e-05,0.0
1659363048984499931,-6.86580387991853e-05,-7.492639997508377e-05,0.0
1659363048984589099,-6.86580387991853e-05,-7.492639997508377e-05,0.0
1659363049050151348,-7.392965926555917e-05,-9.968202357413247e-05,0.0
1659363049054322719,-6.865704199299216e-05,-7.492661097785458e-05,0.0
1659363049132804870,-6.865704199299216e-05,-7.492661097785458e-05,0.0
1659363049312772274,-6.865704199299216e-05,-7.492661097785458e-05,0.0
1659363049313086748,-6.865704199299216e-05,-7.492661097785458e-05,0.0
1659363049380658864,-6.865704199299216e-05,-7.492661097785458e-05,0.0
1659363049380863904,-6.865704199299216e-05,-7.492661097785458e-05,0.0
1659363049504829168,-6.865704199299216e-05,-7.492661097785458e-05,0.0
1659363049505128145,-6.865704199299216e-05,-7.492661097785458e-05,0.0
1659363049618716716,-6.865704199299216e-05,-7.492661097785458e-05,0.0
1659363049619193315,-6.865704199299216e-05,-7.492661097785458e-05,0.0
1659363049625690698,-6.865704199299216e-05,-7.492661097785458e-05,0.0
1659363049626100778,-6.865704199299216e-05,-7.492661097785458e-05,0.0
1659363049722471714,-6.865704199299216e-05,-7.492661097785458e-05,0.0
1659363049722704648,-6.865704199299216e-05,-7.492661097785458e-05,0.0
1659363049733081579,-6.865704199299216e-05,-7.492661097785458e-05,0.0
1659363049733259916,-6.865704199299216e-05,-7.492661097785458e-05,0.0
1659363049783172845,-6.865704199299216e-05,-7.492661097785458e-05,0.0
1659363049811979055,-6.865704199299216e-05,-7.492661097785458e-05,0.0
1659363049883252382,-6.865704199299216e-05,-7.492661097785458e-05,0.0
1659363049946307420,-6.865704199299216e-05,-7.492661097785458e-05,0.0
1659363050015575408,-6.865704199299216e-05,-7.492661097785458e-05,0.0
1659363050015664100,-6.865704199299216e-05,-7.492661097785458e-05,0.0
1659363050080369710,-6.865704199299216e-05,-7.492661097785458e-05,0.0
1659363050080472230,-6.865704199299216e-05,-7.492661097785458e-05,0.0
1659363050146642446,-6.865704199299216e-05,-7.492661097785458e-05,0.0
1659363050179901361,-6.865704199299216e-05,-7.492661097785458e-05,0.0
1659363050246179103,-6.865704199299216e-05,-7.492661097785458e-05,0.0
1659363050310141086,-7.392943371087313e-05,-9.968206722987816e-05,0.0
1659363050374051809,-6.865640898467973e-05,-7.492674194509163e-05,0.0
1659363050374138355,-6.865640898467973e-05,-7.492674194509163e-05,0.0
1659363050438199996,-6.865640898467973e-05,-7.492674194509163e-05,0.0
1659363050438306331,-6.865640898467973e-05,-7.492674194509163e-05,0.0
1659363050506654500,-6.865640898467973e-05,-7.492674194509163e-05,0.0
1659363050528139352,-6.865640898467973e-05,-7.492674194509163e-05,0.0
1659363050596354722,3.155803642584942e-05,0.00039541866863146424,0.0
1659363050662449359,0.0009038830175995827,0.004427784122526646,0.0
1659363050726410865,0.0018130922690033913,0.008529803715646267,0.0
1659363050726587057,0.0038022377993911505,0.017266198992729187,0.0
1659363050790161609,0.00518529349938035,0.023155225440859795,0.0
1659363050794536113,0.007151635829359293,0.031220901757478714,0.0
1659363050877843379,0.008751271292567253,0.03752599284052849,0.0
1659363050950555801,0.0115663418546319,0.04817018285393715,0.0
1659363050950649499,0.013267448171973228,0.05439619719982147,0.0
1659363051014899730,0.01683034747838974,0.06714519113302231,0.0
1659363051037790060,0.018755508586764336,0.07393939048051834,0.0
1659363051107159376,0.021374965086579323,0.08308861404657364,0.0
1659363051173086643,0.02309272810816765,0.08896800130605698,0.0
1659363051173529386,0.02603640779852867,0.09873421490192413,0.0
1659363051242776632,0.02809014916419983,0.10525219887495041,0.0
1659363051261793375,0.032825931906700134,0.11976121366024017,0.0
1659363051327059507,0.03498359024524689,0.12627221643924713,0.0
1659363051394167661,0.03824301436543465,0.1359376311302185,0.0
1659363051458255767,0.04044782370328903,0.1424328088760376,0.0
1659363051458463430,0.04381171241402626,0.15227660536766052,0.0
1659363051525789976,0.04600027948617935,0.15850962698459625,0.0
1659363051537868261,0.05029328912496567,0.17033381760120392,0.0
1659363051607189416,0.05257094278931618,0.17645388841629028,0.0
1659363051670805931,0.0558711402118206,0.18538017570972443,0.0
1659363051734397888,0.05821891501545906,0.19177114963531494,0.0
1659363051734474897,0.06176194176077843,0.20128224790096283,0.0
1659363051798192501,0.0640953853726387,0.20751658082008362,0.0
1659363051798278570,0.06771178543567657,0.2168373167514801,0.0
1659363051862874507,0.07029803842306137,0.22321757674217224,0.0
1659363051900491714,0.07550656050443649,0.23596343398094177,0.0
1659363051967027902,0.0782691016793251,0.24270915985107422,0.0
1659363051967164754,0.08192702382802963,0.2516865134239197,0.0
1659363052030658006,0.0845382958650589,0.25811123847961426,0.0
1659363052051101684,0.08873457461595535,0.26829037070274353,0.0
1659363052117660045,0.09138568490743637,0.2746165096759796,0.0
1659363052182686805,0.0964389219880104,0.2865772247314453,0.0
1659363052247603893,0.09922586381435394,0.2931482493877411,0.0
1659363052247728586,0.10321134328842163,0.3025101125240326,0.0
1659363052311439514,0.1060289666056633,0.30906805396080017,0.0
1659363052327149152,0.11076566576957703,0.3200906813144684,0.0
1659363052390532970,0.11335639655590057,0.3261675536632538,0.0
1659363052453868150,0.11858894675970078,0.3385196328163147,0.0
1659363052523711204,0.12129387259483337,0.3449054956436157,0.0
1659363052523871898,0.12502983212471008,0.3536032736301422,0.0
1659363052586137294,0.127932608127594,0.3602069914340973,0.0
1659363052618004560,0.1335555464029312,0.37266454100608826,0.0
1659363052683156251,0.1364298164844513,0.378864586353302,0.0
1659363052746371030,0.14072000980377197,0.3877547085285187,0.0
1659363052810688972,0.1437130719423294,0.39372891187667847,0.0
1659363052810834646,0.14783474802970886,0.4018552601337433,0.0
1659363052874897241,0.1506689041852951,0.40742766857147217,0.0
1659363052875339508,0.1551814079284668,0.4165189564228058,0.0
1659363052939050674,0.15811637043952942,0.4225500822067261,0.0
1659363052949165105,0.16261829435825348,0.4316466152667999,0.0
1659363053018350839,0.16573339700698853,0.4378427565097809,0.0
1659363053085896968,0.1701945811510086,0.4466199278831482,0.0
1659363053151180267,0.17335718870162964,0.45276349782943726,0.0
1659363053151358604,0.17797450721263885,0.46168816089630127,0.0
1659363053214345455,0.18114109337329865,0.46780118346214294,0.0
1659363053229484558,0.1872897446155548,0.4796096980571747,0.0
1659363053298700571,0.190497487783432,0.48575839400291443,0.0
1659363053366321086,0.1949557065963745,0.49430936574935913,0.0
1659363053366417646,0.19817779958248138,0.5004791021347046,0.0
1659363053430810928,0.202936589717865,0.5095869302749634,0.0
1659363053448255300,0.2058248072862625,0.5151029825210571,0.0
1659363053518716335,0.21008218824863434,0.5231876969337463,0.0
1659363053586727619,0.2131795883178711,0.5290513038635254,0.0
1659363053586817264,0.21775752305984497,0.5378538370132446,0.0
1659363053650708675,0.22086620330810547,0.5439965128898621,0.0
1659363053666468143,0.22640477120876312,0.5553191900253296,0.0
1659363053729789495,0.22933968901634216,0.5614907741546631,0.0
1659363053793661594,0.23348619043827057,0.5702531933784485,0.0
1659363053858380317,0.23634611070156097,0.576320230960846,0.0
1659363053858477354,0.2407008558511734,0.5856559872627258,0.0
1659363053922152757,0.2434435337781906,0.5915543437004089,0.0
1659363053936706066,0.24846339225769043,0.6021435856819153,0.0
1659363054002661943,0.25118857622146606,0.607629120349884,0.0
1659363054066358089,0.2555147409439087,0.6159349679946899,0.0
1659363054130114793,0.2585538625717163,0.6216862201690674,0.0
1659363054130222797,0.2632702589035034,0.6305875778198242,0.0
1659363054199987173,0.2664357125759125,0.6365009546279907,0.0
1659363054200188159,0.2717317044734955,0.6464127898216248,0.0
1659363054268427371,0.27471020817756653,0.6519955992698669,0.0
1659363054302791833,0.28092873096466064,0.6633074879646301,0.0
1659363054371292352,0.2839120626449585,0.668599009513855,0.0
1659363054438230276,0.2892756462097168,0.6780110001564026,0.0
1659363054519068241,0.29205960035324097,0.6828334927558899,0.0
1659363054519357681,0.29553455114364624,0.6888059377670288,0.0
1659363054585964441,0.29813769459724426,0.6932650804519653,0.0
1659363054586061239,0.3022695481777191,0.7003194689750671,0.0
1659363054651231050,0.3051273226737976,0.7051867842674255,0.0
1659363054681106090,0.31076571345329285,0.7148200273513794,0.0
1659363054832591772,0.3136354088783264,0.7197390794754028,0.0
1659363054833009958,0.318146288394928,0.7273339033126831,0.0
1659363054898764610,0.3212719261646271,0.7323647141456604,0.0
1659363054898924589,0.3266173005104065,0.7404517531394958,0.0
1659363054904599666,0.3301025927066803,0.745488703250885,0.0
1659363054951604366,0.3366830348968506,0.7547231316566467,0.0
1659363055018952608,0.34049174189567566,0.7599024176597595,0.0
1659363055083254575,0.34601467847824097,0.7672449350357056,0.0
1659363055147779703,0.3497495949268341,0.7721633911132812,0.0
1659363055147859811,0.35590243339538574,0.7801076769828796,0.0
1659363055214546203,0.35972294211387634,0.7848953008651733,0.0
1659363055217927932,0.3661889135837555,0.7927514910697937,0.0
1659363055286720514,0.36951744556427,0.7966656684875488,0.0
1659363055351034641,0.374118447303772,0.8019558191299438,0.0
1659363055414288997,0.37695837020874023,0.8052554130554199,0.0
1659363055414458274,0.38103076815605164,0.8100653290748596,0.0
1659363055482357025,0.38382667303085327,0.8133359551429749,0.0
1659363055482427835,0.38806337118148804,0.8182384967803955,0.0
1659363055548840761,0.3915194571018219,0.8221762776374817,0.0
1659363055558736085,0.3973887860774994,0.8287099599838257,0.0
1659363055626250505,0.40116679668426514,0.8328349590301514,0.0
1659363055691048860,0.4082144498825073,0.8404865264892578,0.0
1659363055754840612,0.4119586646556854,0.84453946352005,0.0
1659363055755314588,0.4173237681388855,0.8502995371818542,0.0
1659363055824707984,0.42116639018058777,0.8543991446495056,0.0
1659363055830045461,0.427918016910553,0.8616349101066589,0.0
1659363055895672321,0.4324140250682831,0.866474986076355,0.0
1659363055958099126,0.44142600893974304,0.8760672211647034,0.0
1659363056026601791,0.44625237584114075,0.8811176419258118,0.0
1659363056026748895,0.4527483284473419,0.8877929449081421,0.0
1659363056094528675,0.45764344930648804,0.8927767872810364,0.0
1659363056101711273,0.4653938114643097,0.9006325602531433,0.0
1659363056170589208,0.47013840079307556,0.9053735733032227,0.0
1659363056234873056,0.47816336154937744,0.9133128523826599,0.0
1659363056300897359,0.4821518063545227,0.9172347784042358,0.0
1659363056301082372,0.4878475069999695,0.9227775931358337,0.0
1659363056366242647,0.49214476346969604,0.9268900752067566,0.0
1659363056376553058,0.4995894134044647,0.9338259100914001,0.0
1659363056503715991,0.5045914053916931,0.9383701086044312,0.0
1659363056503845930,0.5138827562332153,0.9466613531112671,0.0
1659363056579285144,0.5191254615783691,0.9512781500816345,0.0
1659363056579427242,0.5263555645942688,0.9575825929641724,0.0
1659363056642080068,0.5312928557395935,0.9618176817893982,0.0
1659363056652318954,0.5392810106277466,0.9684813618659973,0.0
1659363056718744277,0.5444871783256531,0.9727103114128113,0.0
1659363056781536340,0.5517512559890747,0.9784998893737793,0.0
1659363056851091861,0.5572172403335571,0.9827682375907898,0.0
1659363056851172685,0.5649239420890808,0.9886487722396851,0.0
1659363056914183616,0.570320725440979,0.9926740527153015,0.0
1659363056914255619,0.5781745314598083,0.9984851479530334,0.0
1659363056981257200,0.5833577513694763,1.0023311376571655,0.0
1659363056988494396,0.5901089310646057,1.007334589958191,0.0
1659363057054518461,0.5946511030197144,1.0106852054595947,0.0
1659363057135426759,0.6024972200393677,1.0164214372634888,0.0
1659363057198265314,0.6064955592155457,1.0193151235580444,0.0
1659363057198399066,0.6111403107643127,1.0226539373397827,0.0
1659363057263332366,0.614684522151947,1.0251820087432861,0.0
1659363057263418912,0.6201081275939941,1.028997778892517,0.0
1659363057327195167,0.6237160563468933,1.03152334690094,0.0
1659363057346178054,0.6292784214019775,1.0354934930801392,0.0
1659363057411042451,0.6335548758506775,1.0386072397232056,0.0
1659363057474155187,0.6394932270050049,1.0429644584655762,0.0
1659363057537850379,0.6439709663391113,1.0462745428085327,0.0
1659363057537993907,0.6500208377838135,1.0507789850234985,0.0
1659363057603421211,0.6540232300758362,1.0537527799606323,0.0
1659363057603618383,0.6596085429191589,1.057777762413025,0.0
1659363057666411638,0.6636598110198975,1.0606409311294556,0.0
1659363057685195922,0.6699059009552002,1.0652204751968384,0.0
1659363057755364894,0.673907995223999,1.0682786703109741,0.0
1659363057818009853,0.6811890602111816,1.0739649534225464,0.0
1659363057882165431,0.685254693031311,1.0771888494491577,0.0
1659363057946686029,0.6924800276756287,1.0830669403076172,0.0
1659363057946815967,0.6964747309684753,1.0864177942276,0.0
1659363058015125513,0.7023081183433533,1.091435432434082,0.0
1659363058024841547,0.7062045335769653,1.0948618650436401,0.0
1659363058094257116,0.7119367122650146,1.0999947786331177,0.0
1659363058159671068,0.7153507471084595,1.103049635887146,0.0
1659363058232300758,0.7213630080223083,1.1083626747131348,0.0
1659363058232406854,0.724556028842926,1.1111708879470825,0.0
1659363058299144029,0.729367733001709,1.115357756614685,0.0
1659363058301223993,0.7322519421577454,1.1178265810012817,0.0
1659363058366032600,0.737051784992218,1.121910810470581,0.0
1659363058454874992,0.7399255037307739,1.124353051185608,0.0
1659363058454990148,0.7458024621009827,1.1292407512664795,0.0
1659363058518723249,0.7487718462944031,1.1316468715667725,0.0
1659363058518806934,0.753230094909668,1.1351494789123535,0.0
1659363058590542078,0.7564277648925781,1.1375929117202759,0.0
1659363058603704214,0.7616130113601685,1.1415205001831055,0.0
1659363058667901515,0.7649285793304443,1.1440179347991943,0.0
1659363058734334230,0.7697345614433289,1.147607684135437,0.0
1659363058798282146,0.7732489109039307,1.1502196788787842,0.0
1659363058798443794,0.7785006165504456,1.154100775718689,0.0
1659363058862219572,0.7821165919303894,1.1567455530166626,0.0
1659363058862309694,0.7856796383857727,1.1593340635299683,0.0
1659363058926041126,0.7862525582313538,1.159751296043396,0.0
1659363058939372062,0.784946858882904,1.1587926149368286,0.0
1659363059002949476,0.7830965518951416,1.1574209928512573,0.0
1659363059066417217,0.7796996235847473,1.1548632383346558,0.0
1659363059132230281,0.7768023014068604,1.1526520252227783,0.0
1659363059132308244,0.772057294845581,1.148982048034668,0.0
1659363059197947978,0.7689501643180847,1.146545648574829,0.0
1659363059218305826,0.7627632021903992,1.1415976285934448,0.0
1659363059286033153,0.7596114873886108,1.139014482498169,0.0
1659363059350357294,0.7550203204154968,1.1351537704467773,0.0
1659363059414598464,0.752245306968689,1.1327519416809082,0.0
1659363059414682626,0.7512085437774658,1.131822943687439,0.0
1659363059479034423,0.7520269155502319,1.1325782537460327,0.0
1659363059479128360,0.7546393275260925,1.1350466012954712,0.0
1659363059542501449,0.7567834258079529,1.137125849723816,0.0
1659363059587106704,0.7617641687393188,1.1421318054199219,0.0
1659363059650272369,0.7646750211715698,1.1451616287231445,0.0
1659363059714405298,0.7687413096427917,1.1495026350021362,0.0
1659363059778458356,0.7720125913619995,1.1531305313110352,0.0
1659363059778611421,0.7760359644889832,1.157815933227539,0.0
1659363059844955682,0.7765031456947327,1.1583820581436157,0.0
1659363059845070123,0.7752140760421753,1.1567554473876953,0.0
1659363059910020589,0.7734984755516052,1.1544986963272095,0.0
1659363059912796020,0.7707703709602356,1.1508499383926392,0.0
1659363059978124141,0.768523633480072,1.147789478302002,0.0
1659363060041699171,0.7649264931678772,1.1427072286605835,0.0
1659363060106536626,0.7624995112419128,1.139184832572937,0.0
1659363060106650114,0.758094310760498,1.1324788331985474,0.0
1659363060170611143,0.7561895847320557,1.1293714046478271,0.0
1659363060180405616,0.7555567026138306,1.1282755136489868,0.0
1659363060245949268,0.7556903958320618,1.1285197734832764,0.0
1659363060310129642,0.7550008296966553,1.127195119857788,0.0
1659363060379900932,0.7540076971054077,1.1252014636993408,0.0
1659363060379997968,0.7512913346290588,1.1195707321166992,0.0
1659363060445863246,0.7496989369392395,1.1161800622940063,0.0
1659363060459652900,0.7472913265228271,1.1108797788619995,0.0
1659363060523754596,0.7455486059188843,1.106890320777893,0.0
1659363060591577053,0.7423647046089172,1.099223256111145,0.0
1659363060657436370,0.7409805059432983,1.095687985420227,0.0
1659363060657609224,0.7403703331947327,1.094024658203125,0.0
1659363060718916177,0.7407304644584656,1.095078468322754,0.0
1659363060726034164,0.7419759035110474,1.0990116596221924,0.0
1659363060796326875,0.7427037954330444,1.1014885902404785,0.0
1659363060862780570,0.7428269386291504,1.1019271612167358,0.0
1659363060931321859,0.742483913898468,1.100630283355713,0.0
1659363060931789875,0.7412922382354736,1.0956844091415405,0.0
1659363060997892856,0.7407029867172241,1.093066930770874,0.0
1659363061000197887,0.7405434846878052,1.0922986268997192,0.0
1659363061065734386,0.7408084273338318,1.0937424898147583,0.0
1659363061130176782,0.741148829460144,1.095789909362793,0.0
1659363061198413372,0.7410747408866882,1.0953147411346436,0.0
1659363061198601961,0.740723729133606,1.0928847789764404,0.0
1659363061262131929,0.740366518497467,1.0901236534118652,0.0
1659363061262267827,0.7398298382759094,1.085268259048462,0.0
1659363061330565929,0.7394963502883911,1.0815625190734863,0.0
1659363061332782030,0.739121675491333,1.075956106185913,0.0
1659363061401004791,0.7389493584632874,1.071783423423767,0.0
1659363061466036319,0.7388500571250916,1.0657602548599243,0.0
1659363061531785964,0.7388890981674194,1.0613564252853394,0.0
1659363061531867027,0.7391069531440735,1.0551084280014038,0.0
1659363061596765041,0.7393702268600464,1.050864338874817,0.0
1659363061596838951,0.7399322986602783,1.0446633100509644,0.0
1659363061662633180,0.7404546141624451,1.0403413772583008,0.0
1659363061666941642,0.7414419651031494,1.0338350534439087,0.0
1659363061731339454,0.7422763705253601,1.0292017459869385,0.0
1659363061797404527,0.7442018985748291,1.0204252004623413,0.0
1659363061862055778,0.7453698515892029,1.0159953832626343,0.0
1659363061862179040,0.7471462488174438,1.0100805759429932,0.0
1659363061926152706,0.7486069202423096,1.0057384967803955,0.0
1659363061939445495,0.7513101100921631,0.9985345005989075,0.0
1659363062007531166,0.7532945275306702,0.9937676787376404,0.0
1659363062070797681,0.756422758102417,0.9867932796478271,0.0
1659363062134722709,0.7587864398956299,0.9818354845046997,0.0
1659363062134841680,0.7621812224388123,0.9750717282295227,0.0
1659363062207590103,0.7647826075553894,0.9701197743415833,0.0
1659363062207787752,0.7692173719406128,0.9621310234069824,0.0
1659363062270382404,0.7721741795539856,0.957086980342865,0.0
1659363062295754432,0.7776618599891663,0.9482196569442749,0.0
1659363062370391607,0.7806127667427063,0.9437077641487122,0.0
1659363062434447050,0.7854153513908386,0.9368430972099304,0.0
1659363062499396324,0.788439929485321,0.9328154921531677,0.0
1659363062499503135,0.7937071323394775,0.926203191280365,0.0
1659363062562077045,0.7973009347915649,0.9219167828559875,0.0
1659363062579391002,0.8044965863227844,0.9137513041496277,0.0
1659363062642825126,0.808435320854187,0.9094990491867065,0.0
1659363062705925941,0.8138115406036377,0.9039590954780579,0.0
1659363062770711183,0.8176571726799011,0.9001807570457458,0.0
1659363062770800113,0.8241576552391052,0.8941251635551453,0.0
1659363062834503173,0.8283705711364746,0.8904070854187012,0.0
1659363062846612453,0.8364486694335938,0.8836142420768738,0.0
1659363062910260438,0.8408790230751038,0.880035936832428,0.0
1659363062975128173,0.8467872142791748,0.875429093837738,0.0
1659363063039231061,0.8511711359024048,0.8721625208854675,0.0
1659363063039318561,0.8611236810684204,0.865239143371582,0.0
1659363063102948427,0.865667462348938,0.8622908592224121,0.0
1659363063141653776,0.8739993572235107,0.8572375178337097,0.0
1659363063206078290,0.8785173296928406,0.8546860218048096,0.0
1659363063270027875,0.8848452568054199,0.8513297438621521,0.0
1659363063334825515,0.8889705538749695,0.8492798209190369,0.0
1659363063334936141,0.8948315382003784,0.8465768098831177,0.0
1659363063400901079,0.8988849520683289,0.8448546528816223,0.0
1659363063419398069,0.9076574444770813,0.8415048718452454,0.0
1659363063483798503,0.9121383428573608,0.8399805426597595,0.0
1659363063545958757,0.9186447262763977,0.8379746675491333,0.0
1659363063610181570,0.9232072830200195,0.8367156386375427,0.0
1659363063610272884,0.9298045039176941,0.8351378440856934,0.0
1659363063673850536,0.9339738488197327,0.8343026638031006,0.0
1659363063691738605,0.9418749213218689,0.8330602049827576,0.0
1659363063755731821,0.9455454349517822,0.8326324820518494,0.0
1659363063818016290,0.9489749670028687,0.8323371410369873,0.0
1659363063882608413,0.9502885341644287,0.8322542309761047,0.0
1659363063882689714,0.9513248801231384,0.832200825214386,0.0
1659363063945953130,0.9515524506568909,0.8321903944015503,0.0
1659363063957928180,0.9516788721084595,0.8321847915649414,0.0
1659363064024125337,0.9517041444778442,0.8321836590766907,0.0
1659363064090803623,0.9517041444778442,0.8321836590766907,0.0
1659363064154218673,0.9517041444778442,0.8321836590766907,0.0
1659363064154285907,0.9517041444778442,0.8321836590766907,0.0
1659363064218479156,0.9517041444778442,0.8321836590766907,0.0
1659363064247373819,0.9517041444778442,0.8321836590766907,0.0
1659363064310214757,0.9517041444778442,0.8321836590766907,0.0
1659363064373939514,0.9517041444778442,0.8321836590766907,0.0
1659363064438748359,0.952260434627533,0.8321592807769775,0.0
1659363064438855409,0.9561547040939331,0.8319920897483826,0.0
1659363064504884958,0.9601254463195801,0.8318370580673218,0.0
1659363064504992246,0.9667786359786987,0.8316197395324707,0.0
1659363064570752859,0.9721674919128418,0.8314617872238159,0.0
1659363064583856105,0.9808452129364014,0.8312032222747803,0.0
1659363064646170377,0.9869165420532227,0.8310048580169678,0.0
1659363064709834814,0.9964752197265625,0.8305956125259399,0.0
1659363064774570226,1.0030715465545654,0.8302366137504578,0.0
1659363064774778127,1.0159798860549927,0.8294255137443542,0.0
1659363064837752342,1.0227975845336914,0.8289558291435242,0.0
1659363064856740951,1.0321366786956787,0.8282609581947327,0.0
1659363064922785997,1.0378879308700562,0.8277861475944519,0.0
1659363064990800857,1.0459028482437134,0.8270478248596191,0.0
1659363065055145978,1.051290512084961,0.826489269733429,0.0
1659363065055302858,1.0590856075286865,0.8255940675735474,0.0
1659363065118938446,1.0649373531341553,0.8248617649078369,0.0
1659363065119347095,1.0735630989074707,0.823675811290741,0.0
1659363065182702064,1.0798722505569458,0.8227394819259644,0.0
1659363065195238351,1.088568925857544,0.8213428854942322,0.0
1659363065263145685,1.0947767496109009,0.8202552199363708,0.0
1659363065326751947,1.1045950651168823,0.81836998462677,0.0
1659363065390304803,1.1105170249938965,0.8171358108520508,0.0
1659363065390421867,1.1213446855545044,0.8146408796310425,0.0
1659363065454197168,1.126936674118042,0.8132153153419495,0.0
1659363065471487522,1.1349931955337524,0.8110113739967346,0.0
1659363065535412549,1.1404850482940674,0.809411346912384,0.0
1659363065599301099,1.1500771045684814,0.8064177632331848,0.0
1659363065666358709,1.1560829877853394,0.8044255971908569,0.0
1659363065666581869,1.1680986881256104,0.8002946376800537,0.0
1659363065902400255,1.1743290424346924,0.7980984449386597,0.0
1659363065902522087,1.1834702491760254,0.7947964072227478,0.0
1659363065907868623,1.1899256706237793,0.792404055595398,0.0
1659363065908046483,1.1999913454055786,0.7886098027229309,0.0
1659363065991827726,1.2064924240112305,0.7861229777336121,0.0
1659363065992158174,1.2154674530029297,0.7826653122901917,0.0
1659363066113891363,1.2217737436294556,0.7802360653877258,0.0
1659363066114104270,1.2332998514175415,0.7757264375686646,0.0
1659363066124210834,1.239598274230957,0.77320796251297,0.0
1659363066124359607,1.2526295185089111,0.7679622769355774,0.0
1659363066172651767,1.259247064590454,0.7652877569198608,0.0
1659363066200588941,1.268446683883667,0.7615045309066772,0.0
1659363066265825510,1.274865984916687,0.7588136792182922,0.0
1659363066330973625,1.2837411165237427,0.755041778087616,0.0
1659363066397408723,1.2898037433624268,0.7524178624153137,0.0
1659363066397524118,1.2984334230422974,0.7485892176628113,0.0
1659363066464143753,1.3039828538894653,0.7460569739341736,0.0
1659363066464305639,1.3120592832565308,0.7422956824302673,0.0
1659363066530103206,1.3171395063400269,0.7398947477340698,0.0
1659363066543747186,1.3244872093200684,0.7363683581352234,0.0
1659363066615952014,1.3290824890136719,0.7341268658638,0.0
1659363066684883117,1.3336824178695679,0.7318376302719116,0.0
1659363066684944629,1.3352408409118652,0.7310493588447571,0.0
1659363066750639438,1.3363693952560425,0.7304767966270447,0.0
1659363066763475179,1.3366402387619019,0.7303394079208374,0.0
1659363066828244686,1.3368207216262817,0.7302476167678833,0.0
1659363066894312143,1.3368207216262817,0.7302476167678833,0.0
1659363066959236860,1.3368432521820068,0.7302361130714417,0.0
1659363066959488868,1.3368432521820068,0.7302361130714417,0.0
1659363067023755311,1.336865782737732,0.730224609375,0.0
1659363067036061763,1.336865782737732,0.730224609375,0.0
1659363067103016376,1.336865782737732,0.730224609375,0.0
1659363067166090250,1.336865782737732,0.730224609375,0.0
1659363067232942819,1.3368432521820068,0.7302361130714417,0.0
1659363067233064413,1.336865782737732,0.730224609375,0.0
1659363067297692775,1.336865782737732,0.730224609375,0.0
1659363067311834096,1.336865782737732,0.730224609375,0.0
1659363067373664140,1.336865782737732,0.730224609375,0.0
1659363067441831350,1.336865782737732,0.730224609375,0.0
1659363067506265878,1.336865782737732,0.730224609375,0.0
1659363067570820808,1.336865782737732,0.730224609375,0.0
1659363067570904970,1.336865782737732,0.730224609375,0.0
1659363067633862257,1.336865782737732,0.730224609375,0.0
1659363067653805255,1.336865782737732,0.730224609375,0.0
1659363067717896461,1.336753010749817,0.7302820682525635,0.0
1659363067782038450,1.3343631029129028,0.7315012216567993,0.0
1659363067847077846,1.331660509109497,0.7328871488571167,0.0
1659363067847161054,1.3262333869934082,0.735671877861023,0.0
1659363067911806106,1.3224036693572998,0.737633466720581,0.0
1659363067912022829,1.3173551559448242,0.7402136325836182,0.0
1659363067973822116,1.3134055137634277,0.7422186732292175,0.0
1659363067984884500,1.3079618215560913,0.744970977306366,0.0
1659363068049721240,1.3042429685592651,0.746871292591095,0.0
1659363068114311695,1.2956148386001587,0.7512903809547424,0.0
1659363068178143024,1.291024923324585,0.7535996437072754,0.0
1659363068242571353,1.281698226928711,0.7582070827484131,0.0
1659363068307014465,1.2774826288223267,0.760302722454071,0.0
1659363068307110309,1.2715649604797363,0.7634060978889465,0.0
1659363068374654293,1.2673791646957397,0.7656691670417786,0.0
1659363068374817132,1.2607322931289673,0.7692342400550842,0.0
1659363068438226461,1.2565512657165527,0.7714526057243347,0.0
1659363068453993797,1.251336693763733,0.7741525173187256,0.0
1659363068521823167,1.2475649118423462,0.7760604619979858,0.0
1659363068585902929,1.2420554161071777,0.7787943482398987,0.0
1659363068655168056,1.2383008003234863,0.7806230187416077,0.0
1659363068655237197,1.2331395149230957,0.7830892205238342,0.0
1659363068718246221,1.2295114994049072,0.7847716212272644,0.0
1659363068718324661,1.2242746353149414,0.7870730757713318,0.0
1659363068782561779,1.2205867767333984,0.7886197566986084,0.0
1659363068790931463,1.2169148921966553,0.7901390790939331,0.0
1659363068858780622,1.2169616222381592,0.7901196479797363,0.0
1659363068922090530,1.2200781106948853,0.7888469099998474,0.0
1659363068987265348,1.2227132320404053,0.7878018021583557,0.0
1659363068987365484,1.2269777059555054,0.7861279845237732,0.0
1659363069054833889,1.2303080558776855,0.7848454117774963,0.0
1659363069060072660,1.2354614734649658,0.7829455733299255,0.0
1659363069130670309,1.239020824432373,0.7816991806030273,0.0
1659363069200111389,1.2437515258789062,0.7801237106323242,0.0
1659363069200209617,1.2473710775375366,0.7789778709411621,0.0
1659363069266673088,1.2540278434753418,0.7770326137542725,0.0
1659363069293047189,1.2580146789550781,0.7759714722633362,0.0
1659363069362990379,1.2644336223602295,0.7744100689888,0.0
1659363069432312488,1.2690070867538452,0.7734054923057556,0.0
1659363069432408809,1.2765634059906006,0.7719540596008301,0.0
1659363069499969005,1.2811100482940674,0.7712137699127197,0.0
1659363069502089738,1.288742184638977,0.7702367305755615,0.0
1659363069566635847,1.2928756475448608,0.7698560953140259,0.0
1659363069629877805,1.2987362146377563,0.7694885730743408,0.0
1659363069695349693,1.303061842918396,0.7693401575088501,0.0
1659363069695418357,1.309566617012024,0.7693007588386536,0.0
1659363069759685516,1.3143240213394165,0.7694008350372314,0.0
1659363069759817838,1.3206959962844849,0.7696858048439026,0.0
1659363069824824333,1.3259479999542236,0.7700508236885071,0.0
1659363069832081556,1.3337050676345825,0.770825982093811,0.0
1659363069894393682,1.3389757871627808,0.7715124487876892,0.0
1659363069958069801,1.3458530902862549,0.7725849151611328,0.0
1659363070022722244,1.3510342836380005,0.7735181450843811,0.0
1659363070022889614,1.3590435981750488,0.7751572728157043,0.0
1659363070087383270,1.3641966581344604,0.7763528823852539,0.0
1659363070087488651,1.3708986043930054,0.7781360745429993,0.0
1659363070149889469,1.3758167028427124,0.77962327003479,0.0
1659363070168046474,1.3832067251205444,0.7821052074432373,0.0
1659363070235517740,1.388269305229187,0.7839586138725281,0.0
1659363070298373460,1.3964146375656128,0.7871752381324768,0.0
1659363070362915515,1.401705265045166,0.789415717124939,0.0
1659363070363009929,1.4120384454727173,0.7940849661827087,0.0
1659363070427845478,1.4172722101211548,0.796575665473938,0.0
1659363070440665006,1.424756646156311,0.8002836108207703,0.0
1659363070507756710,1.4299466609954834,0.8029758930206299,0.0
1659363070570549249,1.4382604360580444,0.8075024485588074,0.0
1659363070634217977,1.4430779218673706,0.8102442026138306,0.0
1659363070702399253,1.4518446922302246,0.8155567646026611,0.0
1659363070702464103,1.4562162160873413,0.8183984756469727,0.0
1659363070766083478,1.4624556303024292,0.8226812481880188,0.0
1659363070776167869,1.4664769172668457,0.8255863189697266,0.0
1659363070842077255,1.4740819931030273,0.8314330577850342,0.0
1659363070906635761,1.4780960083007812,0.834721028804779,0.0
1659363070972741365,1.4835822582244873,0.8394822478294373,0.0
1659363070972805261,1.4872934818267822,0.8428875207901001,0.0
1659363071038437128,1.4931093454360962,0.8485245108604431,0.0
1659363071049656391,1.496679663658142,0.8521841764450073,0.0
1659363071115449666,1.503143310546875,0.859272301197052,0.0
1659363071179128408,1.5065512657165527,0.8632850050926208,0.0
1659363071179306268,1.5110372304916382,0.8688692450523376,0.0
1659363071241615056,1.514187216758728,0.8729923963546753,0.0
1659363071259706020,1.5188021659851074,0.8793692588806152,0.0
1659363071322802543,1.5217221975326538,0.8836582899093628,0.0
1659363071386496782,1.5267874002456665,0.8916553258895874,0.0
1659363071449911117,1.5293344259262085,0.8959713578224182,0.0
1659363071449987649,1.5325994491577148,0.9018881916999817,0.0
1659363071521611213,1.534502387046814,0.905605673789978,0.0
1659363071528380155,1.5362743139266968,0.9093033671379089,0.0
1659363071593787670,1.5368324518203735,0.9105231761932373,0.0
1659363071658193588,1.5372047424316406,0.9113548398017883,0.0
1659363071724843263,1.5375019311904907,0.9120259881019592,0.0
1659363071725326538,1.5390889644622803,0.9156137704849243,0.0
1659363071790231227,1.5406672954559326,0.919177770614624,0.0
1659363071798175334,1.543141484260559,0.9247810244560242,0.0
1659363071863149881,1.5449037551879883,0.928844690322876,0.0
1659363071928457260,1.5474464893341064,0.934941828250885,0.0
1659363072090917587,1.5490728616714478,0.9390073418617249,0.0
1659363072091710567,1.551297664642334,0.9447956085205078,0.0
1659363072137669324,1.5527112483978271,0.9486175775527954,0.0
1659363072137834548,1.5546900033950806,0.9541462063789368,0.0
1659363072142106056,1.5560338497161865,0.9580200910568237,0.0
1659363072142195463,1.558140516281128,0.9642812609672546,0.0
1659363072191737651,1.5597816705703735,0.9693368077278137,0.0
1659363072239969253,1.5627126693725586,0.9789746403694153,0.0
1659363072306087970,1.5642489194869995,0.9844321012496948,0.0
1659363072372411727,1.5661110877990723,0.9915581941604614,0.0
1659363072372613430,1.5673158168792725,0.9965790510177612,0.0
1659363072440621614,1.5685389041900635,1.0021928548812866,0.0
1659363072475328207,1.5687949657440186,1.003458023071289,0.0
1659363072541540622,1.5689762830734253,1.004376769065857,0.0
1659363072610535860,1.5690149068832397,1.004575490951538,0.0
1659363072610846519,1.5690293312072754,1.0046499967575073,0.0
1659363072675652980,1.5690293312072754,1.0046499967575073,0.0
1659363072675839185,1.5690293312072754,1.0046499967575073,0.0
1659363072741816043,1.5690293312072754,1.0046499967575073,0.0
1659363072770442485,1.5690293312072754,1.0046499967575073,0.0
1659363072839160203,1.5690293312072754,1.0046499967575073,0.0
1659363072901808738,1.5690293312072754,1.0046499967575073,0.0
1659363072971028566,1.5690293312072754,1.0046499967575073,0.0
1659363072971179485,1.5690293312072754,1.0046499967575073,0.0
1659363073038548946,1.5690293312072754,1.0046499967575073,0.0
1659363073063304424,1.5690293312072754,1.0046499967575073,0.0
1659363073127569675,1.5690293312072754,1.0046499967575073,0.0
1659363073189855337,1.5690293312072754,1.0046499967575073,0.0
1659363073253825426,1.5690293312072754,1.0046499967575073,0.0
1659363073322388887,1.5690293312072754,1.0046499967575073,0.0
1659363073322501897,1.5690052509307861,1.0045257806777954,0.0
1659363073389979600,1.56855309009552,1.0022157430648804,0.0
1659363073391968727,1.5680174827575684,0.9995352029800415,0.0
1659363073466965436,1.5669060945510864,0.9941047430038452,0.0
1659363073535122871,1.566031575202942,0.9898658990859985,0.0
1659363073535201072,1.564073085784912,0.9805527925491333,0.0
1659363073607009887,1.56305730342865,0.9757746458053589,0.0
1659363073611378908,1.5616202354431152,0.9690418243408203,0.0
1659363073675939798,1.5606054067611694,0.9644446969032288,0.0
1659363073833399772,1.5589967966079712,0.9574906826019287,0.0
1659363073833524942,1.558056354522705,0.9536297917366028,0.0
1659363073873224735,1.5559067726135254,0.945375382900238,0.0
1659363073924029350,1.5546820163726807,0.9409083724021912,0.0
1659363073924203872,1.5530797243118286,0.9352328181266785,0.0
1659363073938575029,1.5518044233322144,0.9309117794036865,0.0
1659363073966508388,1.549692153930664,0.9241468906402588,0.0
1659363074036996126,1.548235535621643,0.919723391532898,0.0
1659363074102020025,1.5465209484100342,0.9147725701332092,0.0
1659363074166385650,1.5466243028640747,0.9150581955909729,0.0
1659363074166581869,1.5475764274597168,0.9175935387611389,0.0
1659363074236250162,1.5485163927078247,0.919998049736023,0.0
1659363074295869588,1.5506023168563843,0.9251062870025635,0.0
1659363074295967578,1.5521172285079956,0.9286426901817322,0.0
1659363074358488798,1.5553710460662842,0.9356989860534668,0.0
1659363074401736021,1.5572954416275024,0.939575731754303,0.0
1659363074466216087,1.559950590133667,0.9446138143539429,0.0
1659363074530004262,1.5620741844177246,0.948414146900177,0.0
1659363074530116081,1.5669244527816772,0.9564252495765686,0.0
1659363074598074674,1.5693351030349731,0.9601109027862549,0.0
1659363074633627176,1.5742318630218506,0.9671258926391602,0.0
1659363074702136516,1.5771825313568115,0.9710823893547058,0.0
1659363074766941785,1.5816458463668823,0.9767170548439026,0.0
1659363074835069656,1.58489191532135,0.9805683493614197,0.0
1659363074835256099,1.5896673202514648,0.9859071373939514,0.0
1659363074903159618,1.5929697751998901,0.9894028902053833,0.0
1659363074903284072,1.5978381633758545,0.9942706823348999,0.0
1659363074966618061,1.6013027429580688,0.9975324273109436,0.0
1659363074970255613,1.6056967973709106,1.0014277696609497,0.0
1659363075039253473,1.6078885793685913,1.0032652616500854,0.0
1659363075103702783,1.609659194946289,1.004698395729065,0.0
1659363075170592784,1.6101747751235962,1.0051074028015137,0.0
1659363075170727968,1.6105327606201172,1.0053892135620117,0.0
1659363075240488529,1.6105327606201172,1.0053892135620117,0.0
1659363075241177082,1.6105526685714722,1.0054048299789429,0.0
1659363075305991649,1.6105526685714722,1.0054048299789429,0.0
1659363075325772285,1.6105526685714722,1.0054048299789429,0.0
1659363075391040802,1.6105526685714722,1.0054048299789429,0.0
1659363075458917617,1.6105526685714722,1.0054048299789429,0.0
1659363075522581100,1.6105526685714722,1.0054048299789429,0.0
1659363075594139337,1.6105526685714722,1.0054048299789429,0.0
1659363075594482898,1.6105526685714722,1.0054048299789429,0.0
1659363075658601045,1.6105526685714722,1.0054048299789429,0.0
1659363075674077987,1.6105526685714722,1.0054048299789429,0.0
1659363075738085269,1.6105526685714722,1.0054048299789429,0.0
1659363075801956653,1.6105526685714722,1.0054048299789429,0.0
1659363075871185064,1.6105526685714722,1.0054048299789429,0.0
1659363075871384859,1.6110306978225708,1.0057796239852905,0.0
1659363075934780597,1.6137962341308594,1.0079543590545654,0.0
1659363075955989837,1.616812825202942,1.010342001914978,0.0
1659363076024253368,1.6230710744857788,1.0153629779815674,0.0
1659363076093055725,1.6271793842315674,1.0186954736709595,0.0
1659363076093293905,1.6353504657745361,1.0253361463546753,0.0
1659363076162029266,1.6394171714782715,1.028639554977417,0.0
1659363076176959991,1.6453770399093628,1.033466100692749,0.0
1659363076251121520,1.6494557857513428,1.0367546081542969,0.0
1659363076318022966,1.6550288200378418,1.0412139892578125,0.0
1659363076387923002,1.6571685075759888,1.0429151058197021,0.0
1659363076388256788,1.6590721607208252,1.044425129890442,0.0
1659363076451319456,1.6595680713653564,1.0448180437088013,0.0
1659363076451443195,1.6598855257034302,1.0450694561004639,0.0
1659363076514256715,1.6599053144454956,1.0450851917266846,0.0
1659363076527462244,1.659925103187561,1.0451009273529053,0.0
1659363076594426155,1.659925103187561,1.0451009273529053,0.0
1659363076660283803,1.659925103187561,1.0451009273529053,0.0
1659363076660356283,1.659925103187561,1.0451009273529053,0.0
1659363076726627826,1.659925103187561,1.0451009273529053,0.0
1659363076773501873,1.659925103187561,1.0451009273529053,0.0
1659363076939976453,1.659925103187561,1.0451009273529053,0.0
1659363076940074443,1.659925103187561,1.0451009273529053,0.0
1659363076950961828,1.659925103187561,1.0451009273529053,0.0
1659363076951050519,1.659925103187561,1.0451009273529053,0.0
1659363076985060691,1.659925103187561,1.0451009273529053,0.0
1659363077014714956,1.659925103187561,1.0451009273529053,0.0
1659363077079477071,1.6604804992675781,1.0455410480499268,0.0
1659363077148802995,1.6652470827102661,1.0493067502975464,0.0
1659363077218538761,1.6691173315048218,1.0523287057876587,0.0
1659363077218683481,1.6754382848739624,1.0571880340576172,0.0
1659363077282145738,1.680504560470581,1.0610212087631226,0.0
1659363077293758153,1.6903982162475586,1.0684999227523804,0.0
1659363077396158933,1.6960266828536987,1.072806477546692,0.0
1659363077396249055,1.7043405771255493,1.0791845321655273,0.0
1659363077473627805,1.7100567817687988,1.083543062210083,0.0
1659363077481270313,1.720518708229065,1.0915706157684326,0.0
1659363077549878597,1.7261875867843628,1.0959904193878174,0.0
1659363077618095874,1.7345505952835083,1.1025530099868774,0.0
1659363077687165975,1.7401578426361084,1.1069693565368652,0.0
1659363077687297582,1.7475595474243164,1.1127889156341553,0.0
1659363077754247665,1.7530183792114258,1.117066502571106,0.0
1659363077754420995,1.7607066631317139,1.1231765747070312,0.0
1659363077817920207,1.765834927558899,1.1273407936096191,0.0
1659363077836156845,1.775025486946106,1.1349732875823975,0.0
1659363077903028964,1.7802132368087769,1.1393828392028809,0.0
1659363077971591234,1.7880581617355347,1.1461759805679321,0.0
1659363078034651279,1.7929764986038208,1.1505100727081299,0.0
1659363078034760236,1.800491452217102,1.1572185754776,0.0
1659363078098244667,1.8053404092788696,1.1615924835205078,0.0
1659363078117368936,1.810212254524231,1.1660540103912354,0.0
1659363078186079502,1.8162777423858643,1.171722412109375,0.0
1659363078249762058,1.8209381103515625,1.176150918006897,0.0
1659363078249827623,1.8286370038986206,1.1836272478103638,0.0
1659363078314075469,1.833442211151123,1.1884149312973022,0.0
1659363078314229488,1.8410176038742065,1.196158766746521,0.0
1659363078383093357,1.8456096649169922,1.200942873954773,0.0
1659363078404206275,1.8540433645248413,1.2098627090454102,0.0
1659363078469850778,1.858537197113037,1.2147047519683838,0.0
1659363078534801006,1.8650139570236206,1.2218494415283203,0.0
1659363078598121404,1.8691171407699585,1.2264988422393799,0.0
1659363078598208189,1.8749842643737793,1.233337640762329,0.0
1659363078670665740,1.878859519958496,1.2379826307296753,0.0
1659363078670732259,1.8843066692352295,1.2447102069854736,0.0
1659363078734653472,1.8879237174987793,1.2493360042572021,0.0
1659363078742544174,1.892972469329834,1.2560216188430786,0.0
1659363078809718608,1.8962516784667969,1.2605220079421997,0.0
1659363078874138116,1.9008055925369263,1.2670354843139648,0.0
1659363078938612461,1.9037810564041138,1.271470308303833,0.0
1659363078938680171,1.9087936878204346,1.2792606353759766,0.0
1659363079006467103,1.9113080501556396,1.2833303213119507,0.0
1659363079006583690,1.9146968126296997,1.2890009880065918,0.0
1659363079070938110,1.9170150756835938,1.293010950088501,0.0
1659363079090551614,1.9201489686965942,1.2986242771148682,0.0
1659363079157575368,1.9221415519714355,1.302323341369629,0.0
1659363079222168684,1.9256669282913208,1.3091342449188232,0.0
1659363079290846824,1.9274142980575562,1.312646746635437,0.0
1659363079290934085,1.9298772811889648,1.3177815675735474,0.0
1659363079374997615,1.9314579963684082,1.3212056159973145,0.0
1659363079375096082,1.9339184761047363,1.32673180103302,0.0
1659363079439536094,1.9356662034988403,1.3308018445968628,0.0
1659363079459894180,1.939355492591858,1.3397389650344849,0.0
1659363079526160955,1.9416041374206543,1.3453819751739502,0.0
1659363079594516992,1.9448084831237793,1.3535321950912476,0.0
1659363079657953739,1.9472010135650635,1.359662652015686,0.0
1659363079658036231,1.9506809711456299,1.3687105178833008,0.0
1659363079725904464,1.9526985883712769,1.3740631341934204,0.0
1659363079727689027,1.9561158418655396,1.3834048509597778,0.0
1659363079789836645,1.9580583572387695,1.3888658285140991,0.0
1659363079854674577,1.9610344171524048,1.3974511623382568,0.0
1659363079918598890,1.963106393814087,1.4035637378692627,0.0
1659363079918722391,1.9662221670150757,1.4130102396011353,0.0
1659363079988085269,1.9682273864746094,1.419304609298706,0.0
1659363079988251924,1.9710994958877563,1.4284838438034058,0.0
1659363080052762508,1.9730592966079712,1.434872031211853,0.0
1659363080062283992,1.9758353233337402,1.4440807104110718,0.0
1659363080126169443,1.9777618646621704,1.4504789113998413,0.0
1659363080193684816,1.9813305139541626,1.4624886512756348,0.0
1659363080259458541,1.983188509941101,1.4689334630966187,0.0
1659363080259752035,1.9856380224227905,1.4776310920715332,0.0
1659363080326012849,1.9874541759490967,1.4841667413711548,0.0
1659363080332039833,1.990385890007019,1.4950155019760132,0.0
1659363080397834539,1.992086410522461,1.5015560388565063,0.0
1659363080462454080,1.9951515197753906,1.513677954673767,0.0
1659363080529958486,1.9967718124389648,1.5202126502990723,0.0
1659363080530028581,1.9989843368530273,1.5292863845825195,0.0
1659363080594645500,2.0004546642303467,1.5355188846588135,0.0
1659363080605420827,2.0025856494903564,1.5451313257217407,0.0
1659363080686963558,2.0038180351257324,1.551053762435913,0.0
1659363080750612497,2.005798816680908,1.5615237951278687,0.0
1659363080814389944,2.0066986083984375,1.5668649673461914,0.0
1659363080814458847,2.0078113079071045,1.574120283126831,0.0
1659363080884472370,2.008505344390869,1.5791345834732056,0.0
1659363080884714603,2.009114980697632,1.584006905555725,0.0
1659363080950169324,2.0093190670013428,1.5857669115066528,0.0
1659363080960480213,2.009446144104004,1.5868988037109375,0.0
1659363081030162572,2.0094685554504395,1.5871000289916992,0.0
1659363081098353147,2.0094823837280273,1.5872257947921753,0.0
1659363081162438869,2.0094852447509766,1.5872509479522705,0.0
1659363081162515640,2.009488105773926,1.5872761011123657,0.0
1659363081229857206,2.009488105773926,1.5872761011123657,0.0
1659363081235383749,2.009488105773926,1.5872761011123657,0.0
1659363081303313493,2.009488105773926,1.5872761011123657,0.0
1659363081369477272,2.009488105773926,1.5872761011123657,0.0
1659363081438691139,2.009488105773926,1.5872761011123657,0.0
1659363081504825353,2.009488105773926,1.5872761011123657,0.0
1659363081504957914,2.009488105773926,1.5872761011123657,0.0
1659363081570145845,2.009490966796875,1.587301254272461,0.0
1659363081586946487,2.009488105773926,1.5872761011123657,0.0
1659363081661147356,2.009359121322632,1.586093544960022,0.0
1659363081726953506,2.009030818939209,1.5830485820770264,0.0
1659363081727254867,2.0083394050598145,1.576606035232544,0.0
1659363081790765523,2.0077295303344727,1.5708929300308228,0.0
1659363081790841102,2.0068857669830322,1.5627611875534058,0.0
1659363081861418247,2.006229877471924,1.5562386512756348,0.0
1659363081866944789,2.0051119327545166,1.545107364654541,0.0
1659363081934854984,2.004394769668579,1.538133144378662,0.0
1659363082002290010,2.0029542446136475,1.5251015424728394,0.0
1659363082067915678,2.0020804405212402,1.5178900957107544,0.0
1659363082068007469,2.0009822845458984,1.5092272758483887,0.0
1659363082130302906,2.0000948905944824,1.5022470951080322,0.0
1659363082133134365,1.9987765550613403,1.4915711879730225,0.0
1659363082198072671,1.9979196786880493,1.484383225440979,0.0
1659363082262339115,1.99643874168396,1.4716874361038208,0.0
1659363082326743841,1.9956141710281372,1.4645466804504395,0.0
1659363082326830148,1.994365930557251,1.4539132118225098,0.0
1659363082390655994,1.9935381412506104,1.4471296072006226,0.0
1659363082397124767,1.992331862449646,1.437153935432434,0.0
1659363082463557720,1.9915368556976318,1.4303154945373535,0.0
1659363082529169559,1.9903984069824219,1.420102596282959,0.0
1659363082634784698,1.9896448850631714,1.4130302667617798,0.0
1659363082634912729,1.9882315397262573,1.3995120525360107,0.0
1659363082697906017,1.9874448776245117,1.3923925161361694,0.0
1659363082698007583,1.9860955476760864,1.3828439712524414,0.0
1659363082766363143,1.9850249290466309,1.3763765096664429,0.0
1659363082766506671,1.9833074808120728,1.3657830953598022,0.0
1659363082834840059,1.9821953773498535,1.358835220336914,0.0
1659363082849288463,1.9803324937820435,1.3475217819213867,0.0
1659363082915068626,1.9794155359268188,1.3421064615249634,0.0
1659363082978163480,1.977980375289917,1.3341866731643677,0.0
1659363083042567491,1.9767814874649048,1.3283607959747314,0.0
1659363083042687892,1.9745198488235474,1.31838858127594,0.0
1659363083109715461,1.9729751348495483,1.3117055892944336,0.0
1659363083122314691,1.9703080654144287,1.2997750043869019,0.0
1659363083191111564,1.9689120054244995,1.2935513257980347,0.0
1659363083262829780,1.9669047594070435,1.2851049900054932,0.0
1659363083325918436,1.9656461477279663,1.2800451517105103,0.0
1659363083326039075,1.9642119407653809,1.2744030952453613,0.0
1659363083390052556,1.963076114654541,1.270017147064209,0.0
1659363083390154600,1.9613193273544312,1.2636489868164062,0.0
1659363083455172300,1.9601434469223022,1.2597209215164185,0.0
1659363083480571031,1.958747148513794,1.2553576231002808,0.0
1659363083649214506,1.9571934938430786,1.2507797479629517,0.0
1659363083649365425,1.9555491209030151,1.2461261749267578,0.0
1659363083652155160,1.9531482458114624,1.2393776178359985,0.0
1659363083652322292,1.9514774084091187,1.2347066402435303,0.0
1659363083660487651,1.9486826658248901,1.2273749113082886,0.0
1659363083715693473,1.9468387365341187,1.2229334115982056,0.0
1659363083781844377,1.9437973499298096,1.216141939163208,0.0
1659363083847380161,1.9417742490768433,1.2118350267410278,0.0
1659363083847513675,1.9397588968276978,1.2074686288833618,0.0
1659363083910591840,1.9380712509155273,1.203648567199707,0.0
1659363083923621416,1.9340654611587524,1.1950995922088623,0.0
1659363083987303972,1.9321129322052002,1.1913506984710693,0.0
1659363084057573795,1.9299814701080322,1.1874967813491821,0.0
1659363084057720661,1.9275530576705933,1.1833165884017944,0.0
1659363084121974706,1.9249264001846313,1.1789301633834839,0.0
1659363084125269412,1.9220675230026245,1.1742404699325562,0.0
1659363084194152593,1.921463131904602,1.173275113105774,0.0
1659363084266637325,1.92108952999115,1.1727029085159302,0.0
1659363084266759395,1.9202795028686523,1.171509027481079,0.0
1659363084333990097,1.9183151721954346,1.1687440872192383,0.0
1659363084345026731,1.9164767265319824,1.1662946939468384,0.0
1659363084415790081,1.9119362831115723,1.1605596542358398,0.0
1659363084479480743,1.909008502960205,1.156970500946045,0.0
1659363084479586839,1.9047574996948242,1.1517170667648315,0.0
1659363084542177438,1.9021284580230713,1.1485048532485962,0.0
1659363084557730197,1.9010097980499268,1.147196888923645,0.0
1659363084626978397,1.9013813734054565,1.1476116180419922,0.0
1659363084694826602,1.9004336595535278,1.1465919017791748,0.0
1659363084694883108,1.8986533880233765,1.1447222232818604,0.0
1659363084757890701,1.8963037729263306,1.142311453819275,0.0
1659363084785695552,1.896285891532898,1.1422935724258423,0.0
1659363084850654602,1.8968660831451416,1.142858624458313,0.0
1659363084918456077,1.8959256410598755,1.1419744491577148,0.0
1659363084918560028,1.8932772874832153,1.1395822763442993,0.0
1659363084982697725,1.8908110857009888,1.1374424695968628,0.0
1659363084994629383,1.8851428031921387,1.1327393054962158,0.0
1659363085062099218,1.882651448249817,1.1307482719421387,0.0
1659363085130069971,1.8824107646942139,1.1305630207061768,0.0
1659363085194814205,1.8838753700256348,1.1316473484039307,0.0
1659363085194946527,1.888692855834961,1.1350489854812622,0.0
1659363085258720159,1.89134681224823,1.1368173360824585,0.0
1659363085263816118,1.8924144506454468,1.137496829032898,0.0
1659363085326755285,1.8920049667358398,1.137244701385498,0.0
1659363085389815330,1.8942612409591675,1.138600468635559,0.0
1659363085459033250,1.8968617916107178,1.140120029449463,0.0
1659363085459221839,1.901590347290039,1.1428134441375732,0.0
1659363085523054838,1.9058319330215454,1.1451852321624756,0.0
1659363085531854867,1.9128916263580322,1.1491034030914307,0.0
1659363085598886251,1.9178528785705566,1.1518476009368896,0.0
1659363085662818193,1.9287906885147095,1.1576939821243286,0.0
1659363085730301380,1.9345189332962036,1.1606125831604004,0.0
1659363085730435609,1.943022608757019,1.1648287773132324,0.0
1659363085793767213,1.9489850997924805,1.1677312850952148,0.0
1659363085804287433,1.9584112167358398,1.1722501516342163,0.0
1659363085874914884,1.9644379615783691,1.1750767230987549,0.0
1659363085938361406,1.9752105474472046,1.1800025701522827,0.0
1659363086006050586,1.9810307025909424,1.1826118230819702,0.0
1659363086006152868,1.9889888763427734,1.1860811710357666,0.0
1659363086078092575,1.9940489530563354,1.188217282295227,0.0
1659363086091395139,2.0053861141204834,1.1927913427352905,0.0
1659363086162101268,2.010698080062866,1.1948442459106445,0.0
1659363086227388381,2.0190863609313965,1.1979936361312866,0.0
1659363086227548360,2.0245296955108643,1.1999850273132324,0.0
1659363086294076442,2.036868095397949,1.2043436765670776,0.0
1659363086329026460,2.0421903133392334,1.2061457633972168,0.0
1659363086393907308,2.051309585571289,1.2091224193572998,0.0
1659363086462341547,2.057009696960449,1.2109084129333496,0.0
1659363086530631780,2.06968355178833,1.2146412134170532,0.0
1659363086530732393,2.075855255126953,1.2163487672805786,0.0
1659363086594389915,2.084634780883789,1.2186903953552246,0.0
1659363086600337505,2.0908865928649902,1.2202943563461304,0.0
1659363086666433811,2.100181818008423,1.2225607633590698,0.0
1659363086734762430,2.1061007976531982,1.2239271402359009,0.0
1659363086798956632,2.1176998615264893,1.2264522314071655,0.0
1659363086799070119,2.1239469051361084,1.2277398109436035,0.0
1659363086865442276,2.1322624683380127,1.2293975353240967,0.0
1659363086876960039,2.1388001441955566,1.2306501865386963,0.0
1659363086946798563,2.148711919784546,1.2324483394622803,0.0
1659363087014002799,2.155221700668335,1.2335724830627441,0.0
1659363087014145612,2.1674396991729736,1.2355499267578125,0.0
1659363087087920904,2.1739237308502197,1.2365148067474365,0.0
1659363087092050790,2.185853958129883,1.2381937503814697,0.0
1659363087157681226,2.192324161529541,1.239077091217041,0.0
1659363087224674463,2.201383590698242,1.2402664422988892,0.0
1659363087290379285,2.207890033721924,1.241066336631775,0.0
1659363087290483236,2.2171456813812256,1.242110252380371,0.0
1659363087354434967,2.223742723464966,1.242783784866333,0.0
1659363087354528665,2.2329678535461426,1.2436295747756958,0.0
1659363087422428369,2.2394752502441406,1.2441736459732056,0.0
1659363087442787647,2.2501296997070312,1.2449294328689575,0.0
1659363087506933689,2.256624460220337,1.2452915906906128,0.0
1659363087569799661,2.2668144702911377,1.2457499504089355,0.0
1659363087634651184,2.2731380462646484,1.2459754943847656,0.0
