%time,field.x,field.y,field.z
1981093000000,-0.0010676075642485133,0.00511085725679972,-0.0010027206817564659
1981127000000,-0.001067965659282472,0.005111739608092378,-0.001002720711137814
1981160000000,-0.0010683135718049892,0.005112595958579216,-0.001002720739694797
1981193000000,-0.0010686618291677503,0.005113452260437619,-0.0010027207682910787
1981229000000,-0.0010690210008383848,0.005114334459905543,-0.0010027207977950509
1981262000000,-0.0010693699594420975,0.005115190662828367,-0.0010027208264712685
1981293000000,-0.0010697192639810855,0.005116046816920657,-0.0010027208551869338
1981328000000,-0.0010700795157072302,0.0051169288639332485,-0.0010027208848141025
1981360000000,-0.0010704295237143812,0.0051177849186789465,-0.001002720913610082
1981401000000,-0.0010707798787557635,0.005118640924391156,-0.0010027209424456895
1981445000000,-0.0010711412139684717,0.005119522818314663,-0.0010027209721966482
1981488000000,-0.001071492274713189,0.0051203787242671776,-0.0010027210011129446
1981532000000,-0.0010718436835950003,0.005121234580982273,-0.0010027210300690807
1981532000000,-0.0010722061057375845,0.005122116321179877,-0.0010027210599443878
1981571000000,-0.001072558222565901,0.005122972077720198,-0.001002721088981584
1981593000000,-0.0010729106886381247,0.00512382778481819,-0.00100272111805879
1981632000000,-0.0010732742011662025,0.005124709370650117,-0.0010027211480590492
1981677000000,-0.001073627377436109,0.00512556497715631,-0.0010027211772177004
1981721000000,-0.0010739809040607009,0.005126420534014145,-0.001002721206416559
1981764000000,-0.0010743455104422466,0.00512730196483756,-0.0010027212365423498
1981764000000,-0.001074699749523754,0.0051281574206845865,-0.0010027212658230249
1981808000000,-0.0010750543400746878,0.005129012826676332,-0.0010027212951440982
1981827000000,-0.0010754200438302238,0.005129894101844128,-0.001002721325397065
1981866000000,-0.001075775349909983,0.005130749406359356,-0.0010027213548060403
1981911000000,-0.0010761310096115409,0.005131604660733197,-0.001002721384256628
1981959000000,-0.0010764978171296496,0.005132485779386575,-0.0010027214146422665
1982006000000,-0.0010768541959325344,0.005133340931739629,-0.0010027214441756076
1982006000000,-0.0010772109294831782,0.0051341960337388136,-0.0010027214737497875
1982055000000,-0.0010775788445704978,0.005135076995180841,-0.001002721504262935
1982060000000,-0.0010779362995129854,0.005135931994733237,-0.001002721533920243
1982103000000,-0.001078294110333419,0.005136786943721458,-0.0010027215636185562
1982148000000,-0.001078663136518573,0.005137667747295375,-0.0010027215942597888
1982189000000,-0.0010790216710295994,0.005138522593408728,-0.0010027216240415665
1982233000000,-0.001079380562552826,0.005139377388746433,-0.001002721653864544
1982233000000,-0.0010797507033770875,0.005140258033792478,-0.001002721684634427
1982277000000,-0.0010801103208979103,0.005141112725825121,-0.0010027217145412541
1982293000000,-0.00108047029656925,0.005141967366869834,-0.0010027217444894716
1982334000000,-0.0010808415555866157,0.005142847852724758,-0.0010027217753885743
1982376000000,-0.0010812022595708412,0.005143702390032124,-0.0010027218054210023
1982420000000,-0.0010815633228479903,0.005144556876138255,-0.0010027218354950185
1982461000000,-0.0010819357036252093,0.005145437202135884,-0.0010027218665239236
1982461000000,-0.0010822974975388464,0.005146291584070263,-0.0010027218966825457
1982510000000,-0.001082659651891922,0.005147145914588894,-0.0010027219268829365
1982528000000,-0.0010830331580085522,0.005148026080059665,-0.0010027219580422513
1982570000000,-0.0010833960453300526,0.0051488803059701604,-0.0010027219883276296
1982612000000,-0.0010837592942416225,0.005149734480249435,-0.0010027220186549918
1982650000000,-0.0010841339292900886,0.0051506144845205205,-0.0010027220499453093
1982695000000,-0.0010844979135104082,0.005151468553753107,-0.0010027220803580476
1982695000000,-0.0010848622604755645,0.005152322571137863,-0.0010027221108129536
1982732000000,-0.0010852380280611997,0.005153202413533319,-0.0010027221422348846
1982760000000,-0.0010856031126838476,0.005154056325430741,-0.0010027221727755727
1982799000000,-0.0010859685612102541,0.0051549101852628185,-0.0010027222033586122
1982839000000,-0.0010863454649513628,0.005155789865103245,-0.0010027222349127743
1982881000000,-0.0010867116534924483,0.005156643619005071,-0.0010027222655820053
1982918000000,-0.0010870782071003742,0.005157497320622914,-0.0010027222962937857
1982963000000,-0.0010874562506282739,0.005158376837225714,-0.0010027223279808206
1982963000000,-0.0010878235466165401,0.005159230432468378,-0.0010027223587791984
1983007000000,-0.0010881912088389302,0.005160083975207376,-0.00100272238962033
1983027000000,-0.0010885703957980008,0.005160963327886643,-0.0010027224214408277
1983069000000,-0.0010889388027749127,0.005161816763803329,-0.0010027224523689593
1983117000000,-0.0016122558240516931,0.005118286802697723,-0.001003114527423292
1983160000000,-0.003210013358402683,0.00498578860348781,-0.0010031658569480753
1983160000000,-0.005787871745982831,0.004771041065582261,-0.0010032616964831473
1983200000000,-0.009367001731405804,0.004473253073076704,-0.0010033821081113746
1983230000000,-0.01406722105776761,0.00408700805225899,-0.0010035315063626725
1983275000000,-0.019540053093494755,0.0036512801231604326,-0.0010035968723271435
1983318000000,-0.025785570605229152,0.003184316110381772,-0.001003640865617661
1983364000000,-0.03284565087912447,0.002709005041176161,-0.0010034307494690628
1983364000000,-0.03999365886093645,0.002295718072784549,-0.0010042887778165463
1983410000000,-0.04716203349749008,0.0019464931457679345,-0.001003004535745939
1983427000000,-0.05446366810124256,0.0016413750249933492,-0.0010042591994992023
1983468000000,-0.061548060054451244,0.0014762866071607033,-0.001003842934353464
1983512000000,-0.06869090101675301,0.0013818257317269223,-0.0010037594083486256
1983557000000,-0.07607388371549105,0.0013432134407446955,-0.0010034417147249987
1983600000000,-0.08324413787729643,0.0013625135888563403,-0.0010029472192182483
1983600000000,-0.09041592384694484,0.001439674652836212,-0.0010024993510937621
1983649000000,-0.0978103595178657,0.0015818256998727813,-0.0010022797114938205
1983660000000,-0.10499230534297752,0.0017805472326102064,-0.001002266816201157
1983701000000,-0.11176200494881164,0.0020210321705934477,-0.0010026736044865432
1983745000000,-0.11874613888807517,0.0023194744138079456,-0.0010028496793041061
1983792000000,-0.1258484513166857,0.002706795548085866,-0.0010032845908495708
1983831000000,-0.13299205632516883,0.003192855785462977,-0.0010036242346551406
1983831000000,-0.14033754648293342,0.0037892701238966256,-0.0010035473778830344
1983875000000,-0.14740177481255673,0.004455093862513249,-0.0010036089374337136
1983893000000,-0.15447829398061208,0.005209194278794833,-0.0010042845329158757
1983934000000,-0.16179177472879547,0.006084730037218889,-0.0010031163432113917
1983983000000,-0.16884080757677017,0.007021405394511486,-0.0010039853667445225
1984018000000,-0.17572882618408134,0.008013614804999602,-0.0010037132993560363
1984046000000,-0.18287521627795805,0.009070504318607382,-0.0010034970132252116
1984088000000,-0.18997308408665275,0.010168461277750871,-0.001003091320439544
1984138000000,-0.19705753706281268,0.011318985779719832,-0.0010027843379222384
1984138000000,-0.20435235186139625,0.012565403906383641,-0.0010026183485916523
1984181000000,-0.21142834937417773,0.013834377751911866,-0.0010027131798942997
1984193000000,-0.2180878522485667,0.015085305632231559,-0.0010029807202334984
1984237000000,-0.22479095983096065,0.016414672856289236,-0.0010026025703264892
1984281000000,-0.23135932210410115,0.017798197417048314,-0.0010021787198228778
1984329000000,-0.2380740096618619,0.0192867853580035,-0.001002925391649881
1984330000000,-0.2450056051989679,0.02086558564549332,-0.0010028414246677879
1984372000000,-0.2518739255737757,0.022478765409043203,-0.0010034819940326345
1984393000000,-0.25882526338244155,0.024182982256387413,-0.0010039208126006068
1984436000000,-0.2659680024752178,0.026020731195176686,-0.0010038567231261501
1984481000000,-0.2728696917919151,0.027886085009166398,-0.0010029042113222225
1984523000000,-0.27946603036386447,0.0297402286547165,-0.0010026109462007333
1984568000000,-0.2861889094595898,0.03170099337768527,-0.001003402119172634
1984569000000,-0.2929432641104623,0.03379818965263255,-0.0010033910739677826
1984614000000,-0.2996721365223544,0.03602444054259845,-0.0010033653517304356
1984627000000,-0.3065631751458047,0.03844845261956436,-0.0010033795533667296
1984668000000,-0.31320406795702377,0.040924172014155345,-0.0010030580890400473
1984711000000,-0.3195981810393438,0.043448940383134266,-0.0010022766798581488
1984759000000,-0.32600367029460003,0.046133665999595994,-0.0010017242307126216
1984804000000,-0.33227887113236915,0.04892421230079434,-0.0010017476793764413
1984804000000,-0.33858606953238685,0.05188575144603185,-0.0010022736926175724
1984847000000,-0.3449895548657737,0.055013459140970354,-0.0010023522482602645
1984860000000,-0.35130389935823925,0.05824305976415473,-0.0010025111301277118
1984902000000,-0.3575412791123202,0.06156004363937542,-0.0010029667307866821
1984946000000,-0.36409741153115904,0.06508401217261184,-0.001003534520860997
1984994000000,-0.370472693314207,0.06853437274270126,-0.0010039762723172939
1984994000000,-0.37659178733708004,0.07186184083032925,-0.0010031415361493184
1985038000000,-0.38286110354425207,0.07527784856025499,-0.0010045786791087995
1985060000000,-0.3890983329414692,0.07872131800075152,-0.0010042669280738471
1985102000000,-0.39534836187999794,0.08223788508173926,-0.0010014631291834462
1985127000000,-0.4018701285164538,0.08592451974217226,-0.0010046346886608062
1985162000000,-0.4081941359097589,0.0894883522438232,-0.001003957159120987
1985202000000,-0.4142561760233614,0.0928909577133241,-0.0010031228788849218
1985239000000,-0.42043889194529355,0.09633923377827816,-0.001002467951355647
1985284000000,-0.42666694961294094,0.09981044302554204,-0.0010029135469784047
1985328000000,-0.4329832451908039,0.10334701919900743,-0.0010027032639285324
1985328000000,-0.43949297226350015,0.10700269917168916,-0.0010027008207492243
1985364000000,-0.4458119516927221,0.11056222077312082,-0.0010029473349407216
1985393000000,-0.45215200045010706,0.11413481741620693,-0.001003404596749722
1985436000000,-0.4586953670103729,0.11781009236013025,-0.0010037892068402963
1985483000000,-0.46504950852096505,0.12136824470126759,-0.0010040945405262285
1985527000000,-0.4712589799226097,0.12483476036660895,-0.0010038533801933515
1985571000000,-0.47769126935983003,0.1284097805715835,-0.00100307073120132
1985571000000,-0.4839519276918253,0.13191803069401797,-0.0010044813565818558
1985615000000,-0.49026919211721615,0.13550423030740505,-0.0010025622618010273
1985627000000,-0.49690258719472635,0.1392650746739965,-0.0010036135183569307
1985674000000,-0.5032546828312708,0.14283521296451815,-0.0010039610528493857
1985717000000,-0.5096377331309734,0.14637474049170482,-0.0010034940307497263
1985761000000,-0.5162483260372361,0.14997962030019463,-0.0010031864775516507
1985761000000,-0.5226946589269137,0.15343511683353886,-0.0010029842650153657
1985804000000,-0.5290076872930162,0.15674575082462738,-0.0010029436352025252
1985827000000,-0.5356736552133792,0.16010873837311787,-0.0010034072049247382
1985867000000,-0.5423363313426692,0.16334009489602414,-0.00100385074678647
1985911000000,-0.5490332045423176,0.16646783061257173,-0.001004060204447134
1985953000000,-0.5559691169742697,0.1695933155038978,-0.0010036868704645062
1985999000000,-0.5627144296057556,0.17252498126003485,-0.0010041617265947114
1985999000000,-0.5695011833049466,0.17537248622013227,-0.0010046286276972557
1986043000000,-0.5765279745379942,0.1782202447893953,-0.0010043171759173894
1986060000000,-0.5833830054137622,0.1809018219680104,-0.0010041734825473707
1986102000000,-0.5902859141053827,0.1835004370879427,-0.0010036422900482692
1986144000000,-0.5974322387094224,0.18607990027391538,-0.001003118002731354
1986194000000,-0.6043697531772789,0.18847168250383084,-0.0010030981815723448
1986194000000,-0.6112143895694957,0.19072176454748144,-0.0010017975613513183
1986238000000,-0.6183295656288278,0.19296227533767918,-0.0010026405288315228
1986260000000,-0.6253554654733492,0.1950920694386403,-0.0010039767497412103
1986301000000,-0.6324294658257812,0.197146399800149,-0.0010042821440522584
1986348000000,-0.639765603817882,0.19915745858470377,-0.0010041485649100075
1986393000000,-0.6466451873420941,0.2009315666786352,-0.001003613323675337
1986393000000,-0.6530499522403934,0.2024256092556091,-0.001003464906688279
1986432000000,-0.6590250469096285,0.20364168971339255,-0.0010032349586048747
1986460000000,-0.6641121776016925,0.2045118022278809,-0.0010030768213360325
1986502000000,-0.6684191051006734,0.20510267141080582,-0.0010029747630497174
1986551000000,-0.6719834590962269,0.2054648933113812,-0.0010029867881730346
1986595000000,-0.6747714202805533,0.20565021966291439,-0.0010029625336690703
1986596000000,-0.677033724621178,0.205736381103824,-0.001002925811735382
1986643000000,-0.6788116940609351,0.2057637041148996,-0.0010028891761510658
1986660000000,-0.6799998187950356,0.20576229495623027,-0.0010028629519761266
1986702000000,-0.6806584137541214,0.2057549870732577,-0.0010028536978895497
1986745000000,-0.6808003983285278,0.20575224095703556,-0.0010031701672810513
1986790000000,-0.6807862000760042,0.20575300447737685,-0.00100347814331566
1986831000000,-0.680772690750843,0.20575370203929486,-0.0010034791722728746
1986831000000,-0.6807587671362157,0.2057544172781489,-0.00100347977779542
1986871000000,-0.6807452480992431,0.20575510952335033,-0.00100348039837031
1986893000000,-0.6807317243039899,0.20575579984684153,-0.001003481045976723
1986935000000,-0.6807177858227126,0.20575650908140788,-0.001003481738596549
1986984000000,-0.6807042526577256,0.20575719550914895,-0.0010034824330184058
1987024000000,-0.6806907150061074,0.20575788002041762,-0.0010034831471002655
1987065000000,-0.6806767625056002,0.20575858326358926,-0.0010034839015498238
1987066000000,-0.6806632159437976,0.2057592638699376,-0.0010034846497044385
1987107000000,-0.6806496650847796,0.2057599425611965,-0.0010034854122910122
1987127000000,-0.6806356991635344,0.20576063981628653,-0.0010034862115733956
1987169000000,-0.6806221397631204,0.20576131462054112,-0.0010034869992426032
1987219000000,-0.6805823669322477,0.20576311808954945,-0.001003830563984072
1987258000000,-0.680082909362235,0.2057735528594767,-0.0010028926637589905
1987303000000,-0.6788872661827366,0.2058154967848012,-0.0010029331459467938
1987303000000,-0.677014786409135,0.205905348531348,-0.0010029853285291913
1987347000000,-0.6744292847481043,0.20606539077395564,-0.001003042017172339
1987360000000,-0.6713672460996675,0.20630125921993536,-0.001003071003040274
1987408000000,-0.6678869585058094,0.2066301926757848,-0.0010027976943420835
1987452000000,-0.6640394558895825,0.2070727764330745,-0.0010015309978151886
1987493000000,-0.6601603936216782,0.20760276524932406,-0.0010014648085105785
1987495000000,-0.6561506338160594,0.2082572647534505,-0.0010011617449168266
1987537000000,-0.6518140119244409,0.20903599947906684,-0.0010013842072146145
1987560000000,-0.6472499601158856,0.2099167839519188,-0.001001296776611281
1987603000000,-0.6427388304064681,0.21084480201826103,-0.0010030449215232308
1987645000000,-0.6386195654440107,0.21174167308653016,-0.001002988438492905
1987689000000,-0.6350912823582823,0.21254828755620064,-0.0010027782367166838
1987734000000,-0.6312384260765208,0.21346030461397772,-0.0010016738197493394
1987734000000,-0.6265044639991152,0.2146210556993438,-0.001001774433681716
1987778000000,-0.6211858847438522,0.21597011765973592,-0.0010020684705907036
1987793000000,-0.6152750100813486,0.21750211162985128,-0.0010022652544608088
1987833000000,-0.6086997346504672,0.21921004600384003,-0.0010030094781118583
1987874000000,-0.6022332988324138,0.22086828391843402,-0.0010035291019793932
1987917000000,-0.5955528180520361,0.2225554980657488,-0.0010033632296776278
1987932000000,-0.5883409023946966,0.22432521040567482,-0.0010037500719798122
1987963000000,-0.5811715728945122,0.22600983303912947,-0.0010046452992853692
1988012000000,-0.5741014336500407,0.22759952671182423,-0.0010031106897817575
1988055000000,-0.5669366255833884,0.2291192704186141,-0.0010029806343943015
1988103000000,-0.5599004513328407,0.23050609286298454,-0.0010026723735346056
1988103000000,-0.5529368448515104,0.23177024656947237,-0.0010021753037310066
1988147000000,-0.54571963056881,0.23300152085411352,-0.0010024185700546404
1988160000000,-0.5385043440377197,0.23416475907117337,-0.0010032220688037524
1988204000000,-0.531274385328852,0.2352743870757791,-0.0010029344714008633
1988247000000,-0.5238116023012344,0.23636398913507375,-0.0010027551897986119
1988291000000,-0.516554651716345,0.23736945289624964,-0.0010028119754427883
1988335000000,-0.5097717346785163,0.23826071064110174,-0.00100270670462781
1988335000000,-0.5033534339996469,0.23907272569857005,-0.0010024053055618168
1988376000000,-0.4971755372316026,0.23986319860667332,-0.001002802358623954
1988393000000,-0.49059383617467,0.24070634367014723,-0.0010031846753914136
1988432000000,-0.48359095022619436,0.2415882594145211,-0.0010034089728623297
1988468000000,-0.47674195635527955,0.24243145816632097,-0.0010030138160481705
1988518000000,-0.4698931694719514,0.24325184317851709,-0.0010021299436463182
1988558000000,-0.46272503861664466,0.24408524350188374,-0.001002398753457194
1988607000000,-0.4555455839477302,0.2448783262171049,-0.0010034638444558971
1988607000000,-0.44828946902685873,0.24562091644270792,-0.0010033966756958154
1988653000000,-0.4407898823745549,0.24631969251104055,-0.001003513946094027
1988660000000,-0.4334936174669822,0.2469396115798438,-0.0010031953199727342
1988702000000,-0.42615810524589426,0.24749312798831252,-0.0010031662259701313
1988740000000,-0.4185854505818738,0.24797339603780363,-0.0010031738219463994
1988766000000,-0.4112248128645701,0.24835205746572228,-0.001003447554640928
1988809000000,-0.4042283821366752,0.24863085449712954,-0.0010024799400522866
1988852000000,-0.3971270169174286,0.24883274539926925,-0.0010038427612341326
1988897000000,-0.3901857312626233,0.24894875462629518,-0.0010039774830456517
1988898000000,-0.38307120302157455,0.2489940222232803,-0.0010025396988217125
1988937000000,-0.3757103007034339,0.24899045100856643,-0.0010019728315236696
1988960000000,-0.3684890342159885,0.2489328500919113,-0.0010028036841068892
1988999000000,-0.361164124737819,0.24881367150860087,-0.0010039790686994475
1989043000000,-0.35361288320398687,0.24862845005726802,-0.0010037879016576157
1989082000000,-0.3462834694470865,0.2483878511175029,-0.001003355214270918
1989120000000,-0.33929988484393975,0.24811566006428468,-0.0010022801920476047
1989153000000,-0.33277986614287614,0.24784926664452037,-0.00100304129090735
1989199000000,-0.3265318689271776,0.24762680999253914,-0.001002173981961927
1989199000000,-0.3197587401390608,0.24737597884710077,-0.0010022681897822946
1989235000000,-0.3122658501988701,0.24705275160282844,-0.0010036926040089857
1989260000000,-0.3049333458583122,0.24667061057360082,-0.001004005506246658
1989303000000,-0.29788803287646504,0.24624147744864025,-0.0010040242007105377
1989347000000,-0.2908169685666695,0.2457581371380165,-0.0010043011833867702
1989393000000,-0.2839559300626682,0.24524564637588123,-0.0010039186335504546
1989393000000,-0.27696598048841387,0.24468084693405806,-0.0010030304481301877
1989429000000,-0.2697550892882387,0.24408008598423328,-0.001001993465547274
1989460000000,-0.2625390512140753,0.24343780289144198,-0.001003853801656785
1989511000000,-0.2555583391683953,0.24276902963918787,-0.0010037824028325988
1989554000000,-0.24854874004327152,0.2420584249233036,-0.0010034798064111755
1989602000000,-0.24170494722476424,0.2413119939319085,-0.0010034360541270847
1989602000000,-0.23526276371236038,0.24056632078133405,-0.0010026292823192527
1989649000000,-0.22926015605057315,0.23985687891416027,-0.0010019596439558819
1989660000000,-0.2235944699018769,0.23918279379887508,-0.0010036985813206174
1989702000000,-0.21775233772262842,0.2384648716252711,-0.0010020855104194218
1989740000000,-0.2113350643713881,0.23760585052877567,-0.0010020551970304596
1989783000000,-0.20463441949184255,0.2366182763259172,-0.0010027674844401632
1989827000000,-0.19784793803496484,0.23551890674893697,-0.0010027242060270843
1989827000000,-0.1909032633693285,0.23432687726024468,-0.0010043483239706337
1989871000000,-0.18417927643998872,0.23311110327581877,-0.0010040197135824692
1989893000000,-0.1776324701960213,0.23186255463870617,-0.0010034065994936128
1989934000000,-0.17111410636020008,0.23055667436381028,-0.0010037391406400135
1989977000000,-0.16483678836106222,0.22925046964382154,-0.00100359375556653
1990020000000,-0.1583872629592362,0.22786676164160338,-0.0010032470149446485
1990057000000,-0.15154312714456425,0.22638315901697795,-0.0010030026482908162
1990085000000,-0.14489719138170987,0.22493523007901678,-0.0010030061645598977
1990123000000,-0.1382440527507716,0.22347378113633082,-0.001003227761538078
1990166000000,-0.13139052237386967,0.22194912703127267,-0.0010034362622627566
1990166000000,-0.12474230131451797,0.22045126544174104,-0.0010036125400437884
1990210000000,-0.11796561452126614,0.21890364394514245,-0.0010032418022514686
1990227000000,-0.11100475551138606,0.2172704612383275,-0.0010026442040879865
1990270000000,-0.10450976571172982,0.21570864139267726,-0.0010028089256837042
1990315000000,-0.0981713014383705,0.21415299565298754,-0.0010033845671096678
1990360000000,-0.09143570751805835,0.21247943928131693,-0.0010040931287499597
1990403000000,-0.08482263224794537,0.21082766221684918,-0.0010034788292672264
1990403000000,-0.07807855733125323,0.209141034197883,-0.001002389925956873
1990450000000,-0.07089728098250535,0.20735718925908259,-0.0010037096150793158
1990460000000,-0.06386780003432044,0.20561877299597558,-0.001003226163420464
1990506000000,-0.05686001269651868,0.20387589801121528,-0.0010033505651912446
1990550000000,-0.04954785890579128,0.2019959916843105,-0.0010029814537150204
1990593000000,-0.04245747279005642,0.2001103698386362,-0.0010030248512085914
1990594000000,-0.03573054198658446,0.19826374537546174,-0.0010033112538527858
1990631000000,-0.028881355681375755,0.19632023583726368,-0.001003682632032113
1990660000000,-0.022244004762193122,0.1943734612063732,-0.0010040609938990717
1990698000000,-0.015558502459315083,0.19235077312099733,-0.0010038345939980715
1990742000000,-0.008698480616888419,0.19020642926613024,-0.001003386602167318
1990786000000,-0.00207755510485327,0.18806977069597036,-0.0010034319462978308
1990827000000,0.004608875256971004,0.18585178544114328,-0.0010031393126987385
1990827000000,0.01160638713224349,0.18346589801994323,-0.0010041264106977338
1990860000000,0.01847784492163057,0.18108587456554745,-0.0010042708560119226
1990893000000,0.02497761688565868,0.1787965841437943,-0.0010037596958416516
1990930000000,0.0314775622662952,0.17645597819310416,-0.0010035261487608173
1990977000000,0.03743537653696603,0.1742770951299221,-0.001002792359747616
1991023000000,0.043242538258854935,0.1721158390557886,-0.0010028062730733124
1991067000000,0.04935820190623603,0.16981082237874023,-0.001002671339059076
1991067000000,0.05529075440791566,0.16755109618195232,-0.001002781044991144
1991106000000,0.060767340786607685,0.16544455289661833,-0.0010027541823680042
1991127000000,0.06625966548729773,0.1633096657382861,-0.0010033933080400709
1991171000000,0.07164915168167929,0.1611975112085463,-0.0010039066639656868
1991216000000,0.0769848761751135,0.15908808689876686,-0.0010042808107821773
1991259000000,0.08246784849496612,0.1568968476308859,-0.0010045192794867278
1991308000000,0.08777549261907075,0.15475249342018058,-0.0010045387117056104
1991308000000,0.09294782169762325,0.15264846884914643,-0.0010028077438915435
1991338000000,0.09808141553672697,0.15053630452689132,-0.0010046075524073016
1991360000000,0.1028932326127536,0.14854076869352714,-0.0010032810113754752
1991404000000,0.10747040545402052,0.14660985516869002,-0.0010035731962175082
1991446000000,0.11186151624705545,0.144719162878155,-0.0010035008078776303
1991490000000,0.11576119161759997,0.14299634929317023,-0.0010034371519269981
1991532000000,0.11928687361199308,0.1413943698099094,-0.0010033891724714056
1991532000000,0.12252626316558858,0.1398762570915254,-0.0010033910999433723
1991578000000,0.12529002386081772,0.1385361570336252,-0.0010033880417597008
1991593000000,0.12768125020922297,0.13733427531237338,-0.0010033781688328497
1991634000000,0.12976293081550105,0.13624426518598692,-0.001003191482341563
1991677000000,0.13144741833281773,0.13532574788708632,-0.001003125698613723
1991721000000,0.13281228717098162,0.13455194332377354,-0.0010031079764551698
1991765000000,0.13395928093851517,0.13387654548326455,-0.0010036199459771133
1991765000000,0.1348656355035229,0.13332638075251965,-0.0010036467363956948
1991812000000,0.13557132018316223,0.1328875084758453,-0.001003671645850173
1991827000000,0.13609239695100173,0.132557350053171,-0.0010037171982122325
1991868000000,0.13640101444022432,0.1323598169403667,-0.0010036397997285167
1991912000000,0.13651540891291528,0.13228526507462757,-0.0010036885639912278
1991953000000,0.13650141632289248,0.132294590685293,-0.0010044746626270973
1991997000000,0.13649299523505787,0.13230066300837387,-0.0010043287588068703
1991997000000,0.13648265851733907,0.1323071391695951,-0.0010043415983274455
1992042000000,0.1364718561024972,0.13231402208789947,-0.0010043455661450616
1992059000000,0.13646150749742408,0.13232064628644977,-0.0010043424298349993
1992096000000,0.13645113966520941,0.13232725867388673,-0.0010043409012513022
1992130000000,0.13644044791699628,0.13233406896214853,-0.0010043396114333102
1992183000000,0.13643007129121473,0.13234067232616606,-0.0010043383891865376
1992225000000,0.13641969454282912,0.13234726944505232,-0.0010043372671526135
1992270000000,0.1364090040243478,0.13235406018366175,-0.0010043362011736903
1992270000000,0.13629201049172224,0.1324302120573312,-0.001003529041709278
1992321000000,0.13598481773341,0.13262512137118185,-0.0010033409925041953
1992327000000,0.13552420370153545,0.13291199519359856,-0.0010030547802541943
1992373000000,0.13501569649299758,0.13320133989372884,-0.0010023790695495825
1992395000000,0.13453588737168615,0.1334550443731676,-0.001000370262872207
1992427000000,0.13403721155866627,0.13379896306641959,-0.001001492167745987
1992469000000,0.13337138270979512,0.13424057756662006,-0.0010018247352865384
1992514000000,0.1323996623415574,0.13487241352606297,-0.0010019678990550174
1992565000000,0.13096488387529337,0.13579954362639307,-0.0010020955667772238
1992565000000,0.12905449391800386,0.13702797600483033,-0.0010022400541140897
1992610000000,0.12654465492912634,0.1386327853492171,-0.0010023978407299773
1992627000000,0.1232936918807489,0.14069516386567732,-0.0010030355271903081
1992676000000,0.11945643516857204,0.14309280278142913,-0.0010028524967931017
1992725000000,0.11495389530359616,0.1458469641037427,-0.0010027320391017593
1992768000000,0.11011575508628221,0.1487180081035049,-0.0010027074596041519
1992768000000,0.10545135068488463,0.15141692188631592,-0.0010029367770301237
1992817000000,0.10111650572509545,0.153919565440297,-0.0010026173557632183
1992827000000,0.09716306951366385,0.1561686061357459,-0.001002981615693791
1992871000000,0.09366530755242891,0.15809794982393666,-0.0010035530750300732
1992921000000,0.09014933305784757,0.15997554599231423,-0.0010037743254824524
1992961000000,0.08650069097505773,0.16186009089979259,-0.001004032934694081
1992961000000,0.08286974348368739,0.16368127909935548,-0.0010024885975238838
1992994000000,0.07928282184580013,0.16545906376592717,-0.0010017987742495654
1993027000000,0.07587136068046137,0.1671335014068166,-0.0010008754105462828
1993061000000,0.07292776765043739,0.16854409627344596,-0.0010008837442808602
1993102000000,0.07004745181166272,0.1698801803838866,-0.0010037506648162935
1993133000000,0.0669021508829535,0.17130828113142252,-0.0010030693333651884
1993176000000,0.06370446147934057,0.1727517673834443,-0.0010016609718868953
1993224000000,0.060582726455332706,0.17415018336477553,-0.001003563808819722
1993272000000,0.05770834308432461,0.17543777889120185,-0.0010022187850397164
1993272000000,0.05502107730769066,0.1766355658495624,-0.0010038777318683266
1993315000000,0.052207675598644164,0.17788951340911086,-0.0010022564525358768
1993327000000,0.049060534722918436,0.17926048113071014,-0.0010013131863733891
1993366000000,0.0461365216562355,0.18049533113168995,-0.001002774867998834
1993409000000,0.04380057909261758,0.18146103575236597,-0.0010027415794905611
1993451000000,0.042038416356299235,0.1821805322197165,-0.0010027314539653824
1993484000000,0.040934838650921124,0.18263438253396092,-0.0010032888808630507
1993521000000,0.03978927120358493,0.18310749941618076,-0.001001997298712469
1993565000000,0.038102528127582226,0.18379426436515725,-0.0010021914918890013
1993565000000,0.036387676958235055,0.184476896300125,-0.0010036685995832885
1993609000000,0.035153125936398064,0.1849648992988256,-0.0010025839054153447
1993627000000,0.03470710744009135,0.18514144944835773,-0.001002568271598954
1993667000000,0.03497463842980062,0.18503386217820855,-0.0010025702389735262
1993710000000,0.0358183109784387,0.18469156639795528,-0.001002611785063081
1993740000000,0.037234705853279676,0.1841064637444269,-0.0010024725501819771
1993767000000,0.03905855526294845,0.18333179432896304,-0.0010023672564837653
1993811000000,0.041057935434836754,0.18244712857857706,-0.0010027651143571133
1993846000000,0.042978487852839135,0.18156640082909029,-0.0010017459388401116
1993892000000,0.0445694501405671,0.18081507490047638,-0.0010015761317057371
1993940000000,0.04580853387500333,0.18022418381959218,-0.0010027193350961132
1993940000000,0.04660257603635752,0.17984412370588565,-0.0010027118434198443
1993985000000,0.04689576562109353,0.17970287191127782,-0.0010027075702758147
1993993000000,0.04674535523039506,0.1797765208765467,-0.0010026240913714804
1994027000000,0.046155072401646464,0.18005419208438103,-0.0010024012387400763
1994064000000,0.04515767988956831,0.180507499188663,-0.001002436666144621
1994109000000,0.04376941676961451,0.1811078553621373,-0.0010022028389437207
1994150000000,0.042498407382374884,0.18163225176044925,-0.001001337594558064
1994194000000,0.04172418905187354,0.1819405814857649,-0.0010022842411466712
1994195000000,0.04154329340202022,0.1820081291382786,-0.0010022725488863238
1994237000000,0.041897517663893054,0.1818679594136099,-0.0010021124612233576
1994261000000,0.042514074267456486,0.181620888823448,-0.0010019753467973534
1994299000000,0.04294515272099642,0.1814450733169941,-0.0010023038446413217
1994345000000,0.04288344096250711,0.18147149886806316,-0.0010029589690873364
1994386000000,0.04226203885462055,0.1817258844366829,-0.0010030421837336108
1994417000000,0.04108622349458165,0.18219431347109585,-0.0010028826323228227
1994461000000,0.03929925288917713,0.18287153546086796,-0.0010028816547071016
1994494000000,0.03753701929343161,0.18349322705657808,-0.0010015502930745823
1994494000000,0.03613438180019794,0.18396153911552116,-0.0010023670629191878
1994538000000,0.03519928851864088,0.1842614088463071,-0.0010023522903255325
1994560000000,0.03488549738168057,0.18436162195293795,-0.0010019076408674353
1994601000000,0.03510552711296038,0.18429156381075548,-0.0010017253997616424
1994643000000,0.035827071678202704,0.18405225649037824,-0.0010013334277875
1994681000000,0.03703748272182823,0.1836253930897571,-0.0010015880422831087
1994726000000,0.03834306033125552,0.18313633086330053,-0.0010019629046659033
1994771000000,0.03947813326593744,0.18269345989263291,-0.0010021464431986642
1994771000000,0.040259128614504404,0.18237980366120513,-0.00100344916524394
1994812000000,0.040492106324072616,0.18228652479892235,-0.001003113303027027
1994826000000,0.03998617033136183,0.1824770594734031,-0.00100331122730336
1994870000000,0.03877536123807868,0.18291794261243985,-0.0010033727157272333
1994910000000,0.03739357619903694,0.18340192812090006,-0.0010031194321463016
1994947000000,0.036406960634661485,0.18373918155094768,-0.0010017390610952068
1994979000000,0.03617279779256874,0.1838197554658339,-0.0010016209222645824
1995025000000,0.03658406904673198,0.183682028190297,-0.0010016279662626477
1995069000000,0.03765520186795063,0.18331354912345268,-0.0010017756732765212
1995069000000,0.039274696708393016,0.1827422416024386,-0.0010020882455940641
1995118000000,0.041361670831337405,0.181978114288315,-0.0010020150420307662
1995127000000,0.0440147335882636,0.18097428548520628,-0.0010021749004734647
1995170000000,0.04635489227483383,0.18006362577835683,-0.001002608985165028
1995218000000,0.04797382842712361,0.17942331488359037,-0.001002914036779965
1995266000000,0.048750198103685874,0.1791135233060719,-0.0010029604500229085
1995266000000,0.04866140240303846,0.17915292451888745,-0.001002894799017804
1995313000000,0.047778720063461046,0.17952398565562105,-0.0010029323168867753
1995327000000,0.04605084966430735,0.18025942164005948,-0.0010030013699063763
1995372000000,0.04359130952612364,0.1813182733780567,-0.0010031117032724378
1995420000000,0.040386101795268324,0.18270560635535849,-0.0010032566329610387
1995463000000,0.036339991977603035,0.18444744348165673,-0.001003422217216273
1995463000000,0.0319972016824298,0.1862814912773992,-0.0010032181983782792
1995507000000,0.027639367181432728,0.18808270893841544,-0.0010030149342173805
1995527000000,0.023155198794932337,0.18989488516414268,-0.0010028154607343194
1995568000000,0.019021908442638628,0.191524667207854,-0.001003158251398989
1995611000000,0.01483212004517714,0.19313225112721558,-0.0010033977636540632
1995657000000,0.010395320058367075,0.19474948705622389,-0.001004621842992777
1995701000000,0.006310575911188401,0.19615340005036952,-0.001002245738603618
1995701000000,0.002603845276753106,0.1973488701978138,-0.0010023602557332097
1995745000000,-0.000882938858845743,0.19840018906702075,-0.0010019552929590655
1995760000000,-0.003977551139069466,0.1992793015909211,-0.0010018489712167108
1995799000000,-0.0068227396742556795,0.20003648505867808,-0.0010017171467179738
1995843000000,-0.00953126138094423,0.20070205468803612,-0.0010014271554944151
1995886000000,-0.011978303302980255,0.2012620621392615,-0.0010013741001891098
1995932000000,-0.014255346092072432,0.20175989543164696,-0.0010009920768475622
1995932000000,-0.01633209913395605,0.20214020262540383,-0.0010016221757429972
1995982000000,-0.017939369471867757,0.2024021625944573,-0.0010018140999491672
1995993000000,-0.019003962799004376,0.2025577123774661,-0.0010018515438631227
1996033000000,-0.019400668992661494,0.20261030955612414,-0.0010019170077501527
1996061000000,-0.019098622330560134,0.20257719425042214,-0.0010019169742833053
1996093000000,-0.018127008484151396,0.20248591168481403,-0.0010019802982984861
1996139000000,-0.016354572525938398,0.2023487250268589,-0.0010020859596178919
1996181000000,-0.013850100040200784,0.20219583192349352,-0.00100221704636054
1996226000000,-0.010582836753247442,0.20204401064967967,-0.0010023756245045937
1996275000000,-0.006475099740358899,0.20189968153308538,-0.0010025616918470197
1996275000000,-0.001862665434394217,0.2017696982556043,-0.0010022593915116305
1996316000000,0.003129955618357834,0.2016219550879566,-0.0010019895816152577
1996327000000,0.008377379442491256,0.20145073927739973,-0.0010021936606101865
1996375000000,0.013387334182746496,0.20128025377409778,-0.0010018477426073195
1996416000000,0.01809928038309625,0.20115723678992112,-0.0010024295177963015
1996462000000,0.022428740540060846,0.20110544087980164,-0.0010038382942200025
1996462000000,0.026275374330856843,0.20109980731074947,-0.0010036051913724815
1996511000000,0.030430650116052105,0.20112605345855897,-0.0010023983185738286
1996527000000,0.03532818448189342,0.20120115112371173,-0.001002522410860695
1996573000000,0.040613723377211954,0.20134901847896286,-0.0010028517559522061
1996615000000,0.046317320740929833,0.20160397251365778,-0.001002229393975311
1996660000000,0.05253235863714738,0.20202338384529353,-0.0010013011560961356
1996660000000,0.05884230935605493,0.20262295471231062,-0.0010019114924469316
1996706000000,0.06528192838903436,0.20340613949251837,-0.0010028406556780271
1996727000000,0.07206993399654278,0.20439638838301324,-0.0010023069120081753
1996773000000,0.0786490124458925,0.2054973162018652,-0.0010025026800039583
1996813000000,0.08490264051574684,0.20667782486289635,-0.0010029294224752489
1996852000000,0.0912958927438866,0.20803305563828853,-0.0010022068979346974
1996898000000,0.09767543001356323,0.2095367337125542,-0.0010022057764077358
1996898000000,0.10356778967508455,0.2110766457250591,-0.0010023826123260055
1996947000000,0.10955387021895965,0.21278653351059995,-0.0010020667788690901
1996960000000,0.11541179363243272,0.21460530909161066,-0.0010021989145937611
1997004000000,0.12152880871541191,0.2166563597952423,-0.0010021198232075118
1997048000000,0.12826762990949267,0.21906820081230874,-0.0010025242484564476
1997091000000,0.13488865315645102,0.22159783511028094,-0.001003384893378062
1997134000000,0.14148206729473564,0.2242738809583713,-0.0010037246935627325
1997134000000,0.14820496661494337,0.22715423419466318,-0.0010033265982243404
1997177000000,0.15466003628983307,0.23006727615784464,-0.0010041090774359565
1997193000000,0.16086324763438445,0.23300721344434727,-0.0010019257809278335
1997232000000,0.16681110128765106,0.23595240301427114,-0.0010029477364439897
1997276000000,0.17240248995352023,0.2388415683284155,-0.0010043097192909203
1997316000000,0.17804519015351872,0.2418970816106714,-0.001000744971308424
1997359000000,0.18394302335908483,0.24527702889438566,-0.0010010834556413335
1997385000000,0.1897098529339059,0.2487672168456615,-0.0010013532637613877
1997426000000,0.19551696333685908,0.25244638395397156,-0.0010016124232952416
1997469000000,0.2016342970729307,0.2564645084087272,-0.0010030081317272434
1997469000000,0.2072834252980696,0.2602976583187671,-0.0010032349974017328
1997516000000,0.21276162841295235,0.26412664140272557,-0.0010030878833024622
1997527000000,0.21834937346786237,0.26814829219412445,-0.0010026201941559856
1997565000000,0.22382397804289528,0.2721951311098387,-0.001001742617170693
1997610000000,0.22933285139963075,0.27635495331632587,-0.00100196881481621
1997659000000,0.23509732693070362,0.2808202619881708,-0.0010027256896063576
1997703000000,0.2406963194213866,0.2852790445801759,-0.0010030618499152384
1997703000000,0.246255695038981,0.2898045442972928,-0.0010033275714709002
1997750000000,0.2519355016762535,0.2945328938857599,-0.0010036159480047158
1997760000000,0.25740061464440545,0.2992021074815572,-0.0010036483938233795
1997806000000,0.262618297079818,0.3038123101849831,-0.0010039256243442735
1997850000000,0.26776852936544937,0.30847064500475246,-0.0010042810520557825
1997898000000,0.2726808261095796,0.31300557454934785,-0.0010037823611879493
1997898000000,0.2776240848235896,0.31767799056295415,-0.0010025161589556353
1997946000000,0.2828202894213413,0.3227176364025094,-0.001002817488823294
1997960000000,0.2877246270289784,0.32760532093330974,-0.001001718760635064
1998002000000,0.2924873752527746,0.33248724732917634,-0.0010032837883129364
1998045000000,0.297249203542739,0.33747640781517274,-0.0010029823197060736
1998093000000,0.3017519877774933,0.34231234793564225,-0.001002600800011938
1998141000000,0.3060959053232149,0.34712979588045967,-0.0010026228014082018
1998141000000,0.31035372356390517,0.35195556511685755,-0.0010024198779370677
1998185000000,0.3147118390733466,0.35698983037273113,-0.0010020750526451919
1998193000000,0.31936376299851194,0.3624581393964641,-0.0010027254379430944
1998237000000,0.3241249454036442,0.36814878181513594,-0.0010032119756824068
1998282000000,0.32850681914414603,0.3734708552483676,-0.0010038633659864848
1998329000000,0.33278927188837526,0.37874003550850377,-0.00100431650793038
1998334000000,0.3371663116949581,0.3841949665938411,-0.0010047577751848072
1998373000000,0.3413520135832687,0.3894816644867732,-0.0010040001353271814
1998393000000,0.3454351023282029,0.39471488395015264,-0.0010038929223732083
1998433000000,0.349487394474787,0.40003499282130794,-0.0010035581471467582
1998477000000,0.35335347464527717,0.405225784518655,-0.001001413404239558
1998518000000,0.35736058743264143,0.41069379113437665,-0.0010013107511697948
1998568000000,0.3616455681398184,0.41665236991895416,-0.0010032515179159464
1998568000000,0.3657061116333427,0.42242034508446336,-0.001002313462899071
1998611000000,0.3692882038485445,0.42769700929333454,-0.0010024798820440564
1998626000000,0.3725328984315028,0.4326415646925979,-0.0010025544418977364
1998668000000,0.3757025260654622,0.4375662996696853,-0.0010021302220278513
1998712000000,0.37926233641435664,0.44317552034179475,-0.001002395603374083
1998760000000,0.383172062062472,0.44941805209791974,-0.0010030952142364713
1998760000000,0.3867872578835695,0.4552923672293739,-0.0010036719206502759
1998806000000,0.3902885691429444,0.4610781533061219,-0.001003882222019855
1998829000000,0.3938491549122169,0.4670564845124958,-0.0010035436492593676
1998868000000,0.3971538990822232,0.4726974341643196,-0.0010040499460889155
1998911000000,0.4003076967848836,0.478175853408175,-0.0010046925619460467
1998955000000,0.40350541897550585,0.4838054861741669,-0.0010044102813290198
1998996000000,0.4066201862575322,0.48938645848547124,-0.001001828075398517
1998996000000,0.4097474412098997,0.49510931171338685,-0.001001444177394381
1999039000000,0.41296667044966306,0.5011445401538066,-0.0010016085014476726
1999060000000,0.4161211246726767,0.5071613054358566,-0.0010017770165823177
1999103000000,0.4194088987368409,0.5134755156962783,-0.0010028277904921626
1999151000000,0.4228635547751056,0.5201103588146034,-0.0010028182555897533
1999193000000,0.42622305066012756,0.5265526798942755,-0.0010027720300132617
1999193000000,0.4294873425024978,0.5327916769345548,-0.001003275729160539
1999235000000,0.43280843745381853,0.5390619184919186,-0.0010033796586183565
1999260000000,0.4359840278400926,0.5449995176374922,-0.0010027595451714728
1999307000000,0.43915214691731225,0.5509413338816401,-0.0010026018410902796
1999351000000,0.4423800769237584,0.5569638287425828,-0.0010048803323378062
1999377000000,0.44559087696554445,0.5628899017639,-0.0010023480967250309
1999413000000,0.4489458332388701,0.5689714757464633,-0.001003668713907998
1999458000000,0.4525143438992354,0.575326305686991,-0.0010028525488865354
1999501000000,0.45607310637376486,0.5815840820753599,-0.0010036726305645213
1999501000000,0.45954414700041557,0.5876434742157837,-0.001003335240516115
1999545000000,0.4630578768613606,0.5937217733324004,-0.0010036086421803085
1999560000000,0.4663208239958157,0.5993283745493108,-0.0010030730765512516
1999601000000,0.4695329979101278,0.6048164625259708,-0.0010029249045487923
1999649000000,0.4728586414358829,0.6104668663966305,-0.001002728161709307
1999691000000,0.4758322884802435,0.6154931934456296,-0.0010027679093083872
1999736000000,0.478569949339839,0.6200983684703598,-0.0010028124131479521
1999736000000,0.4814028019221295,0.6248415918692914,-0.001003051018058903
1999780000000,0.4842961077235665,0.6296607268484639,-0.0010034287728042934
1999793000000,0.48724069392911296,0.6345393040270962,-0.0010037562149280872
1999828000000,0.49028604905674283,0.6395590903304291,-0.0010041302238318964
1999860000000,0.4932525052109183,0.6444217507830683,-0.0010041475582940468
1999908000000,0.4961132229354984,0.6491034860484898,-0.0010024789176084244
1999946000000,0.49887362045312217,0.6536176841213845,-0.0010041692948386458
1999992000000,0.5014663995435275,0.6578879303672948,-0.0010034464836560543
2000035000000,0.5040494926529681,0.6621290619265318,-0.0010034253417621729
2000035000000,0.5067222772412233,0.66649347594343,-0.0010036211922704458
2000083000000,0.5092130239934614,0.6705194852944227,-0.001003615964998525
2000093000000,0.5114669583847667,0.6741057453359709,-0.001003683072553243
2000135000000,0.5135130909667885,0.6772817893609249,-0.0010034862852144784
2000178000000,0.5152127171610954,0.6798347396498132,-0.0010033062026208114
2000222000000,0.516617692975901,0.6818653600307786,-0.0010032071723924951
2000265000000,0.5178168908805442,0.6835177656627877,-0.0010030614814422155
2000266000000,0.5188427635333571,0.68487203214828,-0.0010030308791146962
2000309000000,0.5197244550821294,0.6859940425417254,-0.0010030100382746598
2000327000000,0.5204713822270831,0.6869159298732281,-0.0010029924299072845
2000367000000,0.5210313898303929,0.6875906274313496,-0.0010029767671442674
2000408000000,0.521422690845472,0.6880541499011543,-0.0010029807244207045
2000451000000,0.5216450096489802,0.6883149832314162,-0.001003016752505262
2000494000000,0.5216861822022029,0.6883643442894464,-0.0010029916848719247
2000494000000,0.5216759554097147,0.6883531808663029,-0.0010038414901122512
2000533000000,0.5216666484411092,0.6883428709270383,-0.0010038847129564613
2000560000000,0.5216575588560284,0.6883327602707631,-0.001003964896483741
2000599000000,0.5216484407123152,0.6883226261731352,-0.0010040369744888505
2000626000000,0.5216390121106496,0.6883121555212834,-0.0010041021999976259
2000668000000,0.521629824612257,0.6883019636584744,-0.0010041593842802302
2000706000000,0.5216206019762302,0.6882917443828744,-0.0010042117697980739
2000739000000,0.5216110668692486,0.6882811812656034,-0.0010042514931200633
2000788000000,0.5216017952913312,0.6882708442948489,-0.0010042506937745048
2000835000000,0.5215925218911754,0.6882605157564482,-0.0010042494664976136
2000835000000,0.5215829644807275,0.6882498761279726,-0.0010042482997646984
2000878000000,0.5215736845961936,0.6882395494610523,-0.0010042471668942933
2000893000000,0.5216732710981522,0.6883575012454238,-0.0010016125279849117
2000937000000,0.5220108151559123,0.6887533941484033,-0.001001607061177176
2000982000000,0.5225960309636173,0.689444767566351,-0.001001619324067355
2001026000000,0.5234735672936972,0.6904944520047416,-0.001001608155127922
2001068000000,0.5247299741944363,0.692024410195036,-0.001001625314421762
2001068000000,0.5263369844896398,0.6940236722224435,-0.0010016842485234753
2001112000000,0.5283636485754059,0.6966047555105347,-0.0010017861813739343
2001128000000,0.5309058048531209,0.6999257123145198,-0.0010019248356393472
2001166000000,0.533809459798973,0.7038159848072555,-0.0010020914300440456
2001210000000,0.5371226048805867,0.7083572292597351,-0.0010022958774746002
2001245000000,0.5408844682550755,0.7136120292110009,-0.001002727546628921
2001293000000,0.5446512426818724,0.718974270127033,-0.001002981063959324
2001293000000,0.5484172101516415,0.7244619596761646,-0.0010028581514064452
2001327000000,0.5522186889149012,0.7301421456833268,-0.001003561894831171
2001358000000,0.5558445500457111,0.7356886531572647,-0.0010040746026684852
2001400000000,0.5594255025807919,0.7413018339648849,-0.0010042411897069614
2001448000000,0.5629024015017834,0.7468875942050703,-0.00100129426313518
2001493000000,0.5661468262793244,0.7522116697391756,-0.001004347829929652
2001536000000,0.5692302788720579,0.757378923928785,-0.001002989582217298
2001536000000,0.5723044511293979,0.7626181414580153,-0.0010030124727091819
2001580000000,0.5751705593746204,0.7676095623416688,-0.0010037630346340087
2001593000000,0.5778132118318492,0.7723178167162928,-0.0010034006752171233
2001636000000,0.5803974897851386,0.7770146601399902,-0.001003440163855493
2001684000000,0.5826666087574421,0.7812325692457587,-0.0010031057251119573
2001732000000,0.5845145210678405,0.7847391565038822,-0.0010030150949801898
2001732000000,0.5859943249152056,0.7876086836256416,-0.0010029219157267587
2001776000000,0.5870361003044245,0.7896787564917956,-0.0010028339143008103
2001793000000,0.5877065058167171,0.7910486514459502,-0.0010027787288668343
2001836000000,0.5880862877345175,0.7918495413428428,-0.0010027509988914038
2001878000000,0.5882835118980885,0.7922769100971239,-0.001002737552437613
2001921000000,0.5883276111735398,0.7923744496659719,-0.0010036702611615211
2001963000000,0.5883269069849852,0.7923760174677628,-0.0010037091096215846
2001963000000,0.5883268008724715,0.7923768506960495,-0.0010037366353372323
2002007000000,0.588326602069885,0.7923773234048935,-0.0010037559590618597
2002027000000,0.5883263170949184,0.7923775918288869,-0.0010037758948947262
2002065000000,0.5883259683818627,0.7923776556878613,-0.0010037941310350115
2002107000000,0.5883255601759836,0.792377523200599,-0.0010038060462318928
2002147000000,0.5883249353898492,0.7923771397999497,-0.0010038131960862888
2002196000000,0.588324187316411,0.7923766403153921,-0.0010038168011249002
2002196000000,0.5883233705990507,0.792376076041846,-0.0010038192317020876
2002240000000,0.5883224881934378,0.792375452415723,-0.0010038212651098978
2002260000000,0.5883216069388447,0.7923748183807324,-0.0010038230473420028
2002296000000,0.5883207091036615,0.7923741599336176,-0.0010038254262307242
2002347000000,0.5883197685553234,0.7923734472376405,-0.0010038283604275125
2002388000000,0.588318842399375,0.7923727224099184,-0.001003831208147208
2002437000000,0.5883179047656738,0.7923719713881245,-0.0010038340005819185
2002437000000,0.5883169287957697,0.7923711721702743,-0.0010038361750084358
2002480000000,0.5883159728858258,0.7923703780781773,-0.0010038380663446693
2002493000000,0.588315009945878,0.7923695694263655,-0.0010038397677116923
2002533000000,0.5883140116457315,0.792368721722723,-0.001003841744446867
2002577000000,0.588313037631861,0.7923678849196362,-0.001003843161222314
2002617000000,0.588312059066098,0.7923670375876982,-0.0010038451285049217
2002670000000,0.5883110475087312,0.7923661549592317,-0.0010038465135423814
2002670000000,0.588310062595924,0.7923652891967079,-0.0010038478334874583
2002715000000,0.5882500734241801,0.7922271315452086,-0.0010039641913481695
2002727000000,0.5879447049120837,0.7915241538490722,-0.0010031371619865538
2002775000000,0.5873813551983367,0.790196509590483,-0.0010030678046449894
2002823000000,0.5865853873438859,0.7882732360552326,-0.0010030060702615612
2002867000000,0.5855524264546598,0.785711333622976,-0.001002887462844472
2002867000000,0.5843692722147078,0.7827212277915725,-0.001002824311482877
2002910000000,0.5830265648669452,0.7793271403561649,-0.0010012331135854056
2002926000000,0.5814578853252749,0.7754176125247381,-0.0010016272348618536
2002967000000,0.5796783696251119,0.7711254518594862,-0.0010018365095903377
2003011000000,0.5776073412045845,0.7663116492622178,-0.0010021948848739047
2003053000000,0.5750927111388157,0.7607110854902226,-0.0010021550186813527
2003097000000,0.5723577494553069,0.7548171598050591,-0.0010025758692453965
2003097000000,0.5694533717745016,0.7486980427934963,-0.0010028190950695515
2003141000000,0.5662494377741298,0.7421261801588281,-0.0010027465595242868
2003160000000,0.563043685864064,0.7357053249361118,-0.0010024836400575367
2003204000000,0.5598213824866792,0.7293852243162879,-0.0010026228981874184
2003249000000,0.5564242599781284,0.7228203517460167,-0.00100368534036235
2003288000000,0.5530798270463319,0.7164097655483429,-0.0010038283167843956
2003335000000,0.5498277070813363,0.7102063311763592,-0.001004124263720818
2003335000000,0.546437254828978,0.7037323299771685,-0.0010034582552466767
2003375000000,0.5430880882582665,0.6973133376679332,-0.0010025424569765316
2003393000000,0.5398542735371842,0.6910668119145069,-0.0010026626847132007
2003435000000,0.5365405721441235,0.6845858483810477,-0.001001855413730806
2003483000000,0.5332724477152023,0.6780918303459381,-0.0010037631791301703
2003529000000,0.5300310418194957,0.6715201822196128,-0.0010034898185384
2003529000000,0.5267524722213158,0.6647059730743464,-0.0010031951818608477
2003571000000,0.523632571330234,0.6580563074303376,-0.0010031425841663388
2003593000000,0.5205747664434388,0.6513682557938237,-0.0010033074736375339
2003627000000,0.5174945631638241,0.644442852905562,-0.0010034528114363818
2003659000000,0.5145733411136523,0.6376930087607825,-0.0010033661345448253
2003706000000,0.5117376731480081,0.6309458786198047,-0.0010035968453948538
2003757000000,0.5090091055324835,0.6242447720595573,-0.00100267360264129
2003802000000,0.506468347252307,0.6178274107937466,-0.0010048672364368488
2003802000000,0.5039641628067889,0.6113459724893447,-0.00100351023267203
2003844000000,0.5013502168342439,0.6044800294649285,-0.0010037110369507038
2003864000000,0.4987904003536403,0.5977157814540577,-0.0010041894416831475
2003900000000,0.4962375626571928,0.5909290406598284,-0.0010036625077956725
2003942000000,0.49361589275762496,0.5839308771939588,-0.0010034008215275454
2003986000000,0.49107778419914716,0.577129263233586,-0.0010030092873942534
2004036000000,0.488736667174798,0.5708252493879897,-0.0010018886369557202
2004036000000,0.4863592485706372,0.5643839614979665,-0.0010026658046743547
2004075000000,0.48400094174744185,0.5579606889904262,-0.0010028510802484493
2004094000000,0.4815365377720364,0.5512051878248729,-0.001003199681480476
2004139000000,0.4789833439934294,0.544125155952947,-0.0010035409012011734
2004188000000,0.47653312132552766,0.5372451600385517,-0.001003771106930694
2004236000000,0.47418246251760937,0.5305815437300719,-0.0010024870726948014
2004236000000,0.47183649490374235,0.5238874933794039,-0.0010042032675729312
2004273000000,0.4696001144621113,0.517417156575096,-0.0010045665412810462
2004293000000,0.4674467464587412,0.5111104590172724,-0.0010037359546650262
2004332000000,0.46531562488597,0.5047150041162377,-0.0010033495093118676
2004376000000,0.46331743579343543,0.49863026432984786,-0.0010042526899384126
2004425000000,0.46129311802103423,0.4923826575775247,-0.0010025466953027806
2004469000000,0.45913262456496534,0.48553803812630913,-0.0010027285777610764
2004469000000,0.45700813824903386,0.47850341025342624,-0.0010029858308415428
2004511000000,0.45512056480421625,0.4719164481108904,-0.0010022758777891508
2004527000000,0.45327620004896024,0.4651410788988726,-0.0010027544303604918
2004569000000,0.4515526060338927,0.4584277593133502,-0.0010028691647266628
2004613000000,0.450039169677115,0.4521608047769927,-0.0010016755031199386
2004656000000,0.4486473235760128,0.4459335567581639,-0.0010038098549290907
2004699000000,0.4473662731071624,0.4394937360647117,-0.0010047223341296749
2004699000000,0.4462518899123433,0.4330896654827884,-0.0010047602932698359
2004743000000,0.4452591450405758,0.42650116527998055,-0.0010045091916340218
2004760000000,0.4444161937359752,0.42014416333400484,-0.0010043387331241209
2004807000000,0.4437257000591271,0.4139614477507271,-0.0010020123437601038
2004853000000,0.44318179228843024,0.4076469757053396,-0.0010036470503096036
2004895000000,0.4427826199996297,0.4012385440258003,-0.0010028760102298515
2004895000000,0.442556200046482,0.3950104638200848,-0.0010030719312926553
2004943000000,0.44247656973929406,0.3887705334763049,-0.0010033659206011673
2004960000000,0.4425723241091576,0.38274190157386523,-0.0010040344032463573
2005003000000,0.44284665230806836,0.37673872059549496,-0.001003893070419818
2005049000000,0.4433222827027355,0.37056325631632114,-0.0010039218577442104
2005093000000,0.44397089403936113,0.3645831575619275,-0.0010040727819455829
2005137000000,0.4447729200690326,0.3587552120329214,-0.0010024789966734463
2005137000000,0.44574433832516996,0.35281261964795607,-0.0010036718629298919
2005181000000,0.44684627116991754,0.34696556333349843,-0.0010025759297893101
2005193000000,0.4480559931670119,0.34138854070012037,-0.001003383799495959
2005228000000,0.4494449651198542,0.33572797242515,-0.0010026939864566028
2005270000000,0.45102212626168425,0.33002467932028995,-0.0010029081788480339
2005314000000,0.4526736930395215,0.32470019916014115,-0.0010029025067713748
2005358000000,0.4541986332860251,0.32029404419281987,-0.0010026965480945185
2005403000000,0.45542776231146165,0.3170801525139851,-0.001002519783399429
2005403000000,0.45638652027036547,0.31478696065352685,-0.001002445733831226
2005446000000,0.45712799651963226,0.3131265620447414,-0.00100238248125048
2005460000000,0.45757209968742996,0.3121732852204548,-0.0010023440884611642
2005501000000,0.4577220239418097,0.31185694439838296,-0.0010023317260928755
2005544000000,0.45771893123292834,0.3118620832032514,-0.0010025811018801803
2005589000000,0.4577159498981716,0.3118666701300663,-0.0010025842371279743
2005632000000,0.4577129773422506,0.3118712411667006,-0.001002587564127598
2005633000000,0.4577099227122902,0.31187593395746344,-0.001002590683231077
2005675000000,0.4577069647030535,0.3118804744021054,-0.0010025934490108523
2005693000000,0.45770401253983467,0.311885002548574,-0.0010025959820357533
2005727000000,0.4577009762457306,0.31188965677035296,-0.0010025983713422108
2005768000000,0.4576980337340101,0.31189416480723514,-0.0010026004965543109
2005814000000,0.45791441220920764,0.3114334394341375,-0.001002705386904383
2005861000000,0.45858288237958633,0.3100191578299779,-0.0010029090920175045
2005861000000,0.45967446047347166,0.30770705523826275,-0.0010030593032150578
2005911000000,0.4611645513912324,0.30454337838459233,-0.0010027411372763098
2005927000000,0.4629088555990095,0.30078317211857364,-0.0010025776431493785
2005966000000,0.46460920947415113,0.29702633964911535,-0.0010026701422782766
2006011000000,0.4663801775864142,0.2930042911011568,-0.0010029071754524867
2006060000000,0.4682515320685464,0.28858001132711986,-0.0010031733429260309
2006060000000,0.47000298379723365,0.28425157357657455,-0.001003500409459377
2006105000000,0.4715556651453418,0.28022126685319,-0.0010013083846090974
2006127000000,0.47295018173838754,0.2763751834411072,-0.0010032663116687109
2006173000000,0.4742261797680719,0.27259575942018094,-0.0010025670024940807
2006217000000,0.4754138085565559,0.268789720891527,-0.001001933803684428
2006265000000,0.4765671130546472,0.2647872317302845,-0.0010026179221102605
2006266000000,0.4776299191127515,0.26075754461006284,-0.001003713826855119
2006309000000,0.478535648613912,0.25697230803719384,-0.0010016216624246337
2006327000000,0.47926079777682484,0.253646262929261,-0.001001568461002248
2006368000000,0.479796140334277,0.2509906896000287,-0.0010016234205291637
2006412000000,0.4801907284170747,0.24891491379505354,-0.0010017327288643733
2006452000000,0.4804618418709361,0.2474109875029851,-0.0010018082944492947
2006495000000,0.48059517837429017,0.2466261068004155,-0.001001669435354749
2006495000000,0.4806053580423942,0.24654871086970423,-0.0010019648261914565
2006539000000,0.4806180148750084,0.24644782609996194,-0.001002978468704046
2006560000000,0.48071821956746646,0.2458072878712851,-0.0010029604007936906
2006605000000,0.48081627049913844,0.24520939037505254,-0.00100230359501894
2006646000000,0.4808062521141641,0.2452591607422875,-0.0010020218235012243
2006696000000,0.4807041715786418,0.24591304591141336,-0.0010020415361582657
2006696000000,0.4805811576762617,0.24671793702116515,-0.0010034482347966618
2006742000000,0.480519930513543,0.24711381124092008,-0.001002657437035457
2006760000000,0.48057246380903745,0.2467527274167161,-0.0010029376300377778
2006805000000,0.4807378540381669,0.24566249198924042,-0.0010030304132837911
2006842000000,0.48103906487240927,0.24376618906596792,-0.0010031863977163907
2006861000000,0.48145642799358507,0.24126496857130394,-0.0010031624823591753
2006898000000,0.48195535770344555,0.2383461412609601,-0.001003410988775228
2006943000000,0.48253942188009724,0.23493497926007934,-0.0010034613355346597
2006988000000,0.48320621471202546,0.2310892395463369,-0.0010033066935996177
2007031000000,0.48386395273238547,0.22728918902059445,-0.0010018819201975254
2007031000000,0.4844279586153171,0.22410364453252293,-0.001001793109886042
2007075000000,0.484875357273708,0.22169293949092536,-0.0010016829701515809
2007093000000,0.4852816362969826,0.21965687988190163,-0.001001463061203526
2007132000000,0.4857582344443913,0.21738752226904773,-0.0010027676060189623
2007180000000,0.48631337778224265,0.21477081331842984,-0.0010023936543997608
