%time,field.x,field.y,field.z
1659375749713606595,0.25953346490859985,-0.653688907623291,0.0
1659375749764512062,0.25953346490859985,-0.653688907623291,0.0
1659375749821178436,0.25953346490859985,-0.653688907623291,0.0
1659375749845005750,0.25953346490859985,-0.653688907623291,0.0
1659375749899796247,0.25953346490859985,-0.653688907623291,0.0
1659375749928572654,0.25953346490859985,-0.653688907623291,0.0
1659375749983283042,0.25953346490859985,-0.653688907623291,0.0
1659375750035039901,0.25953346490859985,-0.653688907623291,0.0
1659375750092272758,0.25953346490859985,-0.653688907623291,0.0
1659375750114722728,0.25953346490859985,-0.653688907623291,0.0
1659375750169606685,0.25953346490859985,-0.653688907623291,0.0
1659375750198475599,0.25953346490859985,-0.653688907623291,0.0
1659375750254196643,0.25953346490859985,-0.653688907623291,0.0
1659375750307150125,0.25953346490859985,-0.653688907623291,0.0
1659375750361417055,0.25953346490859985,-0.653688907623291,0.0
1659375750410101652,0.25953346490859985,-0.653688907623291,0.0
1659375750457798957,0.25953346490859985,-0.653688907623291,0.0
1659375750506027221,0.25953346490859985,-0.653688907623291,0.0
1659375750550044775,0.25953346490859985,-0.653688907623291,0.0
1659375750594101428,0.25953346490859985,-0.653688907623291,0.0
1659375750637968778,0.25953346490859985,-0.653688907623291,0.0
1659375750685916185,0.25953346490859985,-0.653688907623291,0.0
1659375750730480670,0.25953346490859985,-0.653688907623291,0.0
1659375750773986816,0.25953346490859985,-0.653688907623291,0.0
1659375750819716691,0.25953346490859985,-0.653688907623291,0.0
1659375750866647005,0.25953346490859985,-0.653688907623291,0.0
1659375750914403438,0.25953346490859985,-0.653688907623291,0.0
1659375750957948684,0.25953346490859985,-0.653688907623291,0.0
1659375751001812219,0.25953346490859985,-0.653688907623291,0.0
1659375751046144962,0.25953346490859985,-0.653688907623291,0.0
1659375751092007637,0.25953346490859985,-0.653688907623291,0.0
1659375751092170715,0.25953346490859985,-0.653688907623291,0.0
1659375751141315221,0.25953346490859985,-0.653688907623291,0.0
1659375751170720815,0.25953346490859985,-0.653688907623291,0.0
1659375751226465702,0.25953346490859985,-0.653688907623291,0.0
1659375751279447078,0.25953346490859985,-0.653688907623291,0.0
1659375751342345714,0.25953346490859985,-0.653688907623291,0.0
1659375751385611295,0.25953346490859985,-0.653688907623291,0.0
1659375751433027029,0.25953346490859985,-0.653688907623291,0.0
1659375751481605291,0.25953346490859985,-0.653688907623291,0.0
1659375751529762983,0.25953346490859985,-0.653688907623291,0.0
1659375751574411869,0.25953346490859985,-0.653688907623291,0.0
1659375751622340440,0.25953346490859985,-0.653688907623291,0.0
1659375751671774387,0.25953346490859985,-0.653688907623291,0.0
1659375751717861413,0.25934451818466187,-0.6537616848945618,0.0
1659375751765709638,0.2554693818092346,-0.6552495956420898,0.0
1659375751813731908,0.25154244899749756,-0.6567437052726746,0.0
1659375751857942581,0.24519194662570953,-0.6591277718544006,0.0
1659375751906535625,0.2396610677242279,-0.6611743569374084,0.0
1659375751906663894,0.23129041492938995,-0.6642253994941711,0.0
1659375751955980777,0.22507162392139435,-0.6664540767669678,0.0
1659375751984516620,0.2166251391172409,-0.6694437265396118,0.0
1659375752039694070,0.21058781445026398,-0.6715784072875977,0.0
1659375752086873292,0.20185278356075287,-0.6746631860733032,0.0
1659375752133874416,0.1955188363790512,-0.6768698692321777,0.0
1659375752182247161,0.18657927215099335,-0.6798257827758789,0.0
1659375752226388931,0.1804073601961136,-0.6817137598991394,0.0
1659375752270485877,0.16892847418785095,-0.6850239634513855,0.0
1659375752319396972,0.16249306499958038,-0.6868225336074829,0.0
1659375752361967325,0.1513427346944809,-0.6898025274276733,0.0
1659375752406289339,0.14505159854888916,-0.6913536190986633,0.0
1659375752450063705,0.13723358511924744,-0.6931577324867249,0.0
1659375752494785308,0.13125021755695343,-0.6944681406021118,0.0
1659375752542449712,0.12175807356834412,-0.6964360475540161,0.0
1659375752586230516,0.11547673493623734,-0.6976814270019531,0.0
1659375752631290674,0.10736935585737228,-0.6992157697677612,0.0
1659375752678533554,0.10101978480815887,-0.7003733515739441,0.0
1659375752722421169,0.09077628701925278,-0.7021862864494324,0.0
1659375752766402244,0.08468838781118393,-0.7032245993614197,0.0
1659375752810900211,0.07248950749635696,-0.7051610350608826,0.0
1659375752854523420,0.06602780520915985,-0.7061040997505188,0.0
1659375752902184009,0.057251814752817154,-0.7073121070861816,0.0
1659375752946470499,0.050601303577423096,-0.7081832885742188,0.0
1659375752990321874,0.03843937814235687,-0.7096527218818665,0.0
1659375753034522771,0.031896814703941345,-0.7103608846664429,0.0
1659375753114830732,0.02310413308441639,-0.7112084031105042,0.0
1659375753114970207,0.01652076281607151,-0.7117558121681213,0.0
1659375753158904314,0.007128148339688778,-0.71241295337677,0.0
1659375753181750774,0.0008607977069914341,-0.7127617597579956,0.0
1659375753230324983,-0.00875365361571312,-0.7130252718925476,0.0
1659375753280277490,-0.015106518752872944,-0.7129866480827332,0.0
1659375753326819896,-0.024798614904284477,-0.7127948999404907,0.0
1659375753370144844,-0.031124357134103775,-0.7126386165618896,0.0
1659375753421958923,-0.042860932648181915,-0.7122166752815247,0.0
1659375753466281890,-0.049131110310554504,-0.7119230031967163,0.0
1659375753510367393,-0.0585072822868824,-0.7114087343215942,0.0
1659375753554573059,-0.06487292796373367,-0.711007297039032,0.0
1659375753598198175,-0.07492119818925858,-0.710292637348175,0.0
1659375753646360397,-0.08120284974575043,-0.7097821831703186,0.0
1659375753694094896,-0.09356200695037842,-0.708480179309845,0.0
1659375753739315509,-0.09963683038949966,-0.7076963186264038,0.0
1659375753782220602,-0.10871230065822601,-0.7064366936683655,0.0
1659375753832691192,-0.11529954522848129,-0.7054775357246399,0.0
1659375753880923509,-0.12485577166080475,-0.7040071487426758,0.0
1659375753927015781,-0.1314002424478531,-0.7029369473457336,0.0
1659375753927121877,-0.1403551995754242,-0.7013961672782898,0.0
1659375753981658935,-0.14680442214012146,-0.7002207636833191,0.0
1659375754035345077,-0.15822477638721466,-0.6979551315307617,0.0
1659375754088258266,-0.16384314000606537,-0.6967530250549316,0.0
1659375754134096860,-0.17179827392101288,-0.6949812769889832,0.0
1659375754178419113,-0.177494615316391,-0.6936635375022888,0.0
1659375754223221778,-0.18684445321559906,-0.6914079785346985,0.0
1659375754282016992,-0.19305765628814697,-0.689858078956604,0.0
1659375754326200485,-0.2055627703666687,-0.6865559220314026,0.0
1659375754374387741,-0.21213839948177338,-0.6846950054168701,0.0
1659375754422534465,-0.22181329131126404,-0.6817992329597473,0.0
1659375754466460943,-0.22791191935539246,-0.6799312233924866,0.0
1659375754510157585,-0.2356482744216919,-0.6775334477424622,0.0
1659375754554740428,-0.24078768491744995,-0.675905168056488,0.0
1659375754554823160,-0.2485368251800537,-0.6734634041786194,0.0
1659375754633343935,-0.2536589801311493,-0.6718646883964539,0.0
1659375754638130664,-0.26119422912597656,-0.6695021390914917,0.0
1659375754697093725,-0.26565876603126526,-0.6680902242660522,0.0
1659375754742966413,-0.27329349517822266,-0.6656229496002197,0.0
1659375754795823097,-0.27722087502479553,-0.664279043674469,0.0
1659375754838540792,-0.2836979925632477,-0.6619459390640259,0.0
1659375754886841297,-0.28897544741630554,-0.6600168943405151,0.0
1659375754930837154,-0.29701897501945496,-0.6571031212806702,0.0
1659375754974217891,-0.3030211329460144,-0.6549451351165771,0.0
1659375755022267818,-0.31429797410964966,-0.6509251594543457,0.0
1659375755066472530,-0.3206537365913391,-0.6487041711807251,0.0
1659375755110599279,-0.3297919034957886,-0.645545482635498,0.0
1659375755161803007,-0.33577579259872437,-0.6434881687164307,0.0
1659375755210251569,-0.3444547951221466,-0.6405512094497681,0.0
1659375755254424810,-0.349378764629364,-0.6389150023460388,0.0
1659375755302463293,-0.35838982462882996,-0.6359334588050842,0.0
1659375755350225687,-0.36285600066185,-0.6344446539878845,0.0
1659375755394473314,-0.36886659264564514,-0.6323871612548828,0.0
1659375755438126087,-0.3728700280189514,-0.6309540867805481,0.0
1659375755482854843,-0.37938186526298523,-0.6286429166793823,0.0
1659375755526605367,-0.3836672902107239,-0.6271726489067078,0.0
1659375755573188304,-0.39205658435821533,-0.6242492198944092,0.0
1659375755665489435,-0.39680245518684387,-0.6225621700286865,0.0
1659375755665945291,-0.40338921546936035,-0.620235025882721,0.0
1659375755710343837,-0.4078843295574188,-0.6186741590499878,0.0
1659375755719262361,-0.4138651490211487,-0.6166079640388489,0.0
1659375755776804208,-0.4181951880455017,-0.615111768245697,0.0
1659375755822415351,-0.4243490993976593,-0.6130040287971497,0.0
1659375755865983486,-0.4283512830734253,-0.6116442680358887,0.0
1659375755910739183,-0.43418073654174805,-0.6096831560134888,0.0
1659375755958234548,-0.4381459653377533,-0.6083723902702332,0.0
1659375756002836704,-0.44463294744491577,-0.6063046455383301,0.0
1659375756046256065,-0.448870450258255,-0.6050151586532593,0.0
1659375756095188617,-0.45751431584358215,-0.6024706959724426,0.0
1659375756140657186,-0.4622284471988678,-0.6010966897010803,0.0
1659375756190385580,-0.468619167804718,-0.5992337465286255,0.0
1659375756238332748,-0.4728517532348633,-0.5980167984962463,0.0
1659375756293199539,-0.4791457951068878,-0.5962766408920288,0.0
1659375756338521957,-0.48306700587272644,-0.5952645540237427,0.0
1659375756386292695,-0.4909873306751251,-0.593343198299408,0.0
1659375756430283069,-0.4954659640789032,-0.5922651886940002,0.0
1659375756478355884,-0.5013871788978577,-0.5907997488975525,0.0
1659375756527086734,-0.5058779716491699,-0.5896652936935425,0.0
1659375756527227640,-0.5108726620674133,-0.5883561968803406,0.0
1659375756575295448,-0.5114110708236694,-0.5882142186164856,0.0
1659375756620700120,-0.5118533372879028,-0.588104784488678,0.0
1659375756682329654,-0.512962818145752,-0.5878471732139587,0.0
1659375756726510763,-0.5160509347915649,-0.5871591567993164,0.0
1659375756774383783,-0.5189430713653564,-0.5865226984024048,0.0
1659375756822929620,-0.5253007411956787,-0.5851469039916992,0.0
1659375756866614103,-0.5294622182846069,-0.5842732191085815,0.0
1659375756911900520,-0.5370990037918091,-0.5827072262763977,0.0
1659375756954646825,-0.5414185523986816,-0.5818485617637634,0.0
1659375757005330085,-0.5487131476402283,-0.580377995967865,0.0
1659375757050136566,-0.5543121099472046,-0.5792064070701599,0.0
1659375757098578929,-0.5619562864303589,-0.577552855014801,0.0
1659375757142553567,-0.5669737458229065,-0.5764461159706116,0.0
1659375757142648458,-0.5733978152275085,-0.5750185251235962,0.0
1659375757196961164,-0.5776675939559937,-0.5740476846694946,0.0
1659375757246928930,-0.5859418511390686,-0.5720827579498291,0.0
1659375757304878473,-0.5907796025276184,-0.5708751082420349,0.0
1659375757354264020,-0.5976693034172058,-0.5691096782684326,0.0
1659375757398701667,-0.6026169061660767,-0.5678207874298096,0.0
1659375757446080923,-0.6101983189582825,-0.5657030344009399,0.0
1659375757491004228,-0.6148496866226196,-0.5642954707145691,0.0
1659375757534203290,-0.6232925653457642,-0.561613142490387,0.0
1659375757579906225,-0.6281388998031616,-0.5600656270980835,0.0
1659375757626466989,-0.6347918510437012,-0.5579351186752319,0.0
1659375757674245834,-0.6398085951805115,-0.5562570691108704,0.0
1659375757724123477,-0.6480466723442078,-0.5533613562583923,0.0
1659375757770399808,-0.6535617709159851,-0.5513452291488647,0.0
1659375757814862966,-0.6632606387138367,-0.5477992296218872,0.0
1659375757858818054,-0.6678857803344727,-0.5461503863334656,0.0
1659375757906368732,-0.6748610138893127,-0.5437073111534119,0.0
1659375757950761556,-0.6801148056983948,-0.5418622493743896,0.0
1659375757994692325,-0.6886081695556641,-0.5388533473014832,0.0
1659375758043746709,-0.6943855285644531,-0.5368186831474304,0.0
1659375758044202566,-0.7021540999412537,-0.5341139435768127,0.0
1659375758089751243,-0.7069343328475952,-0.5324482321739197,0.0
1659375758119128227,-0.7134127020835876,-0.5301945805549622,0.0
1659375758174124956,-0.7178893089294434,-0.5286576151847839,0.0
1659375758224081993,-0.7239968776702881,-0.5265707969665527,0.0
1659375758284574031,-0.728473961353302,-0.5250353217124939,0.0
1659375758284699440,-0.7349126935005188,-0.5228219032287598,0.0
1659375758338397502,-0.7394344806671143,-0.5212606191635132,0.0
1659375758412462472,-0.750747799873352,-0.5174224972724915,0.0
1659375758463592052,-0.7565978765487671,-0.5155236721038818,0.0
1659375758507332563,-0.7677686810493469,-0.5118178725242615,0.0
1659375758550438880,-0.7736898064613342,-0.5097342729568481,0.0
1659375758598141193,-0.781333327293396,-0.5069797039031982,0.0
1659375758646193265,-0.7863509058952332,-0.5051506161689758,0.0
1659375758694315671,-0.7931146621704102,-0.5026432871818542,0.0
1659375758738341808,-0.7971695065498352,-0.5011297464370728,0.0
1659375758782901525,-0.8060681223869324,-0.49782776832580566,0.0
1659375758826823472,-0.8113307952880859,-0.49585869908332825,0.0
1659375758870391845,-0.818117082118988,-0.49333927035331726,0.0
1659375758914272546,-0.8226900696754456,-0.4916948974132538,0.0
1659375758958280563,-0.829609215259552,-0.4892449378967285,0.0
1659375759002198696,-0.8339553475379944,-0.48771804571151733,0.0
1659375759053269863,-0.842365026473999,-0.48485392332077026,0.0
1659375759098945856,-0.8467402458190918,-0.483412504196167,0.0
1659375759146705865,-0.852648138999939,-0.48152825236320496,0.0
1659375759191314458,-0.8571687340736389,-0.48012590408325195,0.0
1659375759234285593,-0.8639606833457947,-0.4780154526233673,0.0
1659375759279116392,-0.8680193424224854,-0.47674718499183655,0.0
1659375759322742938,-0.8753858804702759,-0.4745247960090637,0.0
1659375759368212461,-0.8786653876304626,-0.47356554865837097,0.0
1659375759413977622,-0.8800251483917236,-0.4731655418872833,0.0
1659375759458373069,-0.8794658780097961,-0.4733271598815918,0.0
1659375759519731998,-0.8764141798019409,-0.47416195273399353,0.0
1659375759561735630,-0.8736693859100342,-0.4748706817626953,0.0
1659375759605631828,-0.8677401542663574,-0.476303368806839,0.0
1659375759649822711,-0.8640868663787842,-0.4771314263343811,0.0
1659375759693787574,-0.858543336391449,-0.4783204197883606,0.0
1659375759737824201,-0.8539502024650574,-0.4792308211326599,0.0
1659375759737914323,-0.846947968006134,-0.4804771840572357,0.0
1659375759791886329,-0.8417971134185791,-0.4812861382961273,0.0
1659375759820358514,-0.8338195085525513,-0.48235422372817993,0.0
1659375759875273704,-0.8287129998207092,-0.48292267322540283,0.0
1659375759922010421,-0.8195070028305054,-0.4836958646774292,0.0
1659375759977023124,-0.8149324059486389,-0.4839418828487396,0.0
1659375760022606611,-0.8084298968315125,-0.48411592841148376,0.0
1659375760068266153,-0.8043042421340942,-0.48411720991134644,0.0
1659375760114122152,-0.7984344363212585,-0.4839533269405365,0.0
1659375760158561229,-0.7943405508995056,-0.4837232232093811,0.0
1659375760202120780,-0.7868818044662476,-0.48301875591278076,0.0
1659375760252685308,-0.7827945351600647,-0.4824574589729309,0.0
1659375760304292917,-0.7773339748382568,-0.4815046489238739,0.0
1659375760350282907,-0.772951602935791,-0.48057448863983154,0.0
1659375760399270057,-0.7661460638046265,-0.4788893759250641,0.0
1659375760445442676,-0.7611457705497742,-0.4775039553642273,0.0
1659375760521898508,-0.7519041895866394,-0.4746619164943695,0.0
1659375760521984100,-0.74658203125,-0.47285985946655273,0.0
1659375760566305875,-0.738498330116272,-0.46990853548049927,0.0
1659375760598155498,-0.7332649827003479,-0.46786290407180786,0.0
1659375760653322219,-0.7234480381011963,-0.4637187719345093,0.0
1659375760710917472,-0.7180554270744324,-0.46126967668533325,0.0
1659375760754234313,-0.710999608039856,-0.4578957259654999,0.0
1659375760799391031,-0.705612063407898,-0.4552008807659149,0.0
1659375760842200279,-0.6968029141426086,-0.450635701417923,0.0
1659375760886285066,-0.691475510597229,-0.44776996970176697,0.0
1659375760930264472,-0.6820616722106934,-0.4424610435962677,0.0
1659375760986790418,-0.676868736743927,-0.43940794467926025,0.0
1659375761030061006,-0.6697605848312378,-0.4351189434528351,0.0
1659375761078689098,-0.6645326614379883,-0.4318789541721344,0.0
1659375761126423358,-0.6564563512802124,-0.4267026484012604,0.0
1659375761171384096,-0.6512435674667358,-0.4232514500617981,0.0
1659375761171557188,-0.6441282629966736,-0.4184110760688782,0.0
1659375761217576742,-0.6391470432281494,-0.41493433713912964,0.0
1659375761245539665,-0.6316965222358704,-0.4096013903617859,0.0
1659375761300598382,-0.6267853379249573,-0.4059835970401764,0.0
1659375761346156597,-0.6179739832878113,-0.3992559611797333,0.0
1659375761403107404,-0.6130103468894958,-0.3953314423561096,0.0
1659375761446172237,-0.606499969959259,-0.39001843333244324,0.0
1659375761490683078,-0.6018639206886292,-0.38613247871398926,0.0
1659375761534238100,-0.5953022837638855,-0.3804478645324707,0.0
1659375761582472085,-0.5910733342170715,-0.3766337037086487,0.0
1659375761626017332,-0.5841735601425171,-0.3701528310775757,0.0
1659375761672595024,-0.5799698829650879,-0.3660528063774109,0.0
1659375761718154907,-0.5720431208610535,-0.358051061630249,0.0
1659375761763889551,-0.5678278207778931,-0.35364198684692383,0.0
1659375761812468767,-0.5640074610710144,-0.34955620765686035,0.0
1659375761858656406,-0.5581884980201721,-0.3432161211967468,0.0
1659375761906834363,-0.5540552735328674,-0.33862730860710144,0.0
1659375761906987428,-0.5483255386352539,-0.3320713937282562,0.0
1659375761961334466,-0.5443774461746216,-0.32738837599754333,0.0
1659375761984165668,-0.5385032296180725,-0.3201925754547119,0.0
1659375762039533853,-0.5346633195877075,-0.31535568833351135,0.0
1659375762083932876,-0.5291332006454468,-0.30824169516563416,0.0
1659375762134770154,-0.525276780128479,-0.30316129326820374,0.0
1659375762185598373,-0.5181092619895935,-0.2934459149837494,0.0
1659375762234556674,-0.5143851637840271,-0.28826773166656494,0.0
1659375762278882503,-0.5093336701393127,-0.28111398220062256,0.0
1659375762322914123,-0.5056407451629639,-0.2757898271083832,0.0
1659375762366286039,-0.4999624192714691,-0.2673467695713043,0.0
1659375762410188198,-0.4964298903942108,-0.26191484928131104,0.0
1659375762458941698,-0.4901003837585449,-0.2518424689769745,0.0
1659375762506087064,-0.4867415726184845,-0.24630145728588104,0.0
1659375762556450128,-0.48236167430877686,-0.23886440694332123,0.0
1659375762606214284,-0.47932198643684387,-0.2335466742515564,0.0
1659375762654422283,-0.47420984506607056,-0.22437068819999695,0.0
1659375762698998928,-0.47125524282455444,-0.21894749999046326,0.0
1659375762747130155,-0.46566978096961975,-0.20832973718643188,0.0
1659375762826734304,-0.46275320649147034,-0.2025720775127411,0.0
1659375762826848983,-0.45838427543640137,-0.19377687573432922,0.0
1659375762874540567,-0.455527126789093,-0.18796129524707794,0.0
1659375762886150836,-0.45152994990348816,-0.17968858778476715,0.0
1659375762940760850,-0.4486721158027649,-0.17364853620529175,0.0
1659375762986576795,-0.444837749004364,-0.16532696783542633,0.0
1659375763030350446,-0.4421374201774597,-0.15929798781871796,0.0
1659375763074754953,-0.4383459985256195,-0.15065185725688934,0.0
1659375763121020078,-0.4357300400733948,-0.14458578824996948,0.0
1659375763170451164,-0.43080562353134155,-0.13287290930747986,0.0
1659375763218015193,-0.42830413579940796,-0.12670409679412842,0.0
1659375763262326478,-0.4247608780860901,-0.11784420907497406,0.0
1659375763306401252,-0.422261118888855,-0.11156558245420456,0.0
1659375763357116460,-0.41877368092536926,-0.10268357396125793,0.0
1659375763402173042,-0.41633445024490356,-0.09638117998838425,0.0
1659375763446931600,-0.4129659831523895,-0.08750750869512558,0.0
1659375763490799903,-0.41060203313827515,-0.08114948868751526,0.0
1659375763490889787,-0.40759649872779846,-0.07289694249629974,0.0
1659375763538986921,-0.4053530991077423,-0.06662965565919876,0.0
1659375763568050384,-0.40213820338249207,-0.05745745450258255,0.0
1659375763624994277,-0.3999817967414856,-0.05113295093178749,0.0
1659375763670286893,-0.39606913924217224,-0.039390746504068375,0.0
1659375763722342491,-0.3940393328666687,-0.03318406641483307,0.0
1659375763773735761,-0.39070117473602295,-0.02285163663327694,0.0
1659375763830468177,-0.3885755240917206,-0.016197144985198975,0.0
1659375763874278068,-0.38558560609817505,-0.006656975019723177,0.0
1659375763922393083,-0.38356244564056396,-7.645517325727269e-05,0.0
1659375763968875885,-0.38030746579170227,0.010679773986339569,0.0
1659375764014419794,-0.3783038258552551,0.01739843375980854,0.0
1659375764063407421,-0.3757403790950775,0.026142263785004616,0.0
1659375764110807895,-0.3737921416759491,0.032929882407188416,0.0
1659375764110932826,-0.37109434604644775,0.04245155677199364,0.0
1659375764154763936,-0.3692173361778259,0.04912785068154335,0.0
1659375764199501752,-0.3656198978424072,0.06215621158480644,0.0
1659375764257105827,-0.3638160824775696,0.06885264813899994,0.0
1659375764306412458,-0.3613126873970032,0.07837492972612381,0.0
1659375764350215196,-0.35955893993377686,0.08518924564123154,0.0
1659375764395072698,-0.3571316599845886,0.09470509737730026,0.0
1659375764439401149,-0.3554089367389679,0.10147510468959808,0.0
1659375764486265897,-0.35212281346321106,0.11461154371500015,0.0
1659375764530164003,-0.3504393696784973,0.12152174115180969,0.0
1659375764574674129,-0.3482148349285126,0.13069680333137512,0.0
1659375764618516206,-0.34658700227737427,0.13736003637313843,0.0
1659375764662601232,-0.34415575861930847,0.1472141295671463,0.0
1659375764706403493,-0.34248098731040955,0.15397007763385773,0.0
1659375764754745244,-0.34023693203926086,0.16316643357276917,0.0
1659375764810857295,-0.3386426866054535,0.16983778774738312,0.0
1659375764810926198,-0.3361838757991791,0.18033604323863983,0.0
1659375764858819007,-0.33464181423187256,0.187045618891716,0.0
1659375764885415792,-0.33237224817276,0.19709394872188568,0.0
1659375764940453052,-0.33084940910339355,0.20398947596549988,0.0
1659375764986319541,-0.3282190263271332,0.21613547205924988,0.0
1659375765040879726,-0.32676029205322266,0.2229413390159607,0.0
1659375765086747407,-0.3247252404689789,0.2327297478914261,0.0
1659375765134489536,-0.32335036993026733,0.23963049054145813,0.0
1659375765178564548,-0.321595162153244,0.24872639775276184,0.0
1659375765226611375,-0.32030051946640015,0.2556168735027313,0.0
1659375765270724534,-0.3184550702571869,0.26549428701400757,0.0
1659375765315756320,-0.31719258427619934,0.2722105383872986,0.0
1659375765362532138,-0.31518322229385376,0.2829585373401642,0.0
1659375765410934448,-0.3139517307281494,0.2897320091724396,0.0
1659375765411108493,-0.31205740571022034,0.3007064163684845,0.0
1659375765464215993,-0.31093838810920715,0.30747371912002563,0.0
1659375765510977745,-0.3088957369327545,0.32016825675964355,0.0
1659375765566794157,-0.3078356087207794,0.326945036649704,0.0
1659375765614315748,-0.30653154850006104,0.3355793058872223,0.0
1659375765673339605,-0.30592721700668335,0.33976277709007263,0.0
1659375765718963146,-0.3054618239402771,0.34302008152008057,0.0
1659375765768958806,-0.3053002953529358,0.34414756298065186,0.0
1659375765769085168,-0.305253803730011,0.34447330236434937,0.0
1659375765822654962,-0.3051571547985077,0.34514981508255005,0.0
1659375765845221042,-0.30468472838401794,0.34848281741142273,0.0
1659375765901101589,-0.30412259697914124,0.3525444269180298,0.0
1659375765946687698,-0.30313628911972046,0.3599456548690796,0.0
1659375765992919445,-0.30237632989883423,0.3658704459667206,0.0
1659375766038222789,-0.3012392222881317,0.37503859400749207,0.0
1659375766082261800,-0.3004385232925415,0.38169795274734497,0.0
1659375766130168676,-0.29935938119888306,0.3909750282764435,0.0
1659375766174252033,-0.29860302805900574,0.3977414667606354,0.0
1659375766223520278,-0.29753005504608154,0.40778326988220215,0.0
1659375766269461154,-0.296806275844574,0.4148332178592682,0.0
1659375766269585609,-0.2958075702190399,0.42460283637046814,0.0
1659375766317956686,-0.2950913608074188,0.4315263330936432,0.0
1659375766362681865,-0.293854296207428,0.4439430236816406,0.0
1659375766418425083,-0.29320260882377625,0.45097458362579346,0.0
1659375766462615966,-0.29239073395729065,0.46035510301589966,0.0
1659375766550828695,-0.29181107878685,0.4674437344074249,0.0
1659375766551409006,-0.29098257422447205,0.47753405570983887,0.0
1659375766610221862,-0.29039496183395386,0.4844696521759033,0.0
1659375766631553649,-0.28985801339149475,0.4909777045249939,0.0
1659375766674330472,-0.28922590613365173,0.49935704469680786,0.0
1659375766722343206,-0.2887589633464813,0.5062003135681152,0.0
1659375766766604900,-0.2880803346633911,0.5166569352149963,0.0
1659375766810616254,-0.2876303791999817,0.5236281752586365,0.0
1659375766858534812,-0.28690865635871887,0.5349697470664978,0.0
1659375766907448768,-0.28649193048477173,0.5418923497200012,0.0
1659375766907584428,-0.28596460819244385,0.5514705777168274,0.0
1659375766955284118,-0.28560709953308105,0.5584471821784973,0.0
1659375766983617067,-0.2851006090641022,0.5684827566146851,0.0
1659375767040874719,-0.28475162386894226,0.5755104422569275,0.0
1659375767086485862,-0.2843135893344879,0.5852198600769043,0.0
1659375767135407209,-0.2840394675731659,0.5921748876571655,0.0
1659375767178376197,-0.28370168805122375,0.6019642949104309,0.0
1659375767221907854,-0.28349581360816956,0.6087191104888916,0.0
1659375767270262718,-0.28323766589164734,0.6186122298240662,0.0
1659375767313668251,-0.28308627009391785,0.6257988810539246,0.0
1659375767364871501,-0.28283068537712097,0.6390592455863953,0.0
1659375767409926652,-0.2826898992061615,0.6459676027297974,0.0
1659375767458048105,-0.2824999988079071,0.6562672853469849,0.0
1659375767501904726,-0.28240910172462463,0.6633030772209167,0.0
1659375767502002000,-0.2823408246040344,0.6724652647972107,0.0
1659375767556208848,-0.28232812881469727,0.6794509887695312,0.0
1659375767579230070,-0.2823079526424408,0.6895752549171448,0.0
1659375767636356592,-0.2822694480419159,0.6965861916542053,0.0
1659375767685749530,-0.2822210192680359,0.7069634795188904,0.0
1659375767736426353,-0.2821989357471466,0.7139998078346252,0.0
1659375767781790971,-0.2821824848651886,0.7270601391792297,0.0
1659375767827010154,-0.2821847200393677,0.734197735786438,0.0
1659375767870234012,-0.28218504786491394,0.7443220019340515,0.0
1659375767915745973,-0.282172292470932,0.7514342665672302,0.0
1659375767957719564,-0.28216251730918884,0.7620394229888916,0.0
1659375768005882740,-0.28218746185302734,0.7688985466957092,0.0
1659375768054013013,-0.2822561264038086,0.7794528603553772,0.0
1659375768102287530,-0.2823091745376587,0.78633713722229,0.0
1659375768145978450,-0.28236377239227295,0.7960562705993652,0.0
1659375768193563938,-0.28238368034362793,0.803168535232544,0.0
1659375768238799571,-0.2824663519859314,0.8170385360717773,0.0
1659375768281894922,-0.2825297713279724,0.8240746259689331,0.0
1659375768333051443,-0.28259044885635376,0.8346289992332458,0.0
1659375768378220081,-0.2825973629951477,0.8416906595230103,0.0
1659375768422181367,-0.28260454535484314,0.853131115436554,0.0
1659375768465828657,-0.28262650966644287,0.8602180480957031,0.0
1659375768515811681,-0.28264695405960083,0.8732277154922485,0.0
1659375768558636903,-0.28263548016548157,0.8803399801254272,0.0
1659375768601948738,-0.2826521396636963,0.8907679915428162,0.0
1659375768649797201,-0.2827003300189972,0.8976776599884033,0.0
1659375768697913408,-0.28282228112220764,0.9106867909431458,0.0
1659375768746030092,-0.28288987278938293,0.9178746938705444,0.0
1659375768791533470,-0.282958060503006,0.9248601198196411,0.0
1659375768791672229,-0.2830553352832794,0.9327564835548401,0.0
1659375768835355997,-0.2831454873085022,0.9391847848892212,0.0
1659375768864115953,-0.28331393003463745,0.9512062072753906,0.0
1659375768922226667,-0.28341126441955566,0.9583178162574768,0.0
1659375768970472812,-0.2835526466369629,0.9681626558303833,0.0
1659375769013841629,-0.2836678922176361,0.9752993583679199,0.0
1659375769058249473,-0.2838555574417114,0.9857003688812256,0.0
1659375769102317810,-0.2840004861354828,0.9927352666854858,0.0
1659375769145720243,-0.2842314541339874,1.001742959022522,0.0
1659375769192669868,-0.28444409370422363,1.008522868156433,0.0
1659375769238314867,-0.28484418988227844,1.0197030305862427,0.0
1659375769281742095,-0.285096138715744,1.0263803005218506,0.0
1659375769325952768,-0.285654753446579,1.0392513275146484,0.0
1659375769370657444,-0.2860233783721924,1.0463794469833374,0.0
1659375769414188146,-0.28659456968307495,1.0564368963241577,0.0
1659375769459419727,-0.2870398163795471,1.0636366605758667,0.0
1659375769508060693,-0.28769034147262573,1.0739682912826538,0.0
1659375769546598672,-0.288118839263916,1.0811183452606201,0.0
1659375769591187238,-0.28882715106010437,1.092435359954834,0.0
1659375769638610363,-0.2893224358558655,1.0994796752929688,0.0
1659375769682571887,-0.29026469588279724,1.1123536825180054,0.0
1659375769728420495,-0.29077357053756714,1.119422435760498,0.0
1659375769782440662,-0.29144442081451416,1.12871253490448,0.0
1659375769827186584,-0.29196420311927795,1.1358312368392944,0.0
1659375769870352745,-0.2928205132484436,1.1472903490066528,0.0
1659375769964533090,-0.293367862701416,1.1543561220169067,0.0
1659375769964637279,-0.2943657636642456,1.1670482158660889,0.0
1659375770017096042,-0.29492735862731934,1.1741890907287598,0.0
1659375770017324209,-0.2956841289997101,1.183447241783142,0.0
1659375770067147731,-0.2963232696056366,1.1906324625015259,0.0
1659375770096781015,-0.29738953709602356,1.202124834060669,0.0
1659375770153074264,-0.2980441749095917,1.20925772190094,0.0
1659375770205247163,-0.2986813485622406,1.216112732887268,0.0
1659375770254847764,-0.29955101013183594,1.2251830101013184,0.0
1659375770298029899,-0.3001936674118042,1.231783151626587,0.0
1659375770347671985,-0.30123013257980347,1.2426427602767944,0.0
1659375770392206192,-0.30187565088272095,1.2497003078460693,0.0
1659375770392725706,-0.302874892950058,1.2605379819869995,0.0
1659375770446010112,-0.3035508692264557,1.2676435708999634,0.0
1659375770491464614,-0.3048011362552643,1.2814319133758545,0.0
1659375770549839258,-0.30539757013320923,1.2885191440582275,0.0
1659375770594332695,-0.30622097849845886,1.2982288599014282,0.0
1659375770638175964,-0.3068428039550781,1.3053393363952637,0.0
1659375770686076879,-0.3077559769153595,1.3159050941467285,0.0
1659375770730485677,-0.3083427846431732,1.3228915929794312,0.0
1659375770788251638,-0.3093980550765991,1.3357059955596924,0.0
1659375770838289976,-0.30992987751960754,1.3424937725067139,0.0
1659375770882337331,-0.310665100812912,1.3521852493286133,0.0
1659375770935618400,-0.3111877739429474,1.3590245246887207,0.0
1659375770935780525,-0.31186461448669434,1.3682634830474854,0.0
1659375770982202291,-0.3123323321342468,1.3751320838928223,0.0
1659375771002696752,-0.312926709651947,1.3847063779830933,0.0
1659375771058733224,-0.3132972717285156,1.3913273811340332,0.0
1659375771102370262,-0.3138086199760437,1.4006783962249756,0.0
1659375771151131629,-0.31417137384414673,1.407198429107666,0.0
1659375771196726799,-0.3148016631603241,1.419381856918335,0.0
1659375771246882915,-0.3151174783706665,1.42620849609375,0.0
1659375771296486854,-0.31551578640937805,1.4353876113891602,0.0
1659375771348984003,-0.3157794773578644,1.441937804222107,0.0
1659375771394891738,-0.3161241412162781,1.4521068334579468,0.0
1659375771438271760,-0.31629419326782227,1.4585587978363037,0.0
1659375771486498594,-0.3164598047733307,1.4680994749069214,0.0
1659375771530201673,-0.31650862097740173,1.4740979671478271,0.0
1659375771578290462,-0.3165063261985779,1.4855890274047852,0.0
1659375771627160787,-0.31646299362182617,1.491916537284851,0.0
1659375771670696258,-0.31636226177215576,1.501078486442566,0.0
1659375771714311122,-0.3162688612937927,1.5074055194854736,0.0
1659375771714444398,-0.3160901963710785,1.5161359310150146,0.0
1659375771771008014,-0.3159160315990448,1.5226131677627563,0.0
1659375771800380229,-0.31561946868896484,1.5320746898651123,0.0
1659375771855967760,-0.31538861989974976,1.5386260747909546,0.0
1659375771902374505,-0.31503045558929443,1.548338770866394,0.0
1659375771951099872,-0.31477174162864685,1.5551424026489258,0.0
1659375771998497009,-0.3143431544303894,1.565840244293213,0.0
1659375772042832612,-0.31403568387031555,1.5727685689926147,0.0
1659375772086295604,-0.3133925497531891,1.58576238155365,0.0
1659375772132698059,-0.31303849816322327,1.5925871133804321,0.0
1659375772178277492,-0.3124590218067169,1.6031256914138794,0.0
1659375772222790479,-0.31203511357307434,1.6101492643356323,0.0
1659375772266028642,-0.3112507164478302,1.6227803230285645,0.0
1659375772310241699,-0.31083038449287415,1.629728078842163,0.0
1659375772358457088,-0.31019797921180725,1.6401622295379639,0.0
1659375772406230449,-0.3097614347934723,1.6471343040466309,0.0
1659375772450561523,-0.30911561846733093,1.6572632789611816,0.0
1659375772494082927,-0.3086632192134857,1.664259672164917,0.0
1659375772538790702,-0.30808600783348083,1.6732263565063477,0.0
1659375772581717491,-0.3076549768447876,1.6800719499588013,0.0
1659375772627543449,-0.30698850750923157,1.6902756690979004,0.0
1659375772673039197,-0.30651354789733887,1.6972198486328125,0.0
1659375772722640275,-0.3060668110847473,1.7037347555160522,0.0
1659375772722754240,-0.3055408298969269,1.7115380764007568,0.0
1659375772770455837,-0.30511900782585144,1.7178770303726196,0.0
1659375772786447048,-0.3044845461845398,1.7276771068572998,0.0
1659375772845782518,-0.3040977418422699,1.7337900400161743,0.0
1659375772892185688,-0.3032991290092468,1.7453293800354004,0.0
1659375772943791627,-0.30282607674598694,1.7514362335205078,0.0
1659375772992928743,-0.3023519814014435,1.7573907375335693,0.0
1659375773039850473,-0.301665335893631,1.7659181356430054,0.0
1659375773084375381,-0.3012048304080963,1.7714674472808838,0.0
1659375773130863666,-0.30048659443855286,1.7796874046325684,0.0
1659375773174595117,-0.30001404881477356,1.7847782373428345,0.0
1659375773218626260,-0.29953473806381226,1.7896904945373535,0.0
1659375773266610383,-0.2989732325077057,1.7950522899627686,0.0
1659375773312967777,-0.29863449931144714,1.7981215715408325,0.0
1659375773313136339,-0.29833170771598816,1.8008383512496948,0.0
1659375773358712911,-0.29824715852737427,1.8015929460525513,0.0
1659375773391390800,-0.29820168018341064,1.8019953966140747,0.0
1659375773449665546,-0.2981988191604614,1.80202054977417,0.0
1659375773497117757,-0.2981988191604614,1.80202054977417,0.0
1659375773542857408,-0.2981959581375122,1.8020457029342651,0.0
1659375773596373796,-0.2981988191604614,1.80202054977417,0.0
1659375773658063173,-0.2981988191604614,1.80202054977417,0.0
1659375773706067085,-0.2981988191604614,1.80202054977417,0.0
1659375773752923965,-0.2981988191604614,1.80202054977417,0.0
1659375773801404714,-0.2981988191604614,1.80202054977417,0.0
1659375773846986055,-0.2981959581375122,1.8020457029342651,0.0
1659375773905723094,-0.2981988191604614,1.80202054977417,0.0
1659375773951230049,-0.2981988191604614,1.80202054977417,0.0
1659375773994562149,-0.2981959581375122,1.8020457029342651,0.0
1659375774043021917,-0.2981988191604614,1.80202054977417,0.0
1659375774088454484,-0.2981988191604614,1.80202054977417,0.0
1659375774145181417,-0.2981988191604614,1.80202054977417,0.0
1659375774194896936,-0.2981959581375122,1.8020457029342651,0.0
1659375774238759994,-0.2981959581375122,1.8020457029342651,0.0
1659375774286327362,-0.2981959581375122,1.8020457029342651,0.0
1659375774330282449,-0.2981959581375122,1.8020457029342651,0.0
1659375774374684333,-0.2981988191604614,1.80202054977417,0.0
1659375774419003725,-0.29822731018066406,1.8017690181732178,0.0
1659375774462580919,-0.2986208498477936,1.798272967338562,0.0
1659375774510712862,-0.2990701198577881,1.7942228317260742,0.0
1659375774560509204,-0.2998768389225006,1.7867234945297241,0.0
1659375774606192588,-0.3005058169364929,1.78073251247406,0.0
1659375774653696537,-0.3018193542957306,1.768909215927124,0.0
1659375774697821855,-0.30252957344055176,1.7627489566802979,0.0
1659375774745680332,-0.3036070466041565,1.7532168626785278,0.0
1659375774791108369,-0.3044032156467438,1.7462257146835327,0.0
1659375774791348695,-0.3055734932422638,1.7363221645355225,0.0
1659375774842987298,-0.3064493238925934,1.7293660640716553,0.0
1659375774890481472,-0.3084374666213989,1.7168166637420654,0.0
1659375774948174476,-0.3096873462200165,1.7101495265960693,0.0
1659375774993935585,-0.31165793538093567,1.6996002197265625,0.0
1659375775041938066,-0.312976598739624,1.6925597190856934,0.0
1659375775087528944,-0.3149165213108063,1.682159185409546,0.0
1659375775131484508,-0.31606853008270264,1.6757057905197144,0.0
1659375775173951148,-0.3182438313961029,1.6636244058609009,0.0
1659375775221376419,-0.3193631172180176,1.6579374074935913,0.0
1659375775266208410,-0.3212580680847168,1.649283766746521,0.0
1659375775311148881,-0.3226894438266754,1.6432760953903198,0.0
1659375775355146408,-0.3246743679046631,1.635371446609497,0.0
1659375775398896694,-0.32624050974845886,1.6291884183883667,0.0
1659375775446276903,-0.3284759521484375,1.6203289031982422,0.0
1659375775490727901,-0.3299992084503174,1.6144484281539917,0.0
1659375775534042358,-0.3329753875732422,1.6036642789840698,0.0
1659375775578691482,-0.33471256494522095,1.5977377891540527,0.0
1659375775622499227,-0.33646389842033386,1.5918947458267212,0.0
1659375775667264938,-0.3387400209903717,1.584438681602478,0.0
1659375775714519500,-0.340515673160553,1.5787619352340698,0.0
1659375775714631795,-0.3433038294315338,1.5701403617858887,0.0
1659375775766800403,-0.34507864713668823,1.5648891925811768,0.0
1659375775800188779,-0.34770670533180237,1.5576035976409912,0.0
1659375775856940507,-0.34987062215805054,1.5519546270370483,0.0
1659375775902471065,-0.3530743420124054,1.543967604637146,0.0
1659375775951219558,-0.35527461767196655,1.5386874675750732,0.0
1659375775994256496,-0.3593596816062927,1.5293962955474854,0.0
1659375776042134046,-0.3615671396255493,1.5246726274490356,0.0
1659375776090954780,-0.36477139592170715,1.5182098150253296,0.0
1659375776134876012,-0.36728012561798096,1.513466477394104,0.0
1659375776182452917,-0.3713632822036743,1.5061800479888916,0.0
1659375776225870370,-0.37452563643455505,1.5007284879684448,0.0
1659375776270419120,-0.37959378957748413,1.492316722869873,0.0
1659375776318899154,-0.3823034465312958,1.4880708456039429,0.0
1659375776362475872,-0.38627687096595764,1.4822025299072266,0.0
1659375776406401395,-0.3892293870449066,1.4780595302581787,0.0
1659375776454651355,-0.3934226632118225,1.4723461866378784,0.0
1659375776500782012,-0.39665114879608154,1.4680602550506592,0.0
1659375776501274347,-0.401422917842865,1.4619919061660767,0.0
1659375776547688484,-0.4043884575366974,1.458368182182312,0.0
1659375776583605051,-0.4090009927749634,1.4529876708984375,0.0
1659375776706643104,-0.41215449571609497,1.44949209690094,0.0
1659375776706736803,-0.4174133837223053,1.4438406229019165,0.0
1659375776754744768,-0.4210459887981415,1.4400651454925537,0.0
1659375776775450944,-0.42936015129089355,1.4318064451217651,0.0
1659375776831277847,-0.4331051707267761,1.42825186252594,0.0
1659375776882303237,-0.43534305691719055,1.4261983633041382,0.0
1659375776926440000,-0.4370841979980469,1.4246522188186646,0.0
1659375776976063966,-0.4387688934803009,1.423195242881775,0.0
1659375777025856018,-0.4423040449619293,1.4202024936676025,0.0
1659375777077684879,-0.444816917181015,1.4181177616119385,0.0
1659375777077860593,-0.44910991191864014,1.4146918058395386,0.0
1659375777123727083,-0.45245200395584106,1.4121454954147339,0.0
1659375777150502681,-0.4571335017681122,1.408685326576233,0.0
1659375777207536458,-0.4605673551559448,1.406220555305481,0.0
1659375777250227928,-0.46565645933151245,1.4027217626571655,0.0
1659375777294564962,-0.4684740900993347,1.4008797407150269,0.0
1659375777344484090,-0.4695309102535248,1.4002306461334229,0.0
1659375777392966985,-0.46828094124794006,1.4009510278701782,0.0
1659375777438375949,-0.46506351232528687,1.4027166366577148,0.0
1659375777487129688,-0.4623492658138275,1.4041352272033691,0.0
1659375777534312963,-0.45787620544433594,1.4063384532928467,0.0
1659375777578496932,-0.4537466764450073,1.408262848854065,0.0
1659375777626286268,-0.44679930806159973,1.4113272428512573,0.0
1659375777738684654,-0.4415883421897888,1.4134960174560547,0.0
1659375777738778829,-0.43349501490592957,1.4167065620422363,0.0
1659375777744481563,-0.4280959367752075,1.4187443256378174,0.0
1659375777758242130,-0.4206675589084625,1.4214240312576294,0.0
1659375777813507080,-0.41502073407173157,1.4233719110488892,0.0
1659375777862637042,-0.40606629848480225,1.426282525062561,0.0
1659375777910124063,-0.40042543411254883,1.428002953529358,0.0
1659375777957252025,-0.3948150873184204,1.429648756980896,0.0
1659375778001915454,-0.38775503635406494,1.4316569566726685,0.0
1659375778047167301,-0.3819185197353363,1.4332470893859863,0.0
1659375778090645790,-0.37225112318992615,1.435694694519043,0.0
1659375778135428667,-0.3663121163845062,1.4370863437652588,0.0
1659375778135509729,-0.35731402039527893,1.4390650987625122,0.0
1659375778190902471,-0.3513161540031433,1.4403074979782104,0.0
1659375778236254692,-0.34528011083602905,1.4414886236190796,0.0
1659375778283149242,-0.3380109965801239,1.442823886871338,0.0
1659375778330403089,-0.33195045590400696,1.4438719749450684,0.0
1659375778374629259,-0.32221126556396484,1.4454807043075562,0.0
1659375778418725728,-0.31603872776031494,1.4464727640151978,0.0
1659375778468182802,-0.3048718571662903,1.4481258392333984,0.0
1659375778514578104,-0.2988490164279938,1.4489169120788574,0.0
1659375778562854290,-0.2928426265716553,1.4496358633041382,0.0
1659375778562973260,-0.2865018844604492,1.450326919555664,0.0
1659375778613614559,-0.2801547348499298,1.4509564638137817,0.0
1659375778626106739,-0.2704683244228363,1.451755404472351,0.0
1659375778681641101,-0.26430583000183105,1.4521605968475342,0.0
1659375778726385831,-0.25490379333496094,1.4526653289794922,0.0
1659375778779711484,-0.24868279695510864,1.4529255628585815,0.0
1659375778822604656,-0.24030858278274536,1.453171730041504,0.0
1659375778866597652,-0.2341335415840149,1.4532688856124878,0.0
1659375778914512872,-0.22527480125427246,1.4532718658447266,0.0
1659375778962280988,-0.2191249430179596,1.4531835317611694,0.0
1659375779010635852,-0.20973840355873108,1.4529190063476562,0.0
1659375779054720401,-0.20356789231300354,1.4526631832122803,0.0
1659375779102322101,-0.1921464502811432,1.4520044326782227,0.0
1659375779147277355,-0.18596287071704865,1.4515384435653687,0.0
1659375779147426605,-0.17673172056674957,1.450762391090393,0.0
1659375779201767683,-0.1705300509929657,1.4502075910568237,0.0
1659375779230004072,-0.16146162152290344,1.4493191242218018,0.0
1659375779287168025,-0.15514592826366425,1.4486318826675415,0.0
1659375779334464788,-0.1466023027896881,1.4476007223129272,0.0
1659375779378505468,-0.14025375247001648,1.4467628002166748,0.0
1659375779425972938,-0.13040068745613098,1.445398211479187,0.0
1659375779474555969,-0.12400978058576584,1.4444963932037354,0.0
1659375779518255710,-0.11446922272443771,1.4430919885635376,0.0
1659375779562333345,-0.10799302160739899,1.4420756101608276,0.0
1659375779605941772,-0.09855096787214279,1.4405317306518555,0.0
1659375779654505252,-0.09218721091747284,1.4394549131393433,0.0
1659375779702543258,-0.08398643881082535,1.438009262084961,0.0
1659375779749059438,-0.07763727754354477,1.4368494749069214,0.0
1659375779749172210,-0.0676175132393837,1.4349393844604492,0.0
1659375779800873279,-0.06138709560036659,1.4336974620819092,0.0
1659375779847206354,-0.04872472956776619,1.431061863899231,0.0
1659375779904340505,-0.04236762598156929,1.4296833276748657,0.0
1659375779954707622,-0.03273829445242882,1.4275116920471191,0.0
1659375779998823404,-0.026381000876426697,1.4260190725326538,0.0
1659375780048578262,-0.014974836260080338,1.4232218265533447,0.0
1659375780095205783,-0.008770459331572056,1.421636939048767,0.0
1659375780142489194,-0.0003255374322179705,1.4194155931472778,0.0
1659375780186453819,0.005832282826304436,1.4177531003952026,0.0
1659375780230262279,0.01654980145394802,1.4147263765335083,0.0
1659375780278693914,0.02266540750861168,1.412914752960205,0.0
1659375780326406478,0.03188555687665939,1.4100892543792725,0.0
1659375780374482154,0.038066573441028595,1.4081451892852783,0.0
1659375780418451547,0.04937785491347313,1.40446138381958,0.0
1659375780463405609,0.05556311830878258,1.4023672342300415,0.0
1659375780506402015,0.06417570263147354,1.3993924856185913,0.0
1659375780550395965,0.0701942965388298,1.3972808122634888,0.0
1659375780598164558,0.07899340242147446,1.3941495418548584,0.0
1659375780642809629,0.08515751361846924,1.391918420791626,0.0
1659375780686163425,0.0940532311797142,1.3886085748672485,0.0
1659375780730335950,0.1003178060054779,1.3862119913101196,0.0
1659375780778769969,0.11324473470449448,1.3811148405075073,0.0
1659375780823552608,0.1193164512515068,1.378643274307251,0.0
1659375780867609500,0.12525524199008942,1.3761812448501587,0.0
1659375780914082765,0.1321178376674652,1.373304009437561,0.0
1659375780960294723,0.13782961666584015,1.3708895444869995,0.0
1659375780960391521,0.147166445851326,1.3669098615646362,0.0
1659375781024146080,0.15339569747447968,1.364224910736084,0.0
1659375781054915904,0.16382946074008942,1.3596571683883667,0.0
1659375781110272884,0.16981756687164307,1.3569895029067993,0.0
1659375781154103279,0.17786140739917755,1.3533389568328857,0.0
1659375781198983669,0.18383415043354034,1.3505761623382568,0.0
1659375781247145652,0.19485701620578766,1.3453483581542969,0.0
1659375781294906377,0.20084688067436218,1.3424443006515503,0.0
1659375781342247009,0.21162354946136475,1.3371719121932983,0.0
1659375781386304616,0.21761873364448547,1.3342211246490479,0.0
1659375781435965299,0.2262948751449585,1.3298970460891724,0.0
1659375781482614755,0.23227857053279877,1.326866626739502,0.0
1659375781530542850,0.2405652403831482,1.3226135969161987,0.0
1659375781574739694,0.24647381901741028,1.3195475339889526,0.0
1659375781622486352,0.25499454140663147,1.3150861263275146,0.0
1659375781666658401,0.26047274470329285,1.3121803998947144,0.0
1659375781666804075,0.268635094165802,1.307746171951294,0.0
1659375781719792842,0.27453941106796265,1.304458498954773,0.0
1659375781737746715,0.28211691975593567,1.3001700639724731,0.0
1659375781792975902,0.28793737292289734,1.2968368530273438,0.0
1659375781840436697,0.29862654209136963,1.2906478643417358,0.0
1659375781896605491,0.3045256435871124,1.2871978282928467,0.0
1659375781948190689,0.31354472041130066,1.2818137407302856,0.0
1659375781998662948,0.3192043602466583,1.278357744216919,0.0
1659375782046416521,0.32746341824531555,1.2732821702957153,0.0
1659375782093126296,0.33317506313323975,1.2697657346725464,0.0
1659375782138829708,0.3412918746471405,1.2647488117218018,0.0
1659375782186838626,0.3472234308719635,1.2610585689544678,0.0
1659375782186941146,0.3567953109741211,1.255074381828308,0.0
1659375782239145278,0.36256641149520874,1.2514617443084717,0.0
1659375782268622636,0.37026941776275635,1.2466421127319336,0.0
1659375782323723793,0.37585532665252686,1.243162989616394,0.0
1659375782370501279,0.3838863670825958,1.2381998300552368,0.0
1659375782414566755,0.38952046632766724,1.2347506284713745,0.0
1659375782462536811,0.3973572254180908,1.2300524711608887,0.0
1659375782506428718,0.40301427245140076,1.2267400026321411,0.0
1659375782550209045,0.4109038710594177,1.2221814393997192,0.0
1659375782594927787,0.4166358411312103,1.2188974618911743,0.0
1659375782638358831,0.4250275492668152,1.2141462564468384,0.0
1659375782682356119,0.4308152496814728,1.2109092473983765,0.0
1659375782728770017,0.43648603558540344,1.2077745199203491,0.0
1659375782728889226,0.44201526045799255,1.2047500610351562,0.0
1659375782774583101,0.4475136697292328,1.2017748355865479,0.0
1659375782790462255,0.45625993609428406,1.1971441507339478,0.0
1659375782845464468,0.46181797981262207,1.1942819356918335,0.0
1659375782895133256,0.4707994759082794,1.1898329257965088,0.0
1659375782938385486,0.47609853744506836,1.187302827835083,0.0
1659375782993854999,0.4864380657672882,1.1824655532836914,0.0
1659375783040561437,0.4919092357158661,1.1799447536468506,0.0
1659375783086416721,0.5010244846343994,1.1758378744125366,0.0
1659375783130459070,0.5072128772735596,1.1731224060058594,0.0
1659375783174451112,0.5161483287811279,1.1692984104156494,0.0
1659375783222128629,0.5221734642982483,1.1667803525924683,0.0
1659375783266033887,0.5354917049407959,1.161434292793274,0.0
1659375783311253309,0.5418923497200012,1.158968448638916,0.0
1659375783359532833,0.5553942918777466,1.1538138389587402,0.0
1659375783406750440,0.5618051290512085,1.1513746976852417,0.0
1659375783463098526,0.5681518912315369,1.148980736732483,0.0
1659375783506291389,0.577247679233551,1.1455556154251099,0.0
1659375783550691127,0.583923876285553,1.1430310010910034,0.0
1659375783594941616,0.5939392447471619,1.1392468214035034,0.0
1659375783638254642,0.6004552841186523,1.136799693107605,0.0
1659375783682320594,0.6070501208305359,1.1343464851379395,0.0
1659375783726878166,0.6152468323707581,1.1313356161117554,0.0
1659375783771389722,0.6220767498016357,1.1288617849349976,0.0
1659375783771469116,0.6313944458961487,1.125527024269104,0.0
1659375783818472385,0.6378092169761658,1.1232450008392334,0.0
1659375783869735240,0.6499791145324707,1.1190178394317627,0.0
1659375783926011085,0.6565772294998169,1.1168015003204346,0.0
1659375783970295906,0.6655018329620361,1.113881230354309,0.0
1659375784014364957,0.6720833778381348,1.1117768287658691,0.0
1659375784058143377,0.683384358882904,1.108227014541626,0.0
1659375784104594469,0.6900100708007812,1.106178641319275,0.0
1659375784149976730,0.6996569633483887,1.103277564048767,0.0
1659375784197913646,0.706267237663269,1.1013538837432861,0.0
1659375784244826555,0.7153453826904297,1.0987619161605835,0.0
1659375784294329166,0.7219472527503967,1.0969008207321167,0.0
1659375784294443607,0.7316173315048218,1.0941697359085083,0.0
1659375784347854852,0.7384577989578247,1.0922220945358276,0.0
1659375784389187812,0.7482517957687378,1.0894643068313599,0.0
1659375784441406250,0.754960834980011,1.0876104831695557,0.0
1659375784486288785,0.766385555267334,1.0844815969467163,0.0
1659375784531816005,0.7730762958526611,1.0826568603515625,0.0
1659375784577941656,0.7852957844734192,1.0793641805648804,0.0
1659375784628441333,0.7920498847961426,1.0775800943374634,0.0
1659375784677613019,0.801534116268158,1.0751314163208008,0.0
1659375784725720882,0.8080379366874695,1.0734918117523193,0.0
1659375784770500898,0.8173803687095642,1.0712056159973145,0.0
1659375784817773342,0.8239341974258423,1.0696642398834229,0.0
1659375784867344379,0.8329429030418396,1.0676170587539673,0.0
1659375784914784431,0.8395665884017944,1.0661544799804688,0.0
1659375784914968013,0.8494333624839783,1.0640013217926025,0.0
1659375784963804483,0.8557132482528687,1.0626250505447388,0.0
1659375784995092630,0.8650097250938416,1.060589075088501,0.0
1659375785044023752,0.8712424635887146,1.059234380722046,0.0
1659375785090360403,0.8847367167472839,1.0563727617263794,0.0
1659375785135381698,0.8910331130027771,1.0550740957260132,0.0
1659375785186326026,0.8979270458221436,1.0536655187606812,0.0
1659375785231648683,0.9078254103660583,1.051662802696228,0.0
1659375785274145841,0.9141541719436646,1.05039644241333,0.0
1659375785322518825,0.9255759716033936,1.04813814163208,0.0
1659375785366235971,0.9320597648620605,1.0468729734420776,0.0
1659375785414218664,0.9421995282173157,1.0449166297912598,0.0
1659375785458390474,0.9486132264137268,1.0436887741088867,0.0
1659375785502904653,0.9589802026748657,1.0417078733444214,0.0
1659375785546951770,0.9653940200805664,1.0404808521270752,0.0
1659375785547045230,0.9751663208007812,1.0386241674423218,0.0
1659375785595930337,0.9821096062660217,1.0373363494873047,0.0
1659375785625199794,0.9924774169921875,1.0354998111724854,0.0
1659375785680619955,0.9995633363723755,1.034291386604309,0.0
1659375785728943586,1.0127427577972412,1.032077670097351,0.0
1659375785784217834,1.019559621810913,1.030948281288147,0.0
1659375785834948778,1.0303771495819092,1.029190182685852,0.0
1659375785885687351,1.0373505353927612,1.0280771255493164,0.0
1659375785930073022,1.0485217571258545,1.0262857675552368,0.0
1659375785978813886,1.0553923845291138,1.025170922279358,0.0
1659375786022710084,1.0673896074295044,1.023255705833435,0.0
1659375786067321538,1.074543833732605,1.0221517086029053,0.0
1659375786114691495,1.0850529670715332,1.020550012588501,0.0
1659375786159009695,1.0921082496643066,1.0194690227508545,0.0
1659375786202159166,1.1050257682800293,1.017542839050293,0.0
1659375786246496915,1.112015962600708,1.016540288925171,0.0
1659375786294539690,1.1225093603134155,1.0150048732757568,0.0
1659375786342841148,1.1290662288665771,1.0140137672424316,0.0
1659375786386812686,1.135948896408081,1.012976050376892,0.0
1659375786430234909,1.1445385217666626,1.0117155313491821,0.0
1659375786478394508,1.1515542268753052,1.01071298122406,0.0
1659375786478506088,1.1624029874801636,1.0091583728790283,0.0
1659375786523272275,1.1693414449691772,1.008151650428772,0.0
1659375786574093580,1.1766562461853027,1.0070950984954834,0.0
1659375786619390487,1.1852006912231445,1.0058761835098267,0.0
1659375786695718765,1.1921676397323608,1.0048905611038208,0.0
1659375786695849180,1.2026675939559937,1.003400444984436,0.0
1659375786744153022,1.2090060710906982,1.0024895668029785,0.0
1659375786777954339,1.222687840461731,1.0005422830581665,0.0
1659375786828873395,1.2296562194824219,0.999566376209259,0.0
1659375786878565788,1.2397807836532593,0.9981331825256348,0.0
1659375786922350645,1.2462444305419922,0.9972038269042969,0.0
1659375786970617294,1.2577438354492188,0.995550811290741,0.0
1659375787014555454,1.2646598815917969,0.994566798210144,0.0
1659375787058404684,1.2749863862991333,0.9931156039237976,0.0
1659375787102810621,1.2820298671722412,0.9921281933784485,0.0
1659375787150357007,1.293936014175415,0.9904587268829346,0.0
1659375787198209762,1.3008297681808472,0.9894976019859314,0.0
1659375787242562770,1.310681939125061,0.9881266355514526,0.0
1659375787286169528,1.3177509307861328,0.9871394634246826,0.0
1659375787330214262,1.3287276029586792,0.9855861663818359,0.0
1659375787375705957,1.3354921340942383,0.9846149682998657,0.0
1659375787420262813,1.345235824584961,0.9832003116607666,0.0
1659375787467434644,1.3519723415374756,0.9822126030921936,0.0
1659375787467525482,1.3615354299545288,0.9807876348495483,0.0
1659375787512805223,1.3685905933380127,0.9797058701515198,0.0
1659375787563352346,1.3807958364486694,0.9778099656105042,0.0
1659375787615230798,1.387149453163147,0.9768290519714355,0.0
1659375787663295745,1.3974822759628296,0.975246250629425,0.0
1659375787754470825,1.4042611122131348,0.974199116230011,0.0
1659375787754636287,1.414406657218933,0.972565770149231,0.0
1659375787801168918,1.4214717149734497,0.9713857173919678,0.0
1659375787829857110,1.436046838760376,0.968924880027771,0.0
1659375787884013891,1.4430831670761108,0.9677267074584961,0.0
1659375787935017108,1.4500194787979126,0.9665440917015076,0.0
1659375787982246160,1.457956075668335,0.9652044773101807,0.0
1659375788026573896,1.4646964073181152,0.964077353477478,0.0
1659375788070220470,1.476226568222046,0.9621293544769287,0.0
1659375788123252630,1.4832839965820312,0.9609041810035706,0.0
1659375788170507192,1.4950789213180542,0.9588528871536255,0.0
1659375788232803344,1.5021142959594727,0.9576493501663208,0.0
1659375788232907533,1.5119935274124146,0.9559579491615295,0.0
1659375788278215169,1.518329381942749,0.9548680186271667,0.0
1659375788298681497,1.529798150062561,0.9528620839118958,0.0
1659375788348643064,1.5363740921020508,0.9516760110855103,0.0
1659375788394869327,1.546288013458252,0.9498894214630127,0.0
1659375788443987369,1.5528178215026855,0.9487332701683044,0.0
1659375788494314432,1.5620653629302979,0.9471024870872498,0.0
1659375788548226594,1.5689692497253418,0.9458816051483154,0.0
1659375788548485994,1.5790104866027832,0.944087564945221,0.0
1659375788589822530,1.5860328674316406,0.9428102374076843,0.0
1659375788647276639,1.592854619026184,0.9415614008903503,0.0
1659375788689787864,1.6032378673553467,0.9396675229072571,0.0
1659375788767515420,1.6102590560913086,0.9383832812309265,0.0
1659375788767665147,1.6214834451675415,0.9363053441047668,0.0
1659375788811407566,1.628051519393921,0.9350765347480774,0.0
1659375788837941646,1.6397705078125,0.9328895807266235,0.0
1659375788887467622,1.6461161375045776,0.9317108392715454,0.0
1659375788937261104,1.6581107378005981,0.9294830560684204,0.0
1659375788988572597,1.664555311203003,0.9282823801040649,0.0
1659375789038402318,1.675084114074707,0.9263404011726379,0.0
1659375789082221269,1.6814347505569458,0.9251889586448669,0.0
1659375789131207466,1.6916500329971313,0.9233620762825012,0.0
1659375789174875020,1.6980818510055542,0.9222331047058105,0.0
1659375789221793651,1.7105761766433716,0.9200670123100281,0.0
1659375789266290426,1.7170361280441284,0.9189521670341492,0.0
1659375789310614347,1.7272112369537354,0.9171890616416931,0.0
1659375789354188442,1.7335695028305054,0.9160804748535156,0.0
1659375789406993865,1.7438970804214478,0.9143080115318298,0.0
1659375789450559139,1.750288724899292,0.9132443070411682,0.0
1659375789494762897,1.7635290622711182,0.9110884666442871,0.0
1659375789539427042,1.7698259353637695,0.910072922706604,0.0
1659375789539494752,1.7793718576431274,0.9085372090339661,0.0
1659375789583298206,1.7856448888778687,0.9075326919555664,0.0
1659375789640119791,1.7927210330963135,0.9064210057258606,0.0
1659375789684766054,1.8012768030166626,0.9051055312156677,0.0
1659375789734897613,1.8080326318740845,0.904075562953949,0.0
1659375789777884960,1.8193470239639282,0.9023821949958801,0.0
1659375789822093009,1.825734257698059,0.9014546871185303,0.0
1659375789866143941,1.8378130197525024,0.8997411131858826,0.0
1659375789910511016,1.844029426574707,0.8988705277442932,0.0
1659375789953948020,1.8539056777954102,0.8974891304969788,0.0
1659375790000395298,1.860271692276001,0.89659184217453,0.0
1659375790000607728,1.8693469762802124,0.8953313231468201,0.0
1659375790051027297,1.8756929636001587,0.8944739103317261,0.0
1659375790080554485,1.8859339952468872,0.893146276473999,0.0
1659375790129742145,1.892465353012085,0.8923410177230835,0.0
1659375790174054861,1.9012097120285034,0.891282856464386,0.0
1659375790217704534,1.907894492149353,0.8904819488525391,0.0
1659375790265808105,1.9171181917190552,0.8893826007843018,0.0
1659375790313894748,1.9234539270401,0.8886474967002869,0.0
1659375790362259626,1.9331175088882446,0.8876082897186279,0.0
1659375790412464141,1.9396659135818481,0.8869566321372986,0.0
1659375790412541866,1.949668049812317,0.8859936594963074,0.0
1659375790457741022,1.9559671878814697,0.8853933811187744,0.0
1659375790490596294,1.9660223722457886,0.8844539523124695,0.0
1659375790536823034,1.9728784561157227,0.8838291764259338,0.0
1659375790592523097,1.986721396446228,0.8826214671134949,0.0
1659375790641300201,1.9935816526412964,0.8820446133613586,0.0
1659375790699374914,2.000417947769165,0.8814852833747864,0.0
1659375790741752862,2.0107152462005615,0.8807059526443481,0.0
1659375790789887428,2.0170023441314697,0.8802671432495117,0.0
1659375790833881378,2.028066396713257,0.8795667886734009,0.0
1659375790877774238,2.034965753555298,0.8791859745979309,0.0
1659375790921938180,2.044952154159546,0.8787095546722412,0.0
1659375790970069646,2.051603078842163,0.8784318566322327,0.0
1659375791021591901,2.058457612991333,0.878178596496582,0.0
1659375791021788358,2.0663764476776123,0.8779421448707581,0.0
1659375791071150064,2.0732593536376953,0.8777916431427002,0.0
1659375791094111919,2.084749221801758,0.8776254057884216,0.0
1659375791144598722,2.091557502746582,0.8775579333305359,0.0
1659375791195672512,2.1034533977508545,0.8775230646133423,0.0
1659375791246001482,2.1096794605255127,0.8775801658630371,0.0
