%time,field.x,field.y,field.z
1981460000000,-0.001071492274713189,0.0051203787242671776,-0.0010027210011129446
1981493000000,-0.0010718436835950003,0.005121234580982273,-0.0010027210300690807
1981527000000,-0.0010722061057375845,0.005122116321179877,-0.0010027210599443878
1981560000000,-0.001072558222565901,0.005122972077720198,-0.001002721088981584
1981593000000,-0.0010729106886381247,0.00512382778481819,-0.00100272111805879
1981625000000,-0.0010732742011662025,0.005124709370650117,-0.0010027211480590492
1981660000000,-0.001073627377436109,0.00512556497715631,-0.0010027211772177004
1981693000000,-0.0010739809040607009,0.005126420534014145,-0.001002721206416559
1981727000000,-0.0010743455104422466,0.00512730196483756,-0.0010027212365423498
1981768000000,-0.001074699749523754,0.0051281574206845865,-0.0010027212658230249
1981812000000,-0.0010750543400746878,0.005129012826676332,-0.0010027212951440982
1981855000000,-0.0010754200438302238,0.005129894101844128,-0.001002721325397065
1981898000000,-0.001075775349909983,0.005130749406359356,-0.0010027213548060403
1981898000000,-0.0010761310096115409,0.005131604660733197,-0.001002721384256628
1981942000000,-0.0010764978171296496,0.005132485779386575,-0.0010027214146422665
1981960000000,-0.0010768541959325344,0.005133340931739629,-0.0010027214441756076
1982002000000,-0.0010772109294831782,0.0051341960337388136,-0.0010027214737497875
1982046000000,-0.0010775788445704978,0.005135076995180841,-0.001002721504262935
1982093000000,-0.0010779362995129854,0.005135931994733237,-0.001002721533920243
1982093000000,-0.001078294110333419,0.005136786943721458,-0.0010027215636185562
1982138000000,-0.001078663136518573,0.005137667747295375,-0.0010027215942597888
1982160000000,-0.0010790216710295994,0.005138522593408728,-0.0010027216240415665
1982200000000,-0.001079380562552826,0.005139377388746433,-0.001002721653864544
1982233000000,-0.0010797507033770875,0.005140258033792478,-0.001002721684634427
1982260000000,-0.0010801103208979103,0.005141112725825121,-0.0010027217145412541
1982304000000,-0.00108047029656925,0.005141967366869834,-0.0010027217444894716
1982352000000,-0.0010808415555866157,0.005142847852724758,-0.0010027217753885743
1982393000000,-0.0010812022595708412,0.005143702390032124,-0.0010027218054210023
1982393000000,-0.0010815633228479903,0.005144556876138255,-0.0010027218354950185
1982442000000,-0.0010819357036252093,0.005145437202135884,-0.0010027218665239236
1982460000000,-0.0010822974975388464,0.005146291584070263,-0.0010027218966825457
1982506000000,-0.001082659651891922,0.005147145914588894,-0.0010027219268829365
1982554000000,-0.0010830331580085522,0.005148026080059665,-0.0010027219580422513
1982598000000,-0.0010833960453300526,0.0051488803059701604,-0.0010027219883276296
1982598000000,-0.0010837592942416225,0.005149734480249435,-0.0010027220186549918
1982641000000,-0.0010841339292900886,0.0051506144845205205,-0.0010027220499453093
1982660000000,-0.0010844979135104082,0.005151468553753107,-0.0010027220803580476
1982695000000,-0.0010848622604755645,0.005152322571137863,-0.0010027221108129536
1982737000000,-0.0010852380280611997,0.005153202413533319,-0.0010027221422348846
1982780000000,-0.0010856031126838476,0.005154056325430741,-0.0010027221727755727
1982824000000,-0.0010859685612102541,0.0051549101852628185,-0.0010027222033586122
1982873000000,-0.0010863454649513628,0.005155789865103245,-0.0010027222349127743
1982873000000,-0.0010867116534924483,0.005156643619005071,-0.0010027222655820053
1982910000000,-0.0010870782071003742,0.005157497320622914,-0.0010027222962937857
1982927000000,-0.0010874562506282739,0.005158376837225714,-0.0010027223279808206
1982960000000,-0.0010878235466165401,0.005159230432468378,-0.0010027223587791984
1982993000000,-0.0010881912088389302,0.005160083975207376,-0.00100272238962033
1983030000000,-0.0010885703957980008,0.005160963327886643,-0.0010027224214408277
1983077000000,-0.0010889388027749127,0.005161816763803329,-0.0010027224523689593
1983120000000,-0.001089307577157422,0.005162670146995532,-0.0010027224833400392
1983165000000,-0.0010896879112051701,0.005163549335061956,-0.0010027225152946413
1983165000000,-0.0010900574327249385,0.005164402610982521,-0.0010027225463531408
1983214000000,-0.0010904273228260009,0.005165255833956761,-0.0010027225774547864
1983227000000,-0.001090808807633105,0.005166134856717818,-0.001002722609544121
1983270000000,-0.0010911794472627427,0.0051669879719689615,-0.0010027226407335992
1983310000000,-0.0010915504566536161,0.005167841034050876,-0.0010027226719664314
1983352000000,-0.001091933095903985,0.005168719890810506,-0.00100272270419113
1983395000000,-0.0010923048572233675,0.00516957284471562,-0.0010027227355122112
1983395000000,-0.0010926769894881701,0.00517042574522752,-0.0010027227668768443
1983435000000,-0.0010930607868789985,0.005171304435286324,-0.0010027227992375591
1983460000000,-0.0010934336734809078,0.0051721572271653865,-0.001002722830690847
1983504000000,-0.0010938069322166911,0.005173009965426131,-0.0010027228621879124
1983546000000,-0.001094191891458502,0.005173888488081378,-0.0010027228946852679
1983586000000,-0.001094565906948679,0.00517474111725128,-0.0010027229262713905
1983631000000,-0.001094940295765478,0.005175593692576638,-0.0010027229579015126
1983631000000,-0.001095326420582199,0.0051764720471221,-0.0010027229905361819
1983676000000,-0.0010957015685793946,0.005177324512896275,-0.001002723022255781
1983693000000,-0.0010960770911002723,0.00517817692459857,-0.001002723054019567
1983735000000,-0.001096464385229267,0.005179055110324505,-0.0010027230867921746
1983770000000,-0.001096840669365307,0.005179907412013009,-0.0010027231186458818
1983817000000,-0.0016199889413271327,0.005136124968938174,-0.0010031148208326027
1983858000000,-0.003217203138274544,0.005002844437531963,-0.0010031661040613427
1983858000000,-0.005794151954425086,0.004786830681997668,-0.001003261907221626
1983908000000,-0.009371965641631449,0.00448728604466681,-0.0010033831780953406
1983927000000,-0.014070371726820956,0.004098758032064599,-0.001003531125895938
1983970000000,-0.0195411147597544,0.0036604990249361996,-0.0010036004500015468
1983995000000,-0.025787227489280595,0.0031904057823677096,-0.0010036487254403044
1984027000000,-0.03284531149846898,0.002711027898486461,-0.0010037418051297917
1984071000000,-0.03997594735626528,0.00229717587842936,-0.0010041851298760104
1984115000000,-0.047105938476587624,0.0019465139183918272,-0.0010032163163901098
1984155000000,-0.05440207935020193,0.0016348909904814399,-0.0010041344290619633
1984200000000,-0.061479726198240686,0.0014582961340971752,-0.001003692221838999
1984200000000,-0.06862493431385472,0.00135103775196013,-0.0010037496251705628
1984243000000,-0.07599209520845547,0.0013122277808261915,-0.0010034013196376958
1984260000000,-0.08314692832673015,0.0013436397761668545,-0.0010029377539346185
1984304000000,-0.09031827087224745,0.0014387517307900004,-0.0010025113549818991
1984344000000,-0.09771314623282784,0.001598437419242465,-0.001002291994877634
1984387000000,-0.1048953905483969,0.001813439104221405,-0.0010022738457187846
1984431000000,-0.11210180984198077,0.0020802748144778827,-0.0010024974364550784
1984431000000,-0.11953331277134553,0.0023987416903588506,-0.0010029524885864678
1984476000000,-0.12674987561936488,0.002749969401236178,-0.00100351674727555
1984493000000,-0.1336538937159125,0.003124791071870664,-0.0010024814487556537
1984535000000,-0.14055436547267647,0.0035490152671851876,-0.0010034291795086754
1984585000000,-0.14722404388705942,0.0040141597537945925,-0.0010028568367833161
1984627000000,-0.15394888926253567,0.004534191475950367,-0.0010027568429240713
1984627000000,-0.16102226033777983,0.005141761572615849,-0.0010025561312224304
1984675000000,-0.16806199273117986,0.005823711185573086,-0.0010041855458515839
1984694000000,-0.17515445755729925,0.006599511105701554,-0.001003569449151618
1984735000000,-0.18245789971290335,0.0074801739519109595,-0.001003225363947157
1984783000000,-0.1895404816292628,0.008416362372256002,-0.0010029605574224422
1984827000000,-0.196569157692808,0.009442730784281284,-0.0010026560266703857
1984870000000,-0.20379658489875588,0.010629132327565953,-0.0010025604257797895
1984870000000,-0.21080127319281391,0.011895521302603851,-0.001002648909652952
1984912000000,-0.2177884842972906,0.013274077518737635,-0.0010027711510945982
1984927000000,-0.22496222632445773,0.014809730648777992,-0.0010026768871741892
1984969000000,-0.23186790775085508,0.016406329199045916,-0.0010023574746766649
1985011000000,-0.23859436345144483,0.01807540553654987,-0.0010020008050520522
1985054000000,-0.24558930643412502,0.01994435941773694,-0.001003176473165078
1985103000000,-0.2523959797136479,0.021908634450553455,-0.0010032270147524412
1985103000000,-0.25914064005464854,0.024010236264541403,-0.0010033279443278052
1985147000000,-0.2660028143606386,0.02634401024981296,-0.0010033668084831644
1985160000000,-0.272601985527524,0.028783043059888633,-0.0010034682991317163
1985203000000,-0.2789564062008773,0.03131232385214168,-0.0010021173717199225
1985247000000,-0.28539429443689246,0.03403334070333688,-0.0010007060118454383
1985294000000,-0.2916802510329197,0.03684104581536695,-0.0010012922015464124
1985294000000,-0.2980809446816038,0.03984086839760959,-0.0010038347278305514
1985338000000,-0.30462259556100474,0.04305790553604981,-0.0010030065747534088
1985360000000,-0.31086674453937346,0.046274522300363205,-0.0010027999498313789
1985405000000,-0.3171496473040841,0.04963617273388095,-0.0010029063284776561
1985449000000,-0.32362651313588203,0.053170325826292025,-0.001003021037476022
1985493000000,-0.3298891090308323,0.05665995024624193,-0.0010027578646376323
1985493000000,-0.33611461851865587,0.06020309735923296,-0.0010024550550924057
1985534000000,-0.34249809118023344,0.06392055561389962,-0.0010024027974512642
1985560000000,-0.3486632510120107,0.06759306689477994,-0.0010025676544453375
1985601000000,-0.3547654092226748,0.0713263872054578,-0.0010028564746579552
1985648000000,-0.36095112424236886,0.07525882195185356,-0.0010032338343030356
1985690000000,-0.36687515534680154,0.07918836993939983,-0.0010037301645653522
1985735000000,-0.37249216380928146,0.08307066773680058,-0.0010008786622238974
1985735000000,-0.377836663075885,0.08690657738430012,-0.0010004920367512188
1985782000000,-0.382733086442041,0.09054098037964074,-0.0010024820228260976
1985793000000,-0.38751447363287944,0.09415150969036301,-0.001001641942206817
1985834000000,-0.3924033340790009,0.09802587216402457,-0.0010004882054349094
1985877000000,-0.397269506651984,0.1020674442881108,-0.001001671378771156
1985922000000,-0.4021165883439099,0.1062414297820331,-0.0010020778662190692
1985971000000,-0.40725121655702723,0.11076402900255038,-0.0010023055190620904
1985971000000,-0.4125440400078822,0.11551406671521369,-0.0010030372815668584
1986008000000,-0.4178512884091015,0.12034900323689061,-0.0010026662827520988
1986027000000,-0.42328404043130285,0.12537760185378727,-0.0010025056053821133
1986060000000,-0.42852284425677906,0.13030403960684378,-0.0010025709786627493
1986097000000,-0.4337884376236528,0.1353071025930254,-0.0010030806863502197
1986143000000,-0.4392336525072625,0.14046827031985065,-0.0010033624237269535
1986185000000,-0.4445256027840716,0.14547193774080255,-0.0010037766865948483
1986228000000,-0.4496162308939303,0.15028172938223258,-0.001002761964160017
1986228000000,-0.4545101358700214,0.15493569826186313,-0.0010025987597417386
1986269000000,-0.45906349964872484,0.15932646010041002,-0.0010044978030253442
1986293000000,-0.4635710442635145,0.16372687052296267,-0.0010031288852110805
1986336000000,-0.4681897589657633,0.16829220593600994,-0.0010018546091784195
1986380000000,-0.4726913122957653,0.17277947436623672,-0.0010020726051868621
1986428000000,-0.477431958001867,0.1775405211109857,-0.0010026441327129244
1986428000000,-0.48259432039318656,0.18278277576963836,-0.0010030663500750318
1986476000000,-0.4876327549025755,0.18794123611584876,-0.0010028271286416889
1986493000000,-0.49269795051037657,0.19314873676404748,-0.0010027570135160875
1986540000000,-0.49792039955955725,0.19850866676940926,-0.001002626287793358
1986580000000,-0.5029958866533791,0.2037112213455366,-0.0010027522841233871
1986622000000,-0.5081577807490653,0.2089691902168428,-0.0010035791993891797
1986667000000,-0.5135323583280006,0.21433024068365392,-0.001003829795641932
1986667000000,-0.5188035332163476,0.2194778132006437,-0.0010041284024777213
1986708000000,-0.524212872376552,0.2246382855488603,-0.001004325603800458
1986727000000,-0.5298522539096497,0.22984793475766216,-0.0010039866039494444
1986769000000,-0.5353464696301847,0.23476197195641588,-0.0010049025021334305
1986812000000,-0.540760056100391,0.23944330393865373,-0.0010044509762479406
1986855000000,-0.5461533875223363,0.2439195029851223,-0.0010042467624440804
1986898000000,-0.5513464330203857,0.24801920826074578,-0.0010044300444017329
1986898000000,-0.5566179428464499,0.2519672281185735,-0.0010038027291779036
1986945000000,-0.5621570507586179,0.25588705932689737,-0.0010033186734235491
1986960000000,-0.5676384343934671,0.25954841311360366,-0.0010030885207370117
1987004000000,-0.5735302144146164,0.26325243189925035,-0.0010037346176683289
1987052000000,-0.5802135864791099,0.2671459214018641,-0.0010036277608357208
1987085000000,-0.5869138815045528,0.2707238094841284,-0.0010040434741563561
1987123000000,-0.593519739681004,0.2739451984006965,-0.0010031734372970905
1987169000000,-0.6002603577627964,0.27693946359297344,-0.0010051334050541795
1987170000000,-0.606868237341935,0.2795979507890092,-0.001005198460014383
1987213000000,-0.61361181537805,0.28206339764642324,-0.0010041677215647873
1987227000000,-0.6206054228627799,0.28439008365455454,-0.0010032134440064733
1987269000000,-0.627377690940501,0.286350897013585,-0.0010033482661629713
1987312000000,-0.6336484491204765,0.2878783280250269,-0.001003612842072444
1987360000000,-0.6394017039440812,0.2890392400670264,-0.0010028890786946548
1987360000000,-0.644237187714817,0.2898357184889448,-0.0010026923516782797
1987403000000,-0.6483062963530003,0.2903751081009729,-0.0010021584228960163
1987427000000,-0.6516934873531122,0.2907285491964775,-0.0010019263847437683
1987460000000,-0.6541895972750363,0.29092643766100684,-0.0010018252259522131
1987504000000,-0.6559267859614373,0.2910265424094437,-0.0010024815365645805
1987551000000,-0.6570659376085631,0.2910743962106863,-0.0010024851358534648
1987591000000,-0.6575589743713068,0.29109098341039386,-0.0010024652258621876
1987635000000,-0.6575984793592735,0.2910924705900992,-0.0010032621357172235
1987635000000,-0.6576121184412441,0.29109338388455636,-0.0010032168956655464
1987682000000,-0.6576254797902454,0.29109431032723787,-0.0010032124410913924
1987693000000,-0.6576389153904052,0.2910952499582918,-0.0010032116302761615
1987739000000,-0.6576528244781733,0.2910962214306462,-0.001003211630143653
1987781000000,-0.6576663818869479,0.29109716483480946,-0.0010032119632416986
1987826000000,-0.6576799905262466,0.29109810785487417,-0.0010032124519209658
1987862000000,-0.6576940604451853,0.291099079052888,-0.0010032130780447332
1987862000000,-0.6577077598446093,0.29110002111701877,-0.001003213811729839
1987906000000,-0.657721498434431,0.29110096270393754,-0.0010032146074425326
1987927000000,-0.657735691036599,0.29110193251131167,-0.0010032155054170051
1987976000000,-0.6577494998108506,0.291102873466371,-0.0010032164794863338
1988017000000,-0.6577633391221336,0.2911038139646408,-0.0010032174998313992
1988058000000,-0.6577776274533682,0.2911047827046449,-0.001003218599548529
1988102000000,-0.6577915222396856,0.29110572279457947,-0.0010032197195238741
1988102000000,-0.657805441474822,0.2911066627636168,-0.001003220889286529
1988150000000,-0.6578198063130839,0.2911076310963958,-0.0010032221557602916
1988160000000,-0.6578337701560357,0.2911085706782121,-0.0010032234314374389
1988197000000,-0.6578477539408438,0.2911095100798909,-0.001003224727618917
1988235000000,-0.6578621811265911,0.2911104778550487,-0.0010032260930104356
1988281000000,-0.6578762019796113,0.2911114171068476,-0.0010032274480505123
1988328000000,-0.6578902396034491,0.2911123563109065,-0.0010032288307470424
1988328000000,-0.6579047192528503,0.29111332393008843,-0.0010032302818582667
1988371000000,-0.657918788402963,0.2911142630475604,-0.0010032317136750984
1988393000000,-0.6579328720077678,0.29111520212444664,-0.0010032331663749443
1988437000000,-0.6579473968626688,0.2911161696165588,-0.001003234682896096
1988481000000,-0.6580554835349924,0.2911198106295483,-0.0010029120696530384
1988521000000,-0.6582966199171464,0.291119508696754,-0.0010028402619759284
1988565000000,-0.6585489772477227,0.29111181687385207,-0.0010032419555023944
1988565000000,-0.6583899860710711,0.29111300571055015,-0.001001788350269154
1988609000000,-0.6576612922009066,0.29115974973421693,-0.0010017717535768071
1988627000000,-0.6562811761236954,0.2912980657694762,-0.0010017266099554764
1988668000000,-0.6549783451198316,0.2914663312315799,-0.0010028174578715215
1988711000000,-0.654287835090313,0.2915730811942155,-0.0010033732832247788
1988755000000,-0.6544321268195423,0.2915342539369817,-0.0010033257040034833
1988797000000,-0.6553057291626653,0.2913231829344081,-0.0010032648273329038
1988797000000,-0.6568054807776299,0.2909304695041455,-0.0010030587350413171
1988838000000,-0.6588929119562631,0.29035504217593866,-0.0010026016775161253
1988860000000,-0.6609548378529462,0.2897630394071356,-0.0010011690531659193
1988903000000,-0.663191736355455,0.2890892270146983,-0.0010018413034988648
1988947000000,-0.6660338428181325,0.28822123833941615,-0.001001812387772933
1988983000000,-0.6688973472001005,0.28734127782157964,-0.001001961713030016
1989001000000,-0.6712100120461953,0.2866033747366539,-0.0010026543607047425
1989046000000,-0.6727013023935511,0.2861060634435359,-0.0010026262582814305
1989088000000,-0.6732751213304541,0.2859048254102233,-0.001002808195819254
1989134000000,-0.6731195983247252,0.2859591560922796,-0.0010028533575811363
1989134000000,-0.6722513716742452,0.28628806334021145,-0.0010029925456380533
1989177000000,-0.6710494260866808,0.28676940858013755,-0.0010029200089400406
1989193000000,-0.6702265034849566,0.28711827845671606,-0.0010021344075386365
1989233000000,-0.6700709167456652,0.2871842776485446,-0.0010022244607231223
1989276000000,-0.6706004718121862,0.28692391822197405,-0.0010023026978000227
1989320000000,-0.6717990909432608,0.2863156929930377,-0.0010024463839532934
1989360000000,-0.6737793129681793,0.2852725690409751,-0.0010026570533628806
1989393000000,-0.6764796419179893,0.2837966517339907,-0.0010028561601234803
1989393000000,-0.6799853303661203,0.28181103163614346,-0.0010029793383280264
1989432000000,-0.684179413378334,0.2793619874545612,-0.00100280614000018
1989460000000,-0.6883110629948046,0.2769114834480222,-0.0010026040587926763
1989495000000,-0.6924149662563142,0.2744501033072353,-0.0010027143137077699
1989537000000,-0.696634179483992,0.2718910086157558,-0.0010029310959168113
1989561000000,-0.7004290844579617,0.26956735990937364,-0.0010020235544981153
1989599000000,-0.7038193404135734,0.26749684952698916,-0.0010033798856069163
1989642000000,-0.7072696263597243,0.26540633634270755,-0.0010037560569342435
1989686000000,-0.7105698014438294,0.2634167784288896,-0.0010032139531890305
1989730000000,-0.7134385194383078,0.2616737127499318,-0.0010016169623518756
1989730000000,-0.7158056498693414,0.26021801642099346,-0.0010016488960849779
1989773000000,-0.7175357897111106,0.2591359116324169,-0.0010016423123800633
1989793000000,-0.7186943533349438,0.2583946504155981,-0.001001633442432058
1989834000000,-0.7192917126797911,0.25800493247941836,-0.0010018246027639136
1989874000000,-0.719331114020682,0.2579757792969578,-0.0010018086233527686
1989899000000,-0.719270448999228,0.2580126492097086,-0.0010033703064558919
1989940000000,-0.7196700693931258,0.2577077150020226,-0.0010032674391190419
1989990000000,-0.7205758506694901,0.2570036338408864,-0.0010034197273097283
1990035000000,-0.7219261715160485,0.25593343908962807,-0.0010031384633495503
1990035000000,-0.7237008046906426,0.25452893120286224,-0.001001967671009154
1990084000000,-0.7257381671819554,0.2529265111876419,-0.0010016850921617387
1990093000000,-0.7280850982114622,0.25112116632119114,-0.0010017306975564563
1990136000000,-0.7306625958137176,0.2491830582422338,-0.0010019958261516422
1990184000000,-0.733196797282955,0.24730656878509882,-0.0010017552854428013
1990225000000,-0.7354075628411805,0.2456663974380902,-0.001002927740105887
1990261000000,-0.7371441178574059,0.24436979192829028,-0.001002307606642102
1990289000000,-0.7381709975865276,0.24359861144745826,-0.001002298490564775
1990336000000,-0.7385405614216635,0.24332060833746683,-0.0010023395312429365
1990336000000,-0.7383339128569336,0.24347745428719797,-0.001002456153130226
1990381000000,-0.7376751030547851,0.24397735595054176,-0.0010025609311594755
1990393000000,-0.7365714762582966,0.2448160703471897,-0.0010027110179625202
1990429000000,-0.7349905500080296,0.24602484576571584,-0.0010026154359465411
1990460000000,-0.7330711573372944,0.247515725973668,-0.001002562293677657
1990505000000,-0.730900098176476,0.24925202317305595,-0.0010022638610555981
1990553000000,-0.7286840370061148,0.25108490711163095,-0.0010012554538209144
1990603000000,-0.7266739903252692,0.25280064964469984,-0.0010015014522506901
1990603000000,-0.7248133378673034,0.25441784442447596,-0.0010017662959299276
1990643000000,-0.7231789823086513,0.25584056770989133,-0.0010038118090988923
1990660000000,-0.7220421024567512,0.2568205814438234,-0.0010032399316760275
1990695000000,-0.7214753290611087,0.2573018261076138,-0.0010032058650081242
1990727000000,-0.7214787252937921,0.2573047363907204,-0.00100322742590514
1990758000000,-0.721734875242194,0.2571020383079851,-0.001003359281664059
1990816000000,-0.721723115738262,0.2571149557600297,-0.0010018356880600043
1990861000000,-0.7212411580989762,0.25749653284028295,-0.001001855817262868
1990861000000,-0.7203137472290575,0.25823239318383756,-0.001001856417342576
1990905000000,-0.7189144490009152,0.2593541181240318,-0.0010018764437017963
1990927000000,-0.7169614575868811,0.2609433069519522,-0.0010019359042924975
1990963000000,-0.714633034179159,0.2628664951602867,-0.0010021407355501437
1991007000000,-0.7121575866005283,0.26492222151707684,-0.0010023555509189007
1991051000000,-0.7100835493421486,0.2666308581762137,-0.0010024301494645053
1991095000000,-0.7087304326394569,0.26773977473211963,-0.0010025523843272335
1991095000000,-0.708043589945923,0.2683036194494619,-0.0010025753783592453
1991138000000,-0.7080304224687087,0.26831399636065534,-0.0010027146632718004
1991160000000,-0.7082170048284161,0.26815622684327184,-0.0010022117310797725
1991199000000,-0.7080246897538035,0.2683192723602049,-0.0010023113532126836
1991249000000,-0.7072344749679337,0.26896942248847244,-0.0010023489918598479
1991290000000,-0.7059060699505183,0.27004323420057796,-0.0010024540805945586
1991337000000,-0.704026359784707,0.271528331735187,-0.0010026059904504302
1991337000000,-0.7015276067501989,0.2734433167689585,-0.0010028126938366466
1991381000000,-0.6985933549171502,0.2756089903849697,-0.00100289762299767
1991393000000,-0.6952223024960318,0.27797783806558785,-0.0010028863858585028
1991441000000,-0.6913970582041062,0.2805002319495687,-0.001002154370488572
1991482000000,-0.6874424483697877,0.28292461873377833,-0.0010022710934276848
1991530000000,-0.6833103687607808,0.2852712395105473,-0.001001877072475437
1991530000000,-0.6788694059663293,0.2875875519469337,-0.0010017993290053068
1991573000000,-0.6742344210494283,0.2898000658068376,-0.0010019382256532088
1991593000000,-0.6691271246482229,0.2920409763295391,-0.00100201380517944
1991633000000,-0.6632243926933903,0.294409031362953,-0.0010021755584310142
1991677000000,-0.6568330539287625,0.29673942133951187,-0.0010026912586205382
1991719000000,-0.6499720353699083,0.29902061623655274,-0.001002613086133114
1991763000000,-0.6426172030581316,0.30127379599596565,-0.0010031478834412397
1991763000000,-0.6359057493115216,0.30316654114221425,-0.0010029099183323856
1991806000000,-0.6296689679986466,0.30477735342672085,-0.0010037448425915634
1991827000000,-0.6231619169110116,0.3063399932844127,-0.0010040436380484748
1991861000000,-0.6165357369281238,0.30780782573467713,-0.0010031293348923623
1991893000000,-0.6097510329544913,0.30920659731708805,-0.001003728337343749
1991935000000,-0.6027944236296772,0.31053677572423455,-0.0010044036549328103
1991978000000,-0.5958471150929955,0.31176721428246373,-0.0010019270281997408
1992025000000,-0.5886043543712763,0.3129590671570167,-0.001004185735409311
1992069000000,-0.581102935894023,0.3141018687017533,-0.0010035664053464483
1992069000000,-0.5738718625147796,0.3151133827765181,-0.0010029572395097164
1992115000000,-0.566624001494826,0.3160390883804512,-0.001003251891146962
1992127000000,-0.5591011004691333,0.31691518193156165,-0.001003433597518439
1992166000000,-0.5518023776884797,0.3176871075824349,-0.0010034133684995068
1992192000000,-0.5444898864824178,0.3183910912524983,-0.0010036658840842753
1992227000000,-0.5369450121245753,0.3190440690115276,-0.0010038965681605852
1992268000000,-0.5296214208072552,0.31960906660721994,-0.0010040293190395205
1992310000000,-0.5222995121531069,0.32010902420828347,-0.0010038067421353006
1992355000000,-0.5147819662766869,0.32056204939053545,-0.001003166845746771
1992397000000,-0.5078274603316795,0.32091589370415996,-0.001003432290126862
1992397000000,-0.5011839624126653,0.3211718631162398,-0.001003999472229511
1992441000000,-0.49414466190204503,0.3213714827219176,-0.0010036291298259475
1992460000000,-0.4871185119713019,0.32150948417721115,-0.001003530586706814
1992497000000,-0.4798792344418064,0.3215817304192261,-0.0010031536138538528
1992543000000,-0.47232867932830225,0.3216024163332916,-0.0010032869491998254
1992586000000,-0.4652523395915317,0.3215786329376575,-0.0010019751702247497
1992629000000,-0.45830040138435424,0.32152071993483744,-0.0010038246469885707
1992629000000,-0.451170348042212,0.3214191875235745,-0.001003185576056484
1992673000000,-0.44412925019624105,0.3212635844298954,-0.0010034962757423244
1992693000000,-0.43677473128390054,0.3210138893199454,-0.001004653766181987
1992730000000,-0.42917939449577575,0.3206468890654377,-0.0010045131740818586
1992765000000,-0.4218261338320778,0.3201942839961082,-0.0010039581124555372
1992791000000,-0.41452832994940403,0.31964695841978047,-0.001003825883836483
1992835000000,-0.4069815246130273,0.3189852544086677,-0.0010038927317529561
1992879000000,-0.3996702882523421,0.3182542785529425,-0.0010036844602812622
1992923000000,-0.39236267171530065,0.3174397423414003,-0.0010031669748493365
1992967000000,-0.3848376506643953,0.3165150492942634,-0.0010029747253394485
1992967000000,-0.37757250723797775,0.3155493168319733,-0.001002955370008548
1993007000000,-0.37031041017728794,0.31453229188079707,-0.0010032441499602217
1993027000000,-0.3628308144602369,0.31343013305400397,-0.0010037424153415964
1993070000000,-0.35556196370206916,0.31229999279537607,-0.001004311219176924
1993114000000,-0.34830468480830346,0.31110382925284136,-0.0010045858154655793
1993158000000,-0.34085434513420104,0.3098081685181561,-0.001004232189294494
1993195000000,-0.33378514159856915,0.3085082414941983,-0.0010023127782672683
1993195000000,-0.32696508146313097,0.30719512499698637,-0.0010044905367321763
1993238000000,-0.3200875126826729,0.30578781543377676,-0.001003987980753518
1993260000000,-0.3133522186354686,0.3043376556245708,-0.0010026292588014851
1993302000000,-0.3063222739693321,0.30275690601502253,-0.0010041298998306053
1993346000000,-0.29899182697477417,0.30105594452475576,-0.001003317147830956
1993389000000,-0.29221561801925267,0.29943675131364106,-0.0010028780622447948
1993437000000,-0.28554800404646996,0.29780082836484556,-0.0010027033594816569
1993437000000,-0.2786837296153155,0.29607197195952323,-0.0010027057074483182
1993479000000,-0.27171019239801286,0.294269260649869,-0.0010028899926289789
1993493000000,-0.2646326243843473,0.2923987256594539,-0.0010033201924787433
1993536000000,-0.2573464530069979,0.2904317773106121,-0.001004026484270823
1993580000000,-0.25057469334229265,0.2885645662371315,-0.001004555614647521
1993629000000,-0.24394365666350257,0.2867042045928356,-0.0010047876545563397
1993629000000,-0.23712901033656658,0.2847569932654132,-0.0010047027989009694
1993672000000,-0.23060026614931964,0.282870454219171,-0.0010054840490332229
1993693000000,-0.2242116707261102,0.2809964176231689,-0.001003563989698572
1993728000000,-0.21789910752970887,0.27909085689196067,-0.0010044196667486072
1993765000000,-0.21210188156339593,0.2773145473606442,-0.001003296379170595
1993793000000,-0.2065079628937075,0.27557645041288514,-0.0010039143937830945
1993827000000,-0.2007463665434926,0.2737604431043139,-0.0010033661043375164
1993879000000,-0.19526263912938036,0.2720132996344679,-0.0010028865327584083
1993927000000,-0.18979653964625326,0.27026534013074066,-0.0010026984985959803
1993927000000,-0.18416198450877566,0.26845654694519083,-0.0010026098886775914
1993968000000,-0.17829260602510005,0.26656318348622476,-0.0010023973367308536
1993993000000,-0.17167319987912108,0.2644085550805902,-0.001002800370832533
1994032000000,-0.16454468654702661,0.2620719906627703,-0.0010034335122249514
1994078000000,-0.15801098500517133,0.25992238208114066,-0.0010040442330760055
1994117000000,-0.1515965469049524,0.2577981536231389,-0.0010042431726412886
1994160000000,-0.14490355355675688,0.25557660562377255,-0.0010046898470450413
1994160000000,-0.13857562436431042,0.2534774835764821,-0.0010019864457603347
1994207000000,-0.1323786258728459,0.2514084799526611,-0.0010035176576516681
1994227000000,-0.1260852522221653,0.24930758488987068,-0.00100348379521812
1994266000000,-0.12001145774323371,0.2472769729677397,-0.0010015029026696244
1994311000000,-0.11369416205520903,0.24514911576472653,-0.001001714296091357
1994358000000,-0.10690000240466214,0.2428277700546444,-0.0010027105101006427
1994402000000,-0.10058652022920289,0.24065011708649212,-0.0010029118873387186
1994402000000,-0.09428509182566798,0.23846140044383798,-0.0010029937848688338
1994449000000,-0.0876871052370045,0.23616911816118705,-0.0010026413436320936
1994460000000,-0.08171295530963853,0.2340943112428808,-0.001002615824403693
1994498000000,-0.07576833750198714,0.23202104663650772,-0.0010028128229492422
1994545000000,-0.0695618597295421,0.22985893106293329,-0.0010031891812031235
1994588000000,-0.06320290172165527,0.2276468601835124,-0.0010029169415376078
1994628000000,-0.05642603848363079,0.22528491518113178,-0.0010039424056828873
1994628000000,-0.0493493091253681,0.22282439600652437,-0.001004580468154919
1994676000000,-0.0426662521864515,0.22051389454033357,-0.0010021339451201615
1994693000000,-0.0361274969538698,0.21825226686483518,-0.0010051707312151055
1994737000000,-0.029460823578188668,0.2159541901179546,-0.0010030668176093521
1994782000000,-0.023238547885578508,0.21381849426019378,-0.0010034907928592983
1994805000000,-0.01724435265721395,0.2117778403129681,-0.0010041779142654153
1994834000000,-0.01107392447676488,0.20968797767678266,-0.0010037904523567225
1994882000000,-0.005079964410014507,0.20766756373503323,-0.0010033307229896059
1994921000000,0.0012276890570696317,0.20554821687551808,-0.001002363782780149
1994964000000,0.008252097661987947,0.2031713352177211,-0.001002765207997542
1994964000000,0.015157942368866062,0.20079193369438478,-0.001002726950409108
1995002000000,0.022057563027571565,0.19837705810030604,-0.0010029200345490971
1995027000000,0.029159485156729434,0.19585152720282759,-0.0010033557709715514
1995072000000,0.03562458859046043,0.19351539906337537,-0.0010024563674468877
1995111000000,0.04158636204762097,0.19132489761469781,-0.0010043479678913808
1995157000000,0.04775045133910363,0.1890461066577236,-0.001004118662765792
1995199000000,0.053586080359740745,0.1868616134164759,-0.0010025678799958464
1995199000000,0.0592285364256298,0.18471692371984838,-0.0010047273875934196
1995241000000,0.06497456491511737,0.18250248938800107,-0.001003799477747494
1995257000000,0.07042112261683502,0.18038083079186415,-0.0010048215758720822
1995306000000,0.07580300785482495,0.17825588912397108,-0.001004199902383856
1995352000000,0.08131085951275423,0.1760439249489752,-0.0010032116587048723
1995394000000,0.0863553796435719,0.17398670108514358,-0.001003527909895021
1995394000000,0.09117778810181566,0.17200127101923365,-0.001003494482040776
1995439000000,0.09615894536390322,0.16993066337247023,-0.0010031939780176594
1995460000000,0.10126332029833389,0.16778370852106023,-0.0010030308712554968
1995501000000,0.10649153271925108,0.165548778434939,-0.0010028633427155015
1995542000000,0.11186814866848867,0.1632106655595075,-0.0010028285038924806
1995587000000,0.1165907981179441,0.1611225566060088,-0.001003004455260529
1995629000000,0.12037118033967216,0.15942169660551753,-0.0010028868243990435
1995629000000,0.12330006913595312,0.15807733844116284,-0.0010028074519010076
1995675000000,0.12522235973572035,0.1571749541436902,-0.0010027602366347553
1995693000000,0.1262798341149553,0.15666685934910504,-0.001002541954150924
1995735000000,0.1267496302199923,0.15643664685113604,-0.0010025083143175018
1995779000000,0.12678718163779829,0.15641705416414037,-0.0010026588710334017
1995820000000,0.126795476037842,0.1564137534978616,-0.0010026898641867371
1995863000000,0.12680392185010148,0.15641023425284215,-0.001002692192863218
1995863000000,0.12681210223765227,0.15640682342409326,-0.0010026937831674847
1995912000000,0.12682026932565488,0.1564034187525349,-0.0010026952776674876
1995927000000,0.1268286720386212,0.15639991633626674,-0.0010026967381246005
1995971000000,0.12683681787452675,0.15639652126755688,-0.0010026980865152323
1996012000000,0.12684495569866452,0.15639312963750704,-0.0010026993736469633
1996053000000,0.12685333323882855,0.1563896380403374,-0.0010027006421393092
1996102000000,0.12686145901099344,0.15638625117273128,-0.001002701823004045
1996102000000,0.12686958066299883,0.1563828656937986,-0.0010027029593034711
1996147000000,0.12687794522191356,0.15637937849380307,-0.0010027040881417162
1996160000000,0.12688606162552124,0.15637599418970868,-0.001002705147246978
1996200000000,0.12689417678711432,0.1563726097548647,-0.0010027061740364093
1996246000000,0.1269025373813752,0.15636912219219815,-0.0010027072016022126
1996292000000,0.12726666780708368,0.15618886291843748,-0.0010025114298806044
1996337000000,0.12831803506243972,0.15566149713908825,-0.001002592132963647
1996337000000,0.13010706590725588,0.15476125090996798,-0.001002707322130425
1996372000000,0.13250179169060827,0.15355325607586448,-0.0010028512879505097
1996393000000,0.13549873538492346,0.15204077000090288,-0.001003058920887468
1996427000000,0.1391369932048681,0.15021044112852838,-0.00100306332185994
1996466000000,0.1430908842638206,0.1482446025566586,-0.0010027002336992635
1996500000000,0.14732787135919145,0.14618736768456192,-0.0010014261198000411
1996538000000,0.15183245315265367,0.14406668843142692,-0.001002164287827876
1996577000000,0.15625394006273594,0.14204297384181214,-0.0010031586476706156
1996621000000,0.1604439573785194,0.14016371334148162,-0.0010027661530359507
1996661000000,0.16444981009856283,0.13840095563599283,-0.0010029575312239802
1996662000000,0.16842178255548843,0.13668716368635914,-0.0010017222456402616
1996705000000,0.1726952054574057,0.13485405084398344,-0.001001619166615817
1996727000000,0.17752184314020322,0.13275455322558075,-0.00100166495006173
1996767000000,0.18271454078990454,0.13042997930616168,-0.0010017591356239613
1996793000000,0.188384741009153,0.12779110200607416,-0.0010019869343543542
1996827000000,0.19449203288754074,0.12484077020097527,-0.0010021074918552461
1996875000000,0.20061966582120508,0.12178232342582221,-0.0010025815055435816
1996918000000,0.20705466678574477,0.11841163849120716,-0.0010026225661127798
1996964000000,0.21380155780041585,0.11466858736554693,-0.0010038671068798438
1996964000000,0.22006879888382788,0.11098234732224582,-0.0010045621697682208
1997008000000,0.2261537986491933,0.10718027684084676,-0.0010024916341008633
1997027000000,0.23237414631579453,0.10305645839255817,-0.001002363205840573
1997073000000,0.23827527243548557,0.09888913253098272,-0.0010040632800588437
1997121000000,0.24417022668364435,0.09442972130806333,-0.0010032381487686988
1997162000000,0.25023139078418255,0.08949079228965727,-0.001003548088556086
1997163000000,0.2559285805739511,0.08449376753493655,-0.0010037376764626786
1997204000000,0.26145192899990927,0.07929784698417418,-0.001004105972437299
1997227000000,0.2669514600591664,0.07374464926099007,-0.0010046175571684635
1997271000000,0.2720013213548273,0.06828763594033888,-0.0010029980227223984
1997313000000,0.2768627711344448,0.06271601922018935,-0.0010038340934300644
1997357000000,0.28174943950046466,0.056876728752224395,-0.0010040977529601793
1997402000000,0.28632569447243916,0.05122694390552128,-0.0010035615805219118
1997402000000,0.29054396368481195,0.04556050225017885,-0.001005389819394107
1997443000000,0.29465923841273317,0.03957658047656789,-0.0010042742891685393
1997460000000,0.29856485732381743,0.03356007607735179,-0.0010028022518726032
1997502000000,0.3024443090549693,0.02725736724880736,-0.0010032630303954335
1997546000000,0.3063221578687031,0.020633076472951192,-0.0010031550356646886
1997588000000,0.3099421647051124,0.014134559371171786,-0.0010031488756511477
1997631000000,0.31343479445031064,0.007560301069362414,-0.001003346222625795
1997631000000,0.3168975066736815,0.0007111308314422119,-0.00100375612605106
1997677000000,0.3201220172070237,-0.005988729067566,-0.0010040996507852118
1997693000000,0.323221915100085,-0.01273766006750839,-0.0010041029589318573
1997733000000,0.3262798575343259,-0.019716203728960213,-0.0010039659364390156
1997778000000,0.32912391457047363,-0.026536265227578335,-0.001004707011562321
1997821000000,0.33185934789961613,-0.03342071481605061,-0.0010042914478092142
1997864000000,0.3345548516059235,-0.0405628843659448,-0.0010041358984544703
1997864000000,0.3370476824514711,-0.04750881607642673,-0.0010036525452065369
1997901000000,0.3394475509279214,-0.05449468365210558,-0.0010032929099221058
1997927000000,0.34181304759815334,-0.0617201286975753,-0.0010032689121743828
1997968000000,0.34399760538422103,-0.06875449808409204,-0.0010037421054645765
1998012000000,0.3460858157994256,-0.07584420110820331,-0.0010040808290282636
1998051000000,0.348127639792905,-0.08318237059838818,-0.0010042644670658213
1998096000000,0.34996080780693334,-0.09020488771573898,-0.0010045237068741428
1998096000000,0.35162973667320424,-0.09712492940358311,-0.0010040932744353089
1998141000000,0.35328554639670307,-0.10440622289731212,-0.0010033705869781535
1998160000000,0.354815677925821,-0.11144897931576916,-0.0010023269126903482
1998203000000,0.35628920977502576,-0.118609001263392,-0.0010037744815242985
1998238000000,0.35772929854024305,-0.12605054578881145,-0.0010033528214878629
1998283000000,0.358976861463969,-0.1329361996666382,-0.0010029767471361958
1998329000000,0.36013740253319304,-0.1397602367086704,-0.0010028835484680067
1998329000000,0.36125326787022544,-0.14681561378909916,-0.0010030005039800144
1998360000000,0.36229621179440336,-0.15393732621928546,-0.0010030713609572237
1998393000000,0.3632895126547956,-0.16123596674646168,-0.001003720854922091
1998431000000,0.3642323060816113,-0.1687721177877674,-0.0010041788421446575
1998481000000,0.36507172906745655,-0.17608931056604307,-0.0010041244014733289
1998514000000,0.3658381067899573,-0.18340777085782892,-0.001004522775803856
1998552000000,0.3665469653340638,-0.19093088958865,-0.0010045887576237214
1998594000000,0.36717099035849415,-0.19823591327267823,-0.0010042668638057424
1998594000000,0.3677258023767,-0.2055021781401606,-0.0010046900432042136
1998643000000,0.36823844392698685,-0.21302252083292916,-0.0010039690564302498
1998660000000,0.36867530026189704,-0.22032527149613496,-0.00100342437948725
1998704000000,0.36905400119368004,-0.22763614578470165,-0.001002883411425723
1998750000000,0.3693835212201923,-0.235177864185429,-0.0010026254797383186
1998794000000,0.3696517018940885,-0.24247988013007932,-0.0010025416923778972
1998794000000,0.36988409146920004,-0.24978819117563178,-0.0010027320831114475
1998829000000,0.37008555545252636,-0.2573254439929118,-0.0010031682553606272
1998860000000,0.3702463254076915,-0.26464063627914924,-0.0010038029000644585
1998902000000,0.3703758603428114,-0.2719593908364335,-0.0010042331655517184
1998947000000,0.37047677968911785,-0.27949782750240654,-0.0010045580615698942
1998990000000,0.3705468598078075,-0.28677998961237144,-0.001004016831085159
1999032000000,0.3706037705384918,-0.29404940633783844,-0.0010029705313465698
1999032000000,0.3706699332194517,-0.3014580177932244,-0.001003845670694635
1999077000000,0.3707312904893966,-0.30869906362301053,-0.0010040928460784103
1999092000000,0.3707836516551881,-0.3159431769653373,-0.0010036941520897534
1999133000000,0.3708319850251551,-0.32341258184328286,-0.0010031818654550537
1999176000000,0.37087796874953455,-0.33062315575765755,-0.0010027414182282625
1999224000000,0.37094382449013436,-0.3377880812643143,-0.001002440989586014
1999269000000,0.3710777567432313,-0.3451828234467327,-0.0010024496199215437
1999269000000,0.37126764106030335,-0.35238707550558485,-0.0010026765216424281
1999304000000,0.37150333457465595,-0.3595988438172688,-0.0010030517465842992
1999327000000,0.371794191382635,-0.3670331614741276,-0.0010036786763274498
1999371000000,0.37212696293040076,-0.37423503194472074,-0.0010041176451199701
1999416000000,0.3725182709789123,-0.38143186096367904,-0.001004501017746285
1999458000000,0.3729812910343842,-0.388828586952014,-0.0010042470901991535
1999507000000,0.3734794744663282,-0.39586173523447443,-0.0010029946142410644
1999507000000,0.37401219698870714,-0.4026704345835807,-0.0010049508088205115
1999552000000,0.37460798021587494,-0.409597802913723,-0.0010036962020976772
1999560000000,0.37525953549675756,-0.4164455455253977,-0.0010018923020169365
1999603000000,0.37599284251296444,-0.42348092460599013,-0.0010027103625518917
1999641000000,0.3768162175691574,-0.4308375489307142,-0.0010029510584513568
1999670000000,0.37762604632267716,-0.437641841930902,-0.001002679805450584
1999707000000,0.3784742749362936,-0.44433461743057134,-0.001002502046540954
1999749000000,0.3793982593064361,-0.45122892259479064,-0.0010025321177174681
1999788000000,0.38029585195761073,-0.4575785185252155,-0.0010027026659548445
1999832000000,0.38121723001409974,-0.46381213087507395,-0.0010029955783211301
1999832000000,0.38220364098582815,-0.47023240990894705,-0.0010033454558119013
1999875000000,0.3831884481176743,-0.4764272749055945,-0.0010036623388016454
1999893000000,0.38420329087842453,-0.48261248873628415,-0.001003636888368565
1999935000000,0.38527391724007315,-0.4889605291801297,-0.0010039315534380172
1999977000000,0.38630126871234877,-0.4948751990361369,-0.0010041869126877524
2000015000000,0.38731426499429306,-0.5005552725477008,-0.001004376181347251
2000057000000,0.3883801461497698,-0.5063900255488519,-0.001003996874021005
2000100000000,0.3894719615473671,-0.5121712879356263,-0.001001805768752674
2000100000000,0.3906679335755005,-0.5181796592008465,-0.0010011987104221638
2000142000000,0.39201278170305004,-0.524475423974844,-0.0010013728893565575
2000160000000,0.39347590526740833,-0.5309166242777046,-0.0010011653513226776
2000196000000,0.39510052071813917,-0.5376504647719843,-0.0010015519536357154
2000234000000,0.39690677642579125,-0.5448117201692252,-0.0010026958608897116
2000276000000,0.39864396144396785,-0.5514482993099115,-0.0010028354621727069
2000312000000,0.40040550539356823,-0.5579694349200793,-0.0010029824273132468
2000355000000,0.4022719600753575,-0.5646767671357317,-0.0010030761613334105
2000399000000,0.4041811169658171,-0.5713666324129335,-0.0010026496698406044
2000399000000,0.40615957883324455,-0.5782936335940346,-0.0010030751414517626
2000445000000,0.4081913857044209,-0.5854706690260695,-0.0010039947810679857
2000460000000,0.4101622013388226,-0.5924378889194967,-0.0010040215294035704
2000500000000,0.4121455730954856,-0.5994061960852187,-0.00100395635407282
2000545000000,0.41420191707626697,-0.6065768541552244,-0.0010038602491995278
2000589000000,0.4161847101220885,-0.6134205802411985,-0.0010020160309511007
2000632000000,0.4180936316935574,-0.6200062120344588,-0.0010029216234998459
2000632000000,0.41998997581662506,-0.6265592978362083,-0.0010032515221218043
2000676000000,0.42187245496618986,-0.6330172170637938,-0.0010017889450972678
2000693000000,0.42386567501493344,-0.6397542106363932,-0.001001914022759249
2000733000000,0.42599407612937523,-0.6469135892121227,-0.001003332884385616
2000778000000,0.42796988897307675,-0.6535558088358009,-0.0010032406727800529
2000822000000,0.42991638154486767,-0.6601041046979161,-0.0010031773441357798
2000864000000,0.4319160638013874,-0.6668555780432038,-0.001003092805770097
2000865000000,0.43390640694317634,-0.673602734181185,-0.0010026114838897447
2000900000000,0.435883545169178,-0.6804388216596141,-0.0010017614932147922
2000922000000,0.4379158983334376,-0.6875897235844595,-0.001003702085333534
2000969000000,0.4397956921042665,-0.6942744158195998,-0.0010027328663461434
2001007000000,0.44161755724051616,-0.7008205799702621,-0.0010040774098960814
2001053000000,0.4434869024905784,-0.7076158241228513,-0.0010039639628790231
2001094000000,0.4453287552761358,-0.714337678586109,-0.0010038783998403966
2001094000000,0.44723820185576385,-0.7211961953408143,-0.0010027508009741101
2001135000000,0.44926500759495364,-0.7282950061619801,-0.0010035677199946198
2001161000000,0.45116932414052624,-0.7348318284293923,-0.0010032433245170565
2001213000000,0.45303243413188965,-0.7411592858330264,-0.0010033261049020824
2001253000000,0.455023991739424,-0.7478230972477723,-0.001003256037584218
2001300000000,0.4568984047130788,-0.753969089908086,-0.0010022008740216103
2001300000000,0.458755916310523,-0.7599495500439805,-0.0010031780650614046
2001347000000,0.46070130347874083,-0.766102569109204,-0.0010030717471063294
2001360000000,0.462572516571914,-0.7718950558565343,-0.0010033075513145133
2001403000000,0.46445336566037654,-0.7775848827821951,-0.0010028372522135932
2001444000000,0.46637806585798125,-0.7833049053833536,-0.0010034377300679118
2001467000000,0.46815382609392164,-0.788499210882474,-0.00100369465780022
2001510000000,0.46986862710598054,-0.7934346099418749,-0.0010037134923814132
2001554000000,0.4716619752606032,-0.798515866138509,-0.0010038186071805663
2001598000000,0.47337664472484203,-0.803310443646659,-0.0010039216335853245
2001598000000,0.47510041280330717,-0.8080797399455396,-0.0010039658989527168
2001641000000,0.47689105554772376,-0.8129842663391188,-0.001003788527811661
2001660000000,0.4785739205771071,-0.8175433455120841,-0.0010030378016663566
2001701000000,0.480218398004557,-0.8219946743752135,-0.0010028222708916706
2001749000000,0.4818800827531226,-0.8264568118564103,-0.0010030650072336209
2001789000000,0.4833619387209849,-0.8304024128949186,-0.0010031977471435041
2001834000000,0.4846183464302161,-0.8337571895525699,-0.001003054846937964
2001834000000,0.4856591660978192,-0.8365804162099014,-0.0010028983427444425
2001875000000,0.48642090572366614,-0.8387018910037045,-0.0010027532533795729
2001893000000,0.48694506246835256,-0.8402145963724582,-0.0010030780237285687
2001940000000,0.48731512275913935,-0.8413300842019765,-0.001003063593911377
2001983000000,0.4875608159004036,-0.8420985189645089,-0.001003052679370564
2002027000000,0.4877033272337302,-0.8425543979072271,-0.0010030791826676558
2002070000000,0.48774798656191143,-0.8426961850362037,-0.0010028669916092234
2002070000000,0.48774787960027804,-0.8426898444771584,-0.00100403251976363
2002115000000,0.48774704709180405,-0.842685395464615,-0.0010040691639597032
2002127000000,0.48774612428703673,-0.8426805945273834,-0.001004105706703045
2002160000000,0.48774517175144144,-0.8426757866711535,-0.00100413616629565
2002197000000,0.48774417640388734,-0.8426709035069472,-0.0010041621786775305
2002246000000,0.48774313051944895,-0.8426658463233772,-0.0010041833974933113
2002286000000,0.48774210216412456,-0.8426609163384142,-0.0010042013438085924
2002329000000,0.4877410625109962,-0.8426559676857193,-0.001004217187388707
2002329000000,0.48773998100786786,-0.8426508522223319,-0.0010042315630540803
2002374000000,0.48773892232661314,-0.8426458730805321,-0.001004243923924314
2002392000000,0.487737855998457,-0.8426408821404828,-0.0010042548003310024
2002432000000,0.4877367503957769,-0.8426357296297584,-0.0010042646652565837
2002483000000,0.487813527831321,-0.8428808846903604,-0.001002265442072603
2002528000000,0.4880400969132086,-0.8436110268024601,-0.0010021370457933138
2002573000000,0.4884327706415994,-0.844857696449547,-0.0010019103984874392
2002573000000,0.4889756403992204,-0.8465328126725539,-0.0010019651626043263
2002618000000,0.4896833591945042,-0.8486531160224454,-0.0010019987064117802
2002627000000,0.49058526719752815,-0.8512778154059579,-0.0010019289405086215
2002660000000,0.4916221185212035,-0.8542184546208813,-0.0010018351666309447
2002698000000,0.49273616951017235,-0.8573445200281068,-0.0010015109399076731
2002737000000,0.49389285850073184,-0.860573948416916,-0.001001980601748876
2002782000000,0.4950457761434314,-0.8637664415486335,-0.0010019565252075632
2002822000000,0.49626436766539966,-0.8670950791169091,-0.0010019375302011656
2002866000000,0.4976218312141041,-0.8707248629334584,-0.0010018546375354168
2002866000000,0.49902860747389893,-0.8743641460063364,-0.0010024794766208163
2002913000000,0.5005069265133337,-0.878023062230715,-0.0010025036083705155
2002927000000,0.5020885018301751,-0.8817723218472526,-0.0010025094656927712
2002969000000,0.5037313608280592,-0.8855255855009544,-0.0010023263722750003
2003014000000,0.5056642094078742,-0.8898539870311027,-0.0010021343751198675
2003057000000,0.5079559456524843,-0.8948857026895441,-0.00100259584658376
2003101000000,0.5101394800635843,-0.8995328006115125,-0.001002244364809262
2003101000000,0.5120026213784605,-0.9033784123449736,-0.0010023782388953635
2003144000000,0.5138741379619226,-0.9071216110032091,-0.0010034825020435456
2003160000000,0.5159348522355207,-0.9110801341890754,-0.0010031277212693424
2003200000000,0.5182548827131388,-0.9153647653475588,-0.0010030691554671553
2003245000000,0.5208420074161672,-0.919967010037629,-0.0010037799024023297
2003296000000,0.5234203774024289,-0.9243749323708669,-0.0010040651363749827
2003336000000,0.5260640413298706,-0.9286775707360999,-0.0010022628165985495
2003336000000,0.5289202518950273,-0.933106293984981,-0.0010017095912052756
2003365000000,0.5318401654522695,-0.9374073901281113,-0.0010028608436183327
2003393000000,0.5348767309611828,-0.9416402767813189,-0.0010020202139948385
2003433000000,0.5381492421101306,-0.9459612898753444,-0.0010018474823086376
2003477000000,0.541224734549191,-0.9498244888732603,-0.001003218720731107
2003521000000,0.5438954672824543,-0.9530494588889764,-0.0010033151230220277
2003563000000,0.5461646908102826,-0.955708749391,-0.0010033906317223479
2003563000000,0.547865284669377,-0.9576610592003435,-0.001003379096950658
2003606000000,0.549053429589385,-0.9590094157028195,-0.0010033169029333468
2003627000000,0.549730952845199,-0.9597752717378434,-0.0010032792013825974
2003674000000,0.5499498202666686,-0.9600218599102498,-0.001003157142781326
2003703000000,0.5499615529391624,-0.9600344609140843,-0.0010037419593233003
2003727000000,0.5499563471004524,-0.9600275254729169,-0.0010037521851288568
2003766000000,0.549951018522615,-0.9600207030844566,-0.0010037561331898287
2003800000000,0.5499456977110985,-0.9600138983571481,-0.001003759878381201
2003838000000,0.5499402285184173,-0.9600069023337897,-0.0010037633174481697
2003878000000,0.549934931810083,-0.960000125266213,-0.0010037663476679948
2003918000000,0.5499296455889702,-0.9599933602375034,-0.0010037691172340851
2003960000000,0.5499242092255878,-0.9599864019281779,-0.0010037717303737793
2003960000000,0.5499189417098976,-0.9599796589029564,-0.001003774060319696
2003999000000,0.5499136823207407,-0.9599729256954009,-0.0010037762104154017
2004027000000,0.5499082714136597,-0.9599659981171259,-0.0010037782591953356
2004068000000,0.5499030267259568,-0.9599592831553017,-0.0010037801047291968
2004110000000,0.5498977885273948,-0.9599525764744533,-0.001003781825612695
2004156000000,0.5498923979389604,-0.9599456748053337,-0.001003783483223844
2004200000000,0.5498871716772797,-0.9599389837671058,-0.001003784993787664
2004200000000,0.5498819507728724,-0.9599322999440657,-0.0010037864182908876
2004239000000,0.5498765769558053,-0.9599254208403006,-0.001003787805949577
2004260000000,0.54987136607105,-0.9599187508625692,-0.0010037890840303362
2004299000000,0.5498661597647944,-0.9599120873684482,-0.0010037903021383326
2004350000000,0.5498608002596991,-0.9599052285433862,-0.001003791502887895
2004393000000,0.5498556026365286,-0.9598985776921231,-0.0010037926170824336
2004393000000,0.5498504090678801,-0.9598919328373984,-0.0010037936888056924
2004442000000,0.5498450622194505,-0.9598850927585809,-0.0010037947543249312
2004460000000,0.5500169479042409,-0.9600794799295597,-0.001001853338551649
2004502000000,0.5505469885432097,-0.9606748715678605,-0.0010018514975853772
2004550000000,0.5514944986847479,-0.9617210467066741,-0.0010018534466221009
2004595000000,0.5528354702564208,-0.9631655032842852,-0.001001871034175525
2004595000000,0.5546216835529316,-0.9650343356759296,-0.0010019226355062263
2004637000000,0.556948287575598,-0.9673945078240785,-0.0010020273015946407
2004659000000,0.5596765220745815,-0.97008634920125,-0.0010020680036734592
2004700000000,0.5628356758958661,-0.9731366882918255,-0.0010021140649549842
2004737000000,0.5664653347798291,-0.9766182302833762,-0.0010017248053722956
2004782000000,0.5703101996835941,-0.9803455836201153,-0.0010019163830917062
2004828000000,0.5744677070905265,-0.9844758034396213,-0.0010019207934883374
2004829000000,0.5789588683998357,-0.9890871441237719,-0.0010023343949231121
2004868000000,0.5833123969607912,-0.9936800992650484,-0.0010024624448914006
2004893000000,0.5875831116353364,-0.9982325303584655,-0.0010035167339352662
2004932000000,0.5919695363438164,-1.0029213019990146,-0.0010035814232002525
2004983000000,0.5963315603838569,-1.0075914479401127,-0.0010018956220616791
2005026000000,0.6008996845883945,-1.01243731750769,-0.0010014098913378178
2005067000000,0.6057568504814561,-1.0175172921402469,-0.0010017627481213043
2005067000000,0.610358077353508,-1.022288233407253,-0.0010032807960040566
2005096000000,0.6150189508201788,-1.0271095931436867,-0.0010032864895244062
2005127000000,0.6198767497000369,-1.032122204858513,-0.0010033369046002147
2005164000000,0.6247944740771002,-1.0371884732553023,-0.0010029230305787264
2005213000000,0.6298571751295639,-1.0424118800487268,-0.0010030507786867385
2005254000000,0.6350494330810375,-1.0477815665020762,-0.0010029759150028163
2005298000000,0.6400030876295911,-1.0529154630480717,-0.001002187117072624
2005298000000,0.645012556579657,-1.0581023615058822,-0.0010037254635470658
2005345000000,0.6502083083422826,-1.0634613003491533,-0.0010037628261626193
2005360000000,0.6550079637641097,-1.0683958012546648,-0.0010025749873346958
2005405000000,0.6597009469080077,-1.0732227136874763,-0.0010037238929561237
2005449000000,0.6646023441343777,-1.0782497023572148,-0.0010034164388864099
2005489000000,0.6692398897233791,-1.0829986231358757,-0.0010029253242360807
2005535000000,0.673751777535062,-1.0876250733528119,-0.0010032376414532453
2005535000000,0.6782799328844865,-1.092256484268493,-0.0010037088730924203
2005577000000,0.6826935572473135,-1.096752234852141,-0.001003564609778046
2005593000000,0.6871156747439259,-1.1012493040582398,-0.0010036104008903507
2005627000000,0.6916779852714836,-1.1058811915149653,-0.0010034641956128444
2005679000000,0.6963110372562216,-1.1105820359242726,-0.001002537986975409
2005724000000,0.701183842428944,-1.1155473647487297,-0.0010025999318765896
2005754000000,0.7061981047263935,-1.1206896586493686,-0.0010021968587717554
2005783000000,0.7109098289395177,-1.1255481309009536,-0.0010025025469857334
2005828000000,0.7156435407350765,-1.1304236902305715,-0.0010035229905834692
2005831000000,0.7205266051516569,-1.135451032808011,-0.0010036302346589261
2005878000000,0.7253841445040643,-1.1404438172954237,-0.0010031378993115674
2005893000000,0.730426626100164,-1.1455866730424022,-0.00100405319182224
2005930000000,0.7356582131967035,-1.150861990337417,-0.0010038017695953479
2005960000000,0.7405611278890216,-1.155752940164426,-0.001004490179337264
2006004000000,0.7453936620623115,-1.160575498474438,-0.0010030241261233981
2006048000000,0.7503496689668091,-1.1654753446293862,-0.0010038556210055817
2006084000000,0.7549378480088147,-1.1699560487048852,-0.001003103629015789
2006109000000,0.7590258747916315,-1.1739167901731629,-0.0010029360667603779
2006155000000,0.7628423948619281,-1.1775930991847494,-0.001002887132638134
2006203000000,0.7662220605262118,-1.1808517190230177,-0.001002619598697966
2006203000000,0.7693803520791601,-1.1839207330647181,-0.0010035290105605103
2006246000000,0.7725665606495772,-1.1870548336249658,-0.0010033310096869107
2006260000000,0.7758165618643376,-1.1903026915740882,-0.001002222798635967
2006307000000,0.7791907731045703,-1.1937503135663186,-0.0010026952441094042
2006347000000,0.7825915668642754,-1.1973295148006764,-0.0010019313178689648
2006380000000,0.7856902807790979,-1.200675803998812,-0.0010020912509834425
2006405000000,0.7885518159026007,-1.2038112035688486,-0.0010035390070140364
2006445000000,0.7913369446540759,-1.2068856870097788,-0.001003563916784616
2006489000000,0.7938903651897522,-1.2097383417893615,-0.0010040007992664253
2006528000000,0.7964219056859067,-1.212595198519112,-0.001004136063666363
2006528000000,0.7990146909324021,-1.2155521719666935,-0.001004221872688893
2006567000000,0.8016257883790897,-1.2185616492523823,-0.0010031911634152263
2006593000000,0.8043262262383026,-1.2217103123126347,-0.0010032882722451272
2006636000000,0.80712886300292,-1.2250191080593564,-0.001002659588961452
2006679000000,0.8099231656400803,-1.2283617640174518,-0.0010012439513950033
2006729000000,0.8129502447905218,-1.231985082953696,-0.0010013566360385223
2006729000000,0.8164104885287612,-1.2360768258428738,-0.0010015162945745497
2006773000000,0.8201875120034747,-1.2404467885705568,-0.0010015718996478247
2006793000000,0.8244032601118667,-1.245190443484136,-0.0010016944385600225
2006831000000,0.8291147418913928,-1.2503619271703748,-0.0010020644619151003
2006873000000,0.8336270280513689,-1.2552320111609396,-0.0010020882147845148
2006918000000,0.8378193657688771,-1.2596824091791199,-0.0010019165281207644
2006960000000,0.8420115290854335,-1.264064202294793,-0.0010033237654546584
2006982000000,0.8460895799554973,-1.2682877391023466,-0.0010038188277681215
2007017000000,0.8501367575546984,-1.2724618790371014,-0.0010032977865385255
2007061000000,0.8543084207610666,-1.2767480265130415,-0.0010037588533178092
2007061000000,0.8581688806376877,-1.280698559968797,-0.0010039095301138182
2007105000000,0.8618353810492336,-1.2844375899105147,-0.0010040723322688704
2007127000000,0.8656031141023376,-1.2882645215196027,-0.001004029741560046
2007160000000,0.8691038101852868,-1.2918054921108784,-0.0010031951547897315
2007197000000,0.8724083029175027,-1.2951351676375156,-0.0010037627325741212
2007230000000,0.8757312948879793,-1.298461869336173,-0.0010038275152592438
2007274000000,0.8788624087470188,-1.301576005741893,-0.001003013571857305
2007318000000,0.8819396954715931,-1.3046208344475336,-0.0010035264914698035
2007354000000,0.8851409602282131,-1.3077663681629896,-0.0010037436613329516
2007396000000,0.8882199591328346,-1.3107776908045674,-0.0010037014980822552
2007397000000,0.8913025310987237,-1.3137827360654992,-0.0010035822017001282
2007427000000,0.8944853381216207,-1.3168746403461393,-0.0010035453926107753
2007459000000,0.8973012616178646,-1.3196000306951916,-0.0010032931618428817
