%time,field.x,field.y,field.z
1659366568194411754,0.8885026574134827,3.8527162075042725,0.0
1659366568240651607,0.8884888291358948,3.8527374267578125,0.0
1659366568263425588,0.8885026574134827,3.8527162075042725,0.0
1659366568319183588,0.8885026574134827,3.8527162075042725,0.0
1659366568337768554,0.8884888291358948,3.8527374267578125,0.0
1659366568393727779,0.8885026574134827,3.8527162075042725,0.0
1659366568439090967,0.8885026574134827,3.8527162075042725,0.0
1659366568497344017,0.8885026574134827,3.8527162075042725,0.0
1659366568525644063,0.8885026574134827,3.8527162075042725,0.0
1659366568582699537,0.8885026574134827,3.8527162075042725,0.0
1659366568606029510,0.8885026574134827,3.8527162075042725,0.0
1659366568663783311,0.8885026574134827,3.8527162075042725,0.0
1659366568691202640,0.8885026574134827,3.8527162075042725,0.0
1659366568748011827,0.8884888291358948,3.8527374267578125,0.0
1659366568791744947,0.8885026574134827,3.8527162075042725,0.0
1659366568841195344,0.8885026574134827,3.8527162075042725,0.0
1659366568887806892,0.8885026574134827,3.8527162075042725,0.0
1659366568930223464,0.8885026574134827,3.8527162075042725,0.0
1659366568974340915,0.8884888291358948,3.8527374267578125,0.0
1659366569017686128,0.8885026574134827,3.8527162075042725,0.0
1659366569061913967,0.8885026574134827,3.8527162075042725,0.0
1659366569105959892,0.8885026574134827,3.8527162075042725,0.0
1659366569150532960,0.8885026574134827,3.8527162075042725,0.0
1659366569193956851,0.8884888291358948,3.8527374267578125,0.0
1659366569238006591,0.8885026574134827,3.8527162075042725,0.0
1659366569282979011,0.8885026574134827,3.8527162075042725,0.0
1659366569330470800,0.8885026574134827,3.8527162075042725,0.0
1659366569382146120,0.8885026574134827,3.8527162075042725,0.0
1659366569430651664,0.8885026574134827,3.8527162075042725,0.0
1659366569482705354,0.8885026574134827,3.8527162075042725,0.0
1659366569530449867,0.8885026574134827,3.8527162075042725,0.0
1659366569530537366,0.8885026574134827,3.8527162075042725,0.0
1659366569574837446,0.8885026574134827,3.8527162075042725,0.0
1659366569619544744,0.8884888291358948,3.8527374267578125,0.0
1659366569676603794,0.8884888291358948,3.8527374267578125,0.0
1659366569722578287,0.8885026574134827,3.8527162075042725,0.0
1659366569767879724,0.8884888291358948,3.8527374267578125,0.0
1659366569810117721,0.8885026574134827,3.8527162075042725,0.0
1659366569857340574,0.8885026574134827,3.8527162075042725,0.0
1659366569903947353,0.8885026574134827,3.8527162075042725,0.0
1659366569945972681,0.8885026574134827,3.8527162075042725,0.0
1659366569995370864,0.8885026574134827,3.8527162075042725,0.0
1659366570037832260,0.8885026574134827,3.8527162075042725,0.0
1659366570088623285,0.8884888291358948,3.8527374267578125,0.0
1659366570088710308,0.8884888291358948,3.8527374267578125,0.0
1659366570140503644,0.8884888291358948,3.8527374267578125,0.0
1659366570187486886,0.8885026574134827,3.8527162075042725,0.0
1659366570290092229,0.8885026574134827,3.8527162075042725,0.0
1659366570330457925,0.8884888291358948,3.8527374267578125,0.0
1659366570330639600,0.8884888291358948,3.8527374267578125,0.0
1659366570375106334,0.8884888291358948,3.8527374267578125,0.0
1659366570405859947,0.8885026574134827,3.8527162075042725,0.0
1659366570502722501,0.8885026574134827,3.8527162075042725,0.0
1659366570502859592,0.8885026574134827,3.8527162075042725,0.0
1659366570546665191,0.8885026574134827,3.8527162075042725,0.0
1659366570579855442,0.8884888291358948,3.8527374267578125,0.0
1659366570622190475,0.8885026574134827,3.8527162075042725,0.0
1659366570705088615,0.8885026574134827,3.8527162075042725,0.0
1659366570751257419,0.8885026574134827,3.8527162075042725,0.0
1659366570794272661,0.8885026574134827,3.8527162075042725,0.0
1659366570838294744,0.8885026574134827,3.8527162075042725,0.0
1659366570882544755,0.8885026574134827,3.8527162075042725,0.0
1659366570925973653,0.8885026574134827,3.8527162075042725,0.0
1659366570970256805,0.8885026574134827,3.8527162075042725,0.0
1659366571014229774,0.8885026574134827,3.8527162075042725,0.0
1659366571058370828,0.8885026574134827,3.8527162075042725,0.0
1659366571101917505,0.8884888291358948,3.8527374267578125,0.0
1659366571146115779,0.8884888291358948,3.8527374267578125,0.0
1659366571190151929,0.8885026574134827,3.8527162075042725,0.0
1659366571234254121,0.8885026574134827,3.8527162075042725,0.0
1659366571278357028,0.8885026574134827,3.8527162075042725,0.0
1659366571328888416,0.8885026574134827,3.8527162075042725,0.0
1659366571378271341,0.8880748152732849,3.8533740043640137,0.0
1659366571422457933,0.8868107795715332,3.855329751968384,0.0
1659366571466248989,0.8827252984046936,3.8617300987243652,0.0
1659366571510702371,0.8801719546318054,3.8657455444335938,0.0
1659366571554487705,0.8762155175209045,3.871958017349243,0.0
1659366571598971843,0.8731878995895386,3.876781463623047,0.0
1659366571642385721,0.8675438761711121,3.8860280513763428,0.0
1659366571686302900,0.864657461643219,3.8908488750457764,0.0
1659366571738347291,0.8607235550880432,3.8974616527557373,0.0
1659366571788202524,0.8581835627555847,3.9017817974090576,0.0
1659366571788378000,0.8544572591781616,3.908252239227295,0.0
1659366571840963125,0.8518660068511963,3.9128639698028564,0.0
1659366571866198062,0.8482235074043274,3.9195265769958496,0.0
1659366571921059370,0.8458409309387207,3.923992872238159,0.0
1659366571968696355,0.8420093059539795,3.931471586227417,0.0
1659366572022033691,0.840028703212738,3.935518264770508,0.0
1659366572066462278,0.8373527526855469,3.9411404132843018,0.0
1659366572112372159,0.8354966044425964,3.945134162902832,0.0
1659366572158925056,0.8329586982727051,3.9507365226745605,0.0
1659366572206134080,0.831341564655304,3.9544217586517334,0.0
1659366572254601478,0.828802764415741,3.960465669631958,0.0
1659366572298256158,0.8271833062171936,3.964534044265747,0.0
1659366572352595567,0.8243679404258728,3.9720473289489746,0.0
1659366572402858495,0.8229362964630127,3.976104974746704,0.0
1659366572402951002,0.8207303881645203,3.9828133583068848,0.0
1659366572455391883,0.8192055821418762,3.9877729415893555,0.0
1659366572483783483,0.8170244693756104,3.9953362941741943,0.0
1659366572542024612,0.8155956268310547,4.000613212585449,0.0
1659366572587198019,0.8131431341171265,4.009860992431641,0.0
1659366572643512010,0.8119440674781799,4.0143351554870605,0.0
1659366572686420917,0.8101894855499268,4.021175384521484,0.0
1659366572734469175,0.8090826272964478,4.025959491729736,0.0
1659366572779368638,0.8071660399436951,4.034841537475586,0.0
1659366572830657243,0.806225597858429,4.039196014404297,0.0
1659366572874026298,0.8056804537773132,4.041822910308838,0.0
1659366572918149948,0.8057979345321655,4.041201114654541,0.0
1659366572965343713,0.8059948682785034,4.040053367614746,0.0
1659366573010203599,0.8058785200119019,4.040829181671143,0.0
1659366573054094791,0.8057300448417664,4.0419840812683105,0.0
1659366573098289489,0.8058328628540039,4.04100227355957,0.0
1659366573142708539,0.8062269687652588,4.03643798828125,0.0
1659366573195438861,0.8064652681350708,4.033206939697266,0.0
1659366573239329576,0.8067827820777893,4.027926445007324,0.0
1659366573281992912,0.8069711327552795,4.023551940917969,0.0
1659366573326307535,0.8071236610412598,4.016162872314453,0.0
1659366573378890752,0.8071056604385376,4.011252403259277,0.0
1659366573422496795,0.8067841529846191,4.002374172210693,0.0
1659366573466078758,0.8064732551574707,3.997854232788086,0.0
1659366573510591983,0.8058939576148987,3.9918582439422607,0.0
1659366573554280757,0.8053930401802063,3.9878907203674316,0.0
1659366573598310708,0.8044349551200867,3.9818921089172363,0.0
1659366573642338275,0.8036768436431885,3.9780170917510986,0.0
1659366573729141712,0.8020099997520447,3.971024751663208,0.0
1659366573783558607,0.8009705543518066,3.9673469066619873,0.0
1659366573783797025,0.7992190718650818,3.961928129196167,0.0
1659366573826411485,0.7976629137992859,3.9576191902160645,0.0
1659366573846504688,0.7949579954147339,3.9507956504821777,0.0
1659366573901674747,0.7929684519767761,3.9461960792541504,0.0
1659366573957585573,0.7887332439422607,3.9372236728668213,0.0
1659366574014483451,0.7862862944602966,3.932419776916504,0.0
1659366574058274745,0.7827153205871582,3.925804853439331,0.0
1659366574102264404,0.779894232749939,3.9208576679229736,0.0
1659366574146347999,0.775339663028717,3.913259506225586,0.0
1659366574193056344,0.7722293138504028,3.9082789421081543,0.0
1659366574238348245,0.7675571441650391,3.900991916656494,0.0
1659366574286547899,0.7642116546630859,3.8959217071533203,0.0
1659366574330302476,0.7578290104866028,3.886641502380371,0.0
1659366574378183603,0.7543260455131531,3.8817408084869385,0.0
1659366574426089763,0.7497356534004211,3.875471353530884,0.0
1659366574474456548,0.7465417385101318,3.871222734451294,0.0
1659366574518887758,0.7432693243026733,3.867002248764038,0.0
1659366574519094944,0.7394995093345642,3.8623037338256836,0.0
1659366574567174196,0.7359921336174011,3.858077049255371,0.0
1659366574581875801,0.730876624584198,3.852160930633545,0.0
1659366574636972427,0.727575421333313,3.848491907119751,0.0
1659366574684120178,0.7214241027832031,3.8420119285583496,0.0
1659366574736586570,0.7179197669029236,3.838536262512207,0.0
1659366574783217906,0.7110517024993896,3.8320956230163574,0.0
1659366574832400560,0.7075499892234802,3.8289871215820312,0.0
1659366574878104209,0.7010141611099243,3.8235459327697754,0.0
1659366574933866977,0.6973616480827332,3.820697546005249,0.0
1659366574981421232,0.6925374865531921,3.8171322345733643,0.0
1659366575026665210,0.6889081001281738,3.8145930767059326,0.0
1659366575074307441,0.6839703917503357,3.8113224506378174,0.0
1659366575118425369,0.6805183291435242,3.809156894683838,0.0
1659366575162425041,0.6773097515106201,3.8072235584259033,0.0
1659366575206575870,0.6737622022628784,3.8051674365997314,0.0
1659366575250750780,0.6706230640411377,3.803417205810547,0.0
1659366575250894546,0.6647698879241943,3.800300359725952,0.0
1659366575299334287,0.661023736000061,3.7983977794647217,0.0
1659366575328727006,0.6545178890228271,3.7952818870544434,0.0
1659366575385014057,0.6505001187324524,3.79347825050354,0.0
1659366575430479764,0.6427505612373352,3.790229082107544,0.0
1659366575484371900,0.6391201019287109,3.7888102531433105,0.0
1659366575531072854,0.6373159289360046,3.7881431579589844,0.0
1659366575575486898,0.6374829411506653,3.7882022857666016,0.0
1659366575618586778,0.6364296078681946,3.7878406047821045,0.0
1659366575662278890,0.6354205012321472,3.787506341934204,0.0
1659366575710166454,0.636120617389679,3.787726879119873,0.0
1659366575754344940,0.6377671360969543,3.7882280349731445,0.0
1659366575808047294,0.6430654525756836,3.7897684574127197,0.0
1659366575854321718,0.6465579271316528,3.7907185554504395,0.0
1659366575898303985,0.6528564095497131,3.792343854904175,0.0
1659366575946364164,0.6569118499755859,3.7933411598205566,0.0
1659366575990653991,0.6623531579971313,3.794637680053711,0.0
1659366576038410902,0.666593074798584,3.7956254482269287,0.0
1659366576086327791,0.6708205938339233,3.796553373336792,0.0
1659366576138788700,0.6710190176963806,3.79659366607666,0.0
1659366576186034917,0.6680614352226257,3.7960238456726074,0.0
1659366576235158205,0.6654979586601257,3.7955496311187744,0.0
1659366576235264062,0.6604390740394592,3.7946510314941406,0.0
1659366576283425807,0.6566464304924011,3.7940051555633545,0.0
1659366576313062667,0.6509255170822144,3.793074369430542,0.0
1659366576369199752,0.646298885345459,3.792353630065918,0.0
1659366576414290904,0.6383394598960876,3.7911577224731445,0.0
1659366576462209224,0.6323785781860352,3.7902884483337402,0.0
1659366576506380319,0.6225807070732117,3.7888948917388916,0.0
1659366576550837993,0.615937352180481,3.787970542907715,0.0
1659366576594330549,0.6035676598548889,3.7863290309906006,0.0
1659366576642219066,0.5964354872703552,3.785432815551758,0.0
1659366576690163850,0.5866155028343201,3.7842047214508057,0.0
1659366576738873958,0.5796847939491272,3.783329486846924,0.0
1659366576786486387,0.5703903436660767,3.782182455062866,0.0
1659366576831860303,0.563252866268158,3.781329870223999,0.0
1659366576832311868,0.5533472299575806,3.7801778316497803,0.0
1659366576882540464,0.5462039709091187,3.7793750762939453,0.0
1659366576915161848,0.535692036151886,3.7781782150268555,0.0
1659366576971091270,0.5287290811538696,3.7773585319519043,0.0
1659366577014208793,0.5198334455490112,3.7762863636016846,0.0
1659366577061850786,0.5132020115852356,3.775465726852417,0.0
1659366577116959810,0.5002701282501221,3.773829460144043,0.0
1659366577164437532,0.49329233169555664,3.772923469543457,0.0
1659366577210164070,0.4825798273086548,3.7714924812316895,0.0
1659366577258356809,0.47580936551094055,3.7705636024475098,0.0
1659366577306389570,0.463659405708313,3.7688112258911133,0.0
1659366577351229429,0.4570542275905609,3.767800807952881,0.0
1659366577394145250,0.44833239912986755,3.7664010524749756,0.0
1659366577442437648,0.44211775064468384,3.765353202819824,0.0
1659366577486351966,0.43374162912368774,3.7638816833496094,0.0
1659366577530400514,0.42736533284187317,3.7627296447753906,0.0
1659366577577762365,0.4177595376968384,3.760946273803711,0.0
1659366577622679471,0.41084566712379456,3.759639024734497,0.0
1659366577622791528,0.40045806765556335,3.757631301879883,0.0
1659366577668715476,0.3935562074184418,3.7562620639801025,0.0
1659366577697088956,0.3834560215473175,3.7542357444763184,0.0
1659366577752198457,0.376508891582489,3.7528347969055176,0.0
1659366577808580875,0.3616797626018524,3.7498035430908203,0.0
1659366577865271806,0.3549394905567169,3.748401641845703,0.0
1659366577910718917,0.3453044593334198,3.74637508392334,0.0
1659366577958060026,0.33842286467552185,3.7449073791503906,0.0
1659366578002193450,0.328601211309433,3.7427849769592285,0.0
1659366578046564102,0.3215547502040863,3.741241455078125,0.0
1659366578090170383,0.31115177273750305,3.73893404006958,0.0
1659366578138248920,0.30428406596183777,3.7374026775360107,0.0
1659366578186556816,0.293276309967041,3.73490047454834,0.0
1659366578230882883,0.28622764348983765,3.7332520484924316,0.0
1659366578274048566,0.27368950843811035,3.730290651321411,0.0
1659366578322259664,0.2668153643608093,3.7286741733551025,0.0
1659366578366667270,0.2567618787288666,3.7263143062591553,0.0
1659366578425569057,0.2499409168958664,3.7246928215026855,0.0
1659366578474310398,0.2351253628730774,3.7211337089538574,0.0
1659366578518353223,0.22820858657360077,3.719477415084839,0.0
1659366578562494516,0.2158118039369583,3.7164690494537354,0.0
1659366578701519727,0.20893357694149017,3.71476149559021,0.0
1659366578701602697,0.19900760054588318,3.7123045921325684,0.0
1659366578814368486,0.19224616885185242,3.7106521129608154,0.0
1659366578814614295,0.18280625343322754,3.708338499069214,0.0
1659366578818678855,0.17592786252498627,3.706631660461426,0.0
1659366578818892955,0.16658151149749756,3.704256772994995,0.0
1659366578842896223,0.15969835221767426,3.7024660110473633,0.0
1659366578890124082,0.14675584435462952,3.6991360187530518,0.0
1659366578945879697,0.14015322923660278,3.6974740028381348,0.0
1659366578996207475,0.13041426241397858,3.694999933242798,0.0
1659366579042022943,0.12348245829343796,3.693195104598999,0.0
1659366579086378335,0.11352753639221191,3.6905457973480225,0.0
1659366579129938125,0.10649122297763824,3.688641309738159,0.0
1659366579174793481,0.09604323655366898,3.685779094696045,0.0
1659366579218645095,0.0894809365272522,3.683964490890503,0.0
1659366579263069152,0.07995719462633133,3.681273937225342,0.0
1659366579305957794,0.07403061538934708,3.679537296295166,0.0
1659366579350614786,0.06662445515394211,3.6772713661193848,0.0
1659366579397450447,0.06108038127422333,3.6754958629608154,0.0
1659366579442466259,0.0512821339070797,3.672234535217285,0.0
1659366579486224174,0.046371228992938995,3.6705596446990967,0.0
1659366579530387163,0.04149541258811951,3.66886043548584,0.0
1659366579574608325,0.03973044455051422,3.668233633041382,0.0
1659366579622347831,0.0383722223341465,3.6677472591400146,0.0
1659366579666294336,0.0380864292383194,3.667644500732422,0.0
1659366579714605808,0.03791974484920502,3.6675844192504883,0.0
1659366579758231639,0.03791974484920502,3.6675844192504883,0.0
1659366579802393198,0.03791974484920502,3.6675844192504883,0.0
1659366579846049547,0.03791974484920502,3.6675844192504883,0.0
1659366579891117572,0.03791974484920502,3.6675844192504883,0.0
1659366579934201717,0.03791974484920502,3.6675844192504883,0.0
1659366579982383966,0.03791974484920502,3.6675844192504883,0.0
1659366580031788587,0.03791974484920502,3.6675844192504883,0.0
1659366580074490308,0.03791974484920502,3.6675844192504883,0.0
1659366580118377685,0.03791974484920502,3.6675844192504883,0.0
1659366580162132263,0.03791974484920502,3.6675844192504883,0.0
1659366580210387229,0.03791974484920502,3.6675844192504883,0.0
1659366580254470586,0.03791974484920502,3.6675844192504883,0.0
1659366580298255205,0.03791974484920502,3.6675844192504883,0.0
1659366580342821121,0.03791974484920502,3.6675844192504883,0.0
1659366580390603780,0.03791974484920502,3.6675844192504883,0.0
1659366580441394090,0.03791974484920502,3.6675844192504883,0.0
1659366580490284204,0.03791974484920502,3.6675844192504883,0.0
1659366580534143447,0.03791974484920502,3.6675844192504883,0.0
1659366580578412532,0.03791974484920502,3.6675844192504883,0.0
1659366580622193813,0.036586541682481766,3.6671032905578613,0.0
1659366580666676998,0.03382613882422447,3.6661031246185303,0.0
1659366580710222482,0.027339624240994453,3.663721799850464,0.0
1659366580755072593,0.022162193432450294,3.661813974380493,0.0
1659366580800319910,0.011320708319544792,3.6577818393707275,0.0
1659366580850954055,0.005120874382555485,3.655428647994995,0.0
1659366580894312381,-0.003858177689835429,3.6519813537597656,0.0
1659366580943366289,-0.010182399302721024,3.6495285034179688,0.0
1659366580943522214,-0.019524462521076202,3.645897150039673,0.0
1659366580999064683,-0.026110870763659477,3.64335036277771,0.0
1659366581025097846,-0.03517334163188934,3.6398379802703857,0.0
1659366581082726240,-0.041608694940805435,3.637321710586548,0.0
1659366581130205869,-0.05400431156158447,3.6324641704559326,0.0
1659366581183982849,-0.06043538823723793,3.629936933517456,0.0
1659366581230283021,-0.06981367617845535,3.626190423965454,0.0
1659366581276715517,-0.07623767852783203,3.623577356338501,0.0
1659366581322435379,-0.08518307656049728,3.619908094406128,0.0
1659366581370208978,-0.09154863655567169,3.617285966873169,0.0
1659366581418550014,-0.1019645482301712,3.612933874130249,0.0
1659366581465222358,-0.10843369364738464,3.610166072845459,0.0
1659366581514372587,-0.12078500539064407,3.6048033237457275,0.0
1659366581558090448,-0.12700188159942627,3.6020898818969727,0.0
1659366581606473684,-0.13286058604717255,3.5995049476623535,0.0
1659366581650105953,-0.13976921141147614,3.5964155197143555,0.0
1659366581695918321,-0.14555729925632477,3.593796730041504,0.0
1659366581696154594,-0.1562243402004242,3.588883638381958,0.0
1659366581744486331,-0.1624177098274231,3.5859949588775635,0.0
1659366581772662639,-0.17148268222808838,3.581718683242798,0.0
1659366581828649520,-0.1776903122663498,3.5787417888641357,0.0
1659366581880117654,-0.18861043453216553,3.5734171867370605,0.0
1659366581927818298,-0.19460032880306244,3.570455551147461,0.0
1659366581975682258,-0.20035381615161896,3.56758713722229,0.0
1659366582018125295,-0.20766156911849976,3.5639219284057617,0.0
1659366582066574096,-0.2139904797077179,3.560732841491699,0.0
1659366582110198736,-0.22428201138973236,3.5555083751678467,0.0
1659366582155669212,-0.23067668080329895,3.552225351333618,0.0
1659366582155753374,-0.23894327878952026,3.547933578491211,0.0
1659366582204961061,-0.2453547567129135,3.5445728302001953,0.0
1659366582240781784,-0.2542465925216675,3.5398926734924316,0.0
1659366582296293020,-0.26047444343566895,3.5366177558898926,0.0
1659366582350023746,-0.27053600549697876,3.5312798023223877,0.0
1659366582398509502,-0.2768629491329193,3.5278680324554443,0.0
1659366582442207813,-0.2873857617378235,3.522158622741699,0.0
1659366582492316484,-0.2936633229255676,3.5187618732452393,0.0
1659366582538367509,-0.3024885654449463,3.514010429382324,0.0
1659366582591479301,-0.3082447052001953,3.5109267234802246,0.0
1659366582634196519,-0.3183862566947937,3.505470037460327,0.0
1659366582678642272,-0.3241664171218872,3.502324104309082,0.0
1659366582678749799,-0.333579421043396,3.497117519378662,0.0
1659366582726782560,-0.33929890394210815,3.4939141273498535,0.0
1659366582783421754,-0.34555742144584656,3.4903783798217773,0.0
1659366582826860189,-0.35439395904541016,3.485283374786377,0.0
1659366582870610475,-0.3605516850948334,3.4816739559173584,0.0
1659366582914151906,-0.37001287937164307,3.476142406463623,0.0
1659366582958350658,-0.37614160776138306,3.472583770751953,0.0
1659366583002832651,-0.38507360219955444,3.467350721359253,0.0
1659366583050151109,-0.3906254172325134,3.4640591144561768,0.0
1659366583094317197,-0.40154168009757996,3.4576566219329834,0.0
1659366583138564825,-0.4075752794742584,3.454186201095581,0.0
1659366583182456970,-0.4157699644565582,3.449498176574707,0.0
1659366583226174354,-0.4215037226676941,3.4462172985076904,0.0
1659366583270452022,-0.4341941475868225,3.438938617706299,0.0
1659366583314451217,-0.4402085840702057,3.43548583984375,0.0
1659366583358707666,-0.4512013792991638,3.429215669631958,0.0
1659366583402500867,-0.4571668803691864,3.425830125808716,0.0
1659366583446423292,-0.4664468765258789,3.420593023300171,0.0
1659366583493445634,-0.47247305512428284,3.4172120094299316,0.0
1659366583538864374,-0.48041781783103943,3.412802219390869,0.0
1659366583582661390,-0.4861025810241699,3.4096930027008057,0.0
1659366583626074075,-0.4962553381919861,3.4042036533355713,0.0
1659366583670175790,-0.5018516778945923,3.4011967182159424,0.0
1659366583717711687,-0.5114701390266418,3.395996570587158,0.0
1659366583762311458,-0.5171852111816406,3.392889976501465,0.0
1659366583809334278,-0.5257459878921509,3.3882880210876465,0.0
1659366583854421138,-0.5318279266357422,3.3850622177124023,0.0
1659366583898984670,-0.5408582091331482,3.380319118499756,0.0
1659366583942449808,-0.5469145774841309,3.3771533966064453,0.0
1659366583986183404,-0.5561069250106812,3.372337818145752,0.0
1659366584030306339,-0.5623863935470581,3.3690524101257324,0.0
1659366584074183225,-0.5737882852554321,3.3631093502044678,0.0
1659366584118485927,-0.5798527598381042,3.359959125518799,0.0
1659366584162314176,-0.5885039567947388,3.3554742336273193,0.0
1659366584207873821,-0.5947539806365967,3.3522419929504395,0.0
1659366584250047445,-0.6061387062072754,3.3463757038116455,0.0
1659366584294171333,-0.6124199628829956,3.343148708343506,0.0
1659366584338506460,-0.6214755773544312,3.3385093212127686,0.0
1659366584382734775,-0.6276265978813171,3.3353612422943115,0.0
1659366584426089286,-0.6363993883132935,3.3308913707733154,0.0
1659366584470617771,-0.6425458192825317,3.3277900218963623,0.0
1659366584514454841,-0.6483825445175171,3.324861526489258,0.0
1659366584558400154,-0.6558800339698792,3.3211231231689453,0.0
1659366584603445529,-0.6617578864097595,3.318220615386963,0.0
1659366584603571891,-0.6710253357887268,3.3137223720550537,0.0
1659366584655720233,-0.6771056652069092,3.310831308364868,0.0
1659366584685135126,-0.6866074800491333,3.306353807449341,0.0
1659366584741105318,-0.692700982093811,3.30349063873291,0.0
1659366584786478996,-0.7013051509857178,3.29948353767395,0.0
1659366584830018758,-0.7074856758117676,3.2966272830963135,0.0
1659366584874340057,-0.7160254716873169,3.292722225189209,0.0
1659366584918274164,-0.7220056056976318,3.290036678314209,0.0
1659366584966305732,-0.7328819632530212,3.2852180004119873,0.0
1659366585010818481,-0.7387212514877319,3.282651901245117,0.0
1659366585054463148,-0.7447801232337952,3.2800192832946777,0.0
1659366585097775220,-0.751483678817749,3.277155876159668,0.0
1659366585141806125,-0.757337749004364,3.2746880054473877,0.0
1659366585185844182,-0.7678665518760681,3.270343780517578,0.0
1659366585229948759,-0.7737844586372375,3.2679646015167236,0.0
1659366585273917436,-0.7819638848304749,3.264765501022339,0.0
1659366585319342136,-0.7868891358375549,3.2629058361053467,0.0
1659366585319495916,-0.7928815484046936,3.26072096824646,0.0
1659366585368306159,-0.7971795201301575,3.259209632873535,0.0
1659366585416713953,-0.8042286038398743,3.2568256855010986,0.0
1659366585469524383,-0.8080301880836487,3.255584478378296,0.0
1659366585513949871,-0.8135114312171936,3.253862142562866,0.0
1659366585562378406,-0.8176552057266235,3.252612590789795,0.0
1659366585605942964,-0.8232435584068298,3.2509818077087402,0.0
1659366585653665304,-0.8281158804893494,3.2496085166931152,0.0
1659366585702122449,-0.8359629511833191,3.247502565383911,0.0
1659366585750097751,-0.8414810299873352,3.2460944652557373,0.0
1659366585794862747,-0.8525993227958679,3.243398666381836,0.0
1659366585838916063,-0.8588120937347412,3.241955041885376,0.0
1659366585882318258,-0.8682404160499573,3.2398126125335693,0.0
1659366585926339626,-0.8748867511749268,3.238335132598877,0.0
1659366585974807262,-0.8875882625579834,3.235520124435425,0.0
1659366586018637657,-0.8938121795654297,3.2341253757476807,0.0
1659366586062527894,-0.9076012969017029,3.2310709953308105,0.0
1659366586110832929,-0.9133656620979309,3.229825496673584,0.0
1659366586154081344,-0.9225766658782959,3.2278733253479004,0.0
1659366586199543952,-0.9282267689704895,3.226699113845825,0.0
1659366586242027521,-0.9392359852790833,3.224443197250366,0.0
1659366586286285877,-0.9450412392616272,3.223269462585449,0.0
1659366586335955142,-0.9553743004798889,3.2212462425231934,0.0
1659366586389233350,-0.9609707593917847,3.2201919555664062,0.0
1659366586434733867,-0.9685907959938049,3.218806028366089,0.0
1659366586484259843,-0.9714574813842773,3.21830153465271,0.0
1659366586530458927,-0.9740765690803528,3.21785044670105,0.0
1659366586578135251,-0.974750280380249,3.217735767364502,0.0
1659366586626445770,-0.9750247597694397,3.217689037322998,0.0
1659366586672029495,-0.9750247597694397,3.217689037322998,0.0
1659366586713853120,-0.9750247597694397,3.217689037322998,0.0
1659366586757846355,-0.9750247597694397,3.217689037322998,0.0
1659366586802923440,-0.9750247597694397,3.217689037322998,0.0
1659366586851257801,-0.9750247597694397,3.217689037322998,0.0
1659366586898246049,-0.9750247597694397,3.217689037322998,0.0
1659366586942895412,-0.9750247597694397,3.217689037322998,0.0
1659366586986148595,-0.9750247597694397,3.217689037322998,0.0
1659366587030509710,-0.974800169467926,3.2177271842956543,0.0
1659366587074412584,-0.9714056253433228,3.2182984352111816,0.0
1659366587118442296,-0.9679094552993774,3.2188754081726074,0.0
1659366587162213563,-0.9609439969062805,3.2200372219085693,0.0
1659366587206311702,-0.9556292295455933,3.2209415435791016,0.0
1659366587250190734,-0.9461477398872375,3.2225565910339355,0.0
1659366587294632196,-0.9398615956306458,3.2236368656158447,0.0
1659366587338426589,-0.9273287057876587,3.225727081298828,0.0
1659366587382479906,-0.921280026435852,3.2266921997070312,0.0
1659366587426284551,-0.9109887480735779,3.228375196456909,0.0
1659366587470742940,-0.9047243595123291,3.2294323444366455,0.0
1659366587514304161,-0.893875241279602,3.231308698654175,0.0
1659366587558338880,-0.8873746395111084,3.2324845790863037,0.0
1659366587609320163,-0.8762645125389099,3.234622001647949,0.0
1659366587654443979,-0.8693331480026245,3.2359724044799805,0.0
1659366587698109149,-0.8576084971427917,3.238264799118042,0.0
1659366587746696710,-0.8517040014266968,3.2394585609436035,0.0
1659366587746798038,-0.8418616652488708,3.241482973098755,0.0
1659366587800464630,-0.8355185389518738,3.2428054809570312,0.0
1659366587847501516,-0.8293973803520203,3.2440764904022217,0.0
1659366587890471696,-0.8239425420761108,3.245195150375366,0.0
1659366587934459447,-0.8187828063964844,3.2462408542633057,0.0
1659366587978963136,-0.8105456233024597,3.2479026317596436,0.0
1659366588026144266,-0.8055277466773987,3.248883008956909,0.0
1659366588026320695,-0.8000220060348511,3.249871015548706,0.0
1659366588074073076,-0.7982254028320312,3.250176429748535,0.0
1659366588125489234,-0.796377956867218,3.2504847049713135,0.0
1659366588178835153,-0.7960532307624817,3.250537633895874,0.0
1659366588226811885,-0.7957286834716797,3.25059175491333,0.0
1659366588270206689,-0.7957785725593567,3.2505831718444824,0.0
1659366588315057039,-0.7957037091255188,3.250596046447754,0.0
1659366588358169794,-0.7957037091255188,3.250596046447754,0.0
1659366588406512022,-0.7956538200378418,3.2506046295166016,0.0
1659366588454345464,-0.7956538200378418,3.2506046295166016,0.0
1659366588498538017,-0.7956538200378418,3.2506046295166016,0.0
1659366588546835184,-0.7956538200378418,3.2506046295166016,0.0
1659366588590766668,-0.7956538200378418,3.2506046295166016,0.0
1659366588634276151,-0.7956538200378418,3.2506046295166016,0.0
1659366588678647994,-0.7956538200378418,3.2506046295166016,0.0
1659366588678721189,-0.7956288456916809,3.2506089210510254,0.0
1659366588726496458,-0.7956288456916809,3.2506089210510254,0.0
1659366588767815828,-0.7956288456916809,3.2506089210510254,0.0
1659366588818393707,-0.7956538200378418,3.2506046295166016,0.0
1659366588862281560,-0.7956538200378418,3.2506046295166016,0.0
1659366588910230636,-0.7951797842979431,3.250685691833496,0.0
1659366588955542325,-0.7910136580467224,3.2513997554779053,0.0
1659366589001759767,-0.7874716520309448,3.252009630203247,0.0
1659366589050238370,-0.7802876234054565,3.2532451152801514,0.0
1659366589094739437,-0.7749243378639221,3.2541663646698,0.0
1659366589140035152,-0.766371488571167,3.2556560039520264,0.0
1659366589186298131,-0.761161208152771,3.25657057762146,0.0
1659366589230537414,-0.753530740737915,3.2578980922698975,0.0
1659366589276473522,-0.7483937740325928,3.258791208267212,0.0
1659366589318300485,-0.7404879927635193,3.260160446166992,0.0
1659366589367993354,-0.7356014847755432,3.261016368865967,0.0
1659366589368232727,-0.7282842993736267,3.2623701095581055,0.0
1659366589411490201,-0.7241838574409485,3.263162136077881,0.0
1659366589470204353,-0.7197384238243103,3.2640366554260254,0.0
1659366589514243364,-0.7133620977401733,3.2653231620788574,0.0
1659366589558495044,-0.7090742588043213,3.2662110328674316,0.0
1659366589602097749,-0.7025375366210938,3.267596960067749,0.0
1659366589673312187,-0.6988023519515991,3.268406629562378,0.0
1659366589673373699,-0.6946754455566406,3.269320487976074,0.0
1659366589739542245,-0.6941816806793213,3.2694320678710938,0.0
1659366589744367837,-0.696474015712738,3.268897294998169,0.0
1659366589792663097,-0.6988599896430969,3.2683186531066895,0.0
1659366589849124431,-0.7017829418182373,3.267591714859009,0.0
1659366589894402503,-0.7063888907432556,3.2663967609405518,0.0
1659366589938141107,-0.7097588777542114,3.2654783725738525,0.0
1659366589982170820,-0.7113386988639832,3.265019178390503,0.0
1659366590026884078,-0.7105166912078857,3.2652740478515625,0.0
1659366590074090480,-0.7060257792472839,3.26676869392395,0.0
1659366590118364095,-0.7029504776000977,3.2678656578063965,0.0
1659366590164111852,-0.6968360543251038,3.270158290863037,0.0
1659366590214668750,-0.6928489804267883,3.271707534790039,0.0
1659366590258430242,-0.6853489875793457,3.2747654914855957,0.0
1659366590302421569,-0.6816315650939941,3.276371955871582,0.0
1659366590350189208,-0.6792989373207092,3.2774178981781006,0.0
1659366590394345521,-0.6800807118415833,3.2770581245422363,0.0
1659366590438487052,-0.6834850907325745,3.275435447692871,0.0
1659366590482741355,-0.6860751509666443,3.2741637229919434,0.0
1659366590526035785,-0.6908886432647705,3.271735668182373,0.0
1659366590570431709,-0.6941118240356445,3.270034074783325,0.0
1659366590614257335,-0.699918806552887,3.266779661178589,0.0
1659366590662417411,-0.7032642364501953,3.2647793292999268,0.0
1659366590706477642,-0.7083516120910645,3.2615535259246826,0.0
1659366590750209808,-0.7115926742553711,3.2593882083892822,0.0
1659366590794216156,-0.7183216214179993,3.2545690536499023,0.0
1659366590839046478,-0.7215183973312378,3.252124309539795,0.0
1659366590886118173,-0.7274392247200012,3.2473299503326416,0.0
1659366590930717229,-0.7306455969810486,3.2445757389068604,0.0
1659366590978197097,-0.7357366681098938,3.239941358566284,0.0
1659366591022597312,-0.7390475869178772,3.236738443374634,0.0
1659366591066341876,-0.7440071105957031,3.231640577316284,0.0
1659366591111542940,-0.7469442486763,3.2284271717071533,0.0
1659366591111663579,-0.751358687877655,3.2233102321624756,0.0
1659366591155865669,-0.7543940544128418,3.2196128368377686,0.0
1659366591184365272,-0.7592558860778809,3.2134220600128174,0.0
1659366591234636068,-0.7625104188919067,3.209092378616333,0.0
1659366591286137342,-0.7685409188270569,3.2006781101226807,0.0
1659366591337066888,-0.7715997695922852,3.1962080001831055,0.0
1659366591382578372,-0.7765047550201416,3.188800811767578,0.0
1659366591426249027,-0.7794547080993652,3.1841979026794434,0.0
1659366591470751285,-0.7826777696609497,3.179018974304199,0.0
1659366591518241882,-0.7868554592132568,3.1720800399780273,0.0
1659366591562538146,-0.7895658612251282,3.1674489974975586,0.0
1659366591606611490,-0.7937011122703552,3.1600465774536133,0.0
1659366591650760173,-0.7958064675331116,3.1560635566711426,0.0
1659366591700099229,-0.7995201349258423,3.1485254764556885,0.0
1659366591746391534,-0.8012076020240784,3.1448161602020264,0.0
1659366591790680170,-0.8036501407623291,3.138869285583496,0.0
1659366591839701175,-0.8050458431243896,3.1350138187408447,0.0
1659366591886788845,-0.8076839447021484,3.1265039443969727,0.0
1659366591930705308,-0.8089256882667542,3.1218578815460205,0.0
1659366591930876255,-0.8107120394706726,3.1144516468048096,0.0
1659366591978322029,-0.8118106722831726,3.1094064712524414,0.0
1659366592037165164,-0.8142271041870117,3.0967776775360107,0.0
1659366592085614919,-0.8152033090591431,3.0908076763153076,0.0
1659366592142501115,-0.8161236643791199,3.0846495628356934,0.0
1659366592186465024,-0.8173174262046814,3.0756418704986572,0.0
1659366592230124473,-0.8180095553398132,3.069530487060547,0.0
1659366592274840831,-0.8189896941184998,3.059530019760132,0.0
1659366592321492910,-0.8194928169250488,3.053781270980835,0.0
1659366592370548486,-0.82026207447052,3.0439400672912598,0.0
1659366592420738458,-0.8206560611724854,3.0381572246551514,0.0
1659366592467941045,-0.8210095167160034,3.0320422649383545,0.0
1659366592468079090,-0.8213472962379456,3.0241525173187256,0.0
1659366592523190975,-0.8215228319168091,3.0183589458465576,0.0
1659366592540882349,-0.8216879367828369,3.007577896118164,0.0
1659366592590878009,-0.8216872215270996,3.0017058849334717,0.0
1659366592643030881,-0.8215402364730835,2.9902915954589844,0.0
1659366592696285963,-0.821367621421814,2.9841182231903076,0.0
1659366592742578506,-0.8209900259971619,2.975698232650757,0.0
1659366592786299943,-0.820638120174408,2.9699127674102783,0.0
1659366592832706451,-0.8196548819541931,2.9570417404174805,0.0
1659366592879426479,-0.8190990686416626,2.9510180950164795,0.0
1659366592922173023,-0.8182463645935059,2.9430909156799316,0.0
1659366592966403007,-0.817555844783783,2.9374380111694336,0.0
1659366593010431766,-0.8160778880119324,2.9264509677886963,0.0
1659366593055291652,-0.815264880657196,2.92084002494812,0.0
1659366593098288536,-0.8138915300369263,2.912062644958496,0.0
1659366593147703409,-0.8129311800003052,2.906449317932129,0.0
1659366593194407463,-0.8114439249038696,2.898667812347412,0.0
1659366593247084617,-0.8103189468383789,2.893343448638916,0.0
1659366593290319919,-0.8081019520759583,2.88356876373291,0.0
1659366593334281921,-0.8068217635154724,2.878253698348999,0.0
1659366593378064870,-0.8044318556785583,2.869041919708252,0.0
1659366593422347784,-0.8028485178947449,2.863361120223999,0.0
1659366593470143079,-0.7998820543289185,2.853337526321411,0.0
1659366593514778137,-0.7981197237968445,2.8477096557617188,0.0
1659366593514862537,-0.7952952980995178,2.8391530513763428,0.0
1659366593564028739,-0.7934423089027405,2.8337948322296143,0.0
1659366593614493846,-0.7897834777832031,2.8237061500549316,0.0
1659366593665804624,-0.7877393960952759,2.8183364868164062,0.0
1659366593710203647,-0.7843677401542664,2.8098714351654053,0.0
1659366593758356571,-0.7821968197822571,2.804661273956299,0.0
1659366593801993846,-0.7777940034866333,2.7946250438690186,0.0
1659366593855032682,-0.7754078507423401,2.789454221725464,0.0
1659366593898343086,-0.7713907957077026,2.781134843826294,0.0
1659366593942636966,-0.7689281702041626,2.7762537002563477,0.0
1659366593990159034,-0.7648056149482727,2.76835560798645,0.0
1659366594034490823,-0.7622113823890686,2.763543128967285,0.0
1659366594078202724,-0.756951630115509,2.754246711730957,0.0
1659366594126923561,-0.7541914582252502,2.7496156692504883,0.0
1659366594170687675,-0.7497690320014954,2.742500066757202,0.0
1659366594214782476,-0.7467116713523865,2.737755537033081,0.0
1659366594214918375,-0.7416821718215942,2.7301878929138184,0.0
1659366594259853124,-0.7383922934532166,2.7253851890563965,0.0
1659366594313981294,-0.7310397028923035,2.7150228023529053,0.0
1659366594366351366,-0.7276567816734314,2.7104101181030273,0.0
1659366594414654254,-0.7221642732620239,2.703108072280884,0.0
1659366594458354949,-0.7184940576553345,2.698331356048584,0.0
1659366594502346277,-0.7133312821388245,2.691765546798706,0.0
1659366594546870708,-0.7095418572425842,2.6870827674865723,0.0
1659366594590474128,-0.7035390734672546,2.6798617839813232,0.0
1659366594634563446,-0.6997969150543213,2.675468683242798,0.0
1659366594678271293,-0.6923225522041321,2.666975259780884,0.0
1659366594722051858,-0.6883717179298401,2.662631034851074,0.0
1659366594766523122,-0.6821457147598267,2.655977964401245,0.0
1659366594810178518,-0.6779977679252625,2.651679754257202,0.0
1659366594858496427,-0.6717239022254944,2.6453540325164795,0.0
1659366594902655601,-0.6677337884902954,2.6414337158203125,0.0
1659366594902806043,-0.6615739464759827,2.6355702877044678,0.0
1659366594951747417,-0.6580158472061157,2.6322975158691406,0.0
1659366595004542112,-0.6517131924629211,2.626739740371704,0.0
1659366595054492235,-0.6481711268424988,2.6237552165985107,0.0
1659366595098300457,-0.6423622369766235,2.6190638542175293,0.0
1659366595142090559,-0.6382992267608643,2.6159186363220215,0.0
1659366595187023878,-0.6312302947044373,2.610621452331543,0.0
1659366595234285831,-0.6264012455940247,2.6071057319641113,0.0
1659366595282522439,-0.621302604675293,2.603487968444824,0.0
1659366595326386690,-0.6139798760414124,2.5984578132629395,0.0
1659366595374794960,-0.6091027855873108,2.5951874256134033,0.0
1659366595374916315,-0.5999948978424072,2.5892293453216553,0.0
1659366595435315370,-0.5945895314216614,2.5857958793640137,0.0
1659366595479434490,-0.5891770124435425,2.58242130279541,0.0
1659366595522423505,-0.581832766532898,2.5779359340667725,0.0
1659366595570617437,-0.5767029523849487,2.574875593185425,0.0
1659366595618352890,-0.5679847598075867,2.5698792934417725,0.0
1659366595666347742,-0.5630370378494263,2.5671629905700684,0.0
1659366595714366197,-0.551298201084137,2.561044931411743,0.0
1659366595758217573,-0.5463172197341919,2.558612823486328,0.0
1659366595804019689,-0.536176860332489,2.553947687149048,0.0
1659366595854456901,-0.5312345027923584,2.5517940521240234,0.0
1659366595903575658,-0.520667552947998,2.547476053237915,0.0
1659366595951802968,-0.5161283612251282,2.5457406044006348,0.0
1659366596007854223,-0.5115914344787598,2.5440711975097656,0.0
1659366596054526090,-0.5053091049194336,2.5418701171875,0.0
1659366596098131179,-0.5010085701942444,2.5404446125030518,0.0
1659366596142283201,-0.4967581033706665,2.539111375808716,0.0
1659366596186311006,-0.49508562684059143,2.5386085510253906,0.0
1659366596230508327,-0.4939933717250824,2.538285732269287,0.0
1659366596274178028,-0.49367764592170715,2.5381929874420166,0.0
1659366596318284988,-0.49350762367248535,2.5381431579589844,0.0
1659366596362274646,-0.49350762367248535,2.5381431579589844,0.0
1659366596407912254,-0.49350762367248535,2.5381431579589844,0.0
1659366596458312034,-0.49350762367248535,2.5381431579589844,0.0
1659366596527295827,-0.49350762367248535,2.5381431579589844,0.0
1659366596574449062,-0.49350762367248535,2.5381431579589844,0.0
1659366596624133110,-0.49350762367248535,2.5381431579589844,0.0
1659366596670205116,-0.49350762367248535,2.5381431579589844,0.0
1659366596714257240,-0.49350762367248535,2.5381431579589844,0.0
1659366596763316392,-0.49350762367248535,2.5381431579589844,0.0
1659366596807551860,-0.49350762367248535,2.5381431579589844,0.0
1659366596853848218,-0.49350762367248535,2.5381431579589844,0.0
1659366596906229496,-0.49350762367248535,2.5381431579589844,0.0
1659366596950470924,-0.4944790005683899,2.538428544998169,0.0
1659366596994872331,-0.4969545900821686,2.539160966873169,0.0
1659366597038913249,-0.504762589931488,2.541497230529785,0.0
1659366597082797527,-0.5098010897636414,2.5430235862731934,0.0
1659366597132380962,-0.5200608968734741,2.546171188354492,0.0
1659366597178796768,-0.52607661485672,2.5480504035949707,0.0
1659366597226465463,-0.5352928042411804,2.550973653793335,0.0
1659366597270264863,-0.5411447882652283,2.5528664588928223,0.0
1659366597314546346,-0.5503921508789062,2.5561723709106445,0.0
1659366597358328580,-0.5560747385025024,2.558389902114868,0.0
1659366597402527093,-0.5694481730461121,2.563734292984009,0.0
1659366597446484804,-0.5751451849937439,2.566052198410034,0.0
1659366597496683597,-0.5811687111854553,2.568639039993286,0.0
1659366597542266845,-0.5888448357582092,2.5723583698272705,0.0
1659366597586739301,-0.5944244861602783,2.575288772583008,0.0
1659366597634266853,-0.6043124198913574,2.580575704574585,0.0
1659366597678452491,-0.6095082759857178,2.583418369293213,0.0
1659366597726254940,-0.620456337928772,2.589562177658081,0.0
1659366597770349979,-0.6257193684577942,2.5925443172454834,0.0
1659366597814583778,-0.6341167688369751,2.5973875522613525,0.0
1659366597864840745,-0.6392470002174377,2.6003975868225098,0.0
1659366597864999055,-0.6478421688079834,2.605454444885254,0.0
1659366597910324573,-0.6526114344596863,2.608229160308838,0.0
1659366597943129539,-0.6612124443054199,2.6130731105804443,0.0
1659366597994581937,-0.6664619445800781,2.615975856781006,0.0
1659366598048776865,-0.6758461594581604,2.621234178543091,0.0
1659366598095367193,-0.6812348961830139,2.624302625656128,0.0
1659366598137794733,-0.6898456811904907,2.6292824745178223,0.0
1659366598185940504,-0.6952114105224609,2.6324410438537598,0.0
1659366598229847192,-0.7064968347549438,2.6391146183013916,0.0
1659366598274443864,-0.7119021415710449,2.642305850982666,0.0
1659366598317823171,-0.720824122428894,2.6476056575775146,0.0
1659366598363050937,-0.726367712020874,2.6509602069854736,0.0
1659366598409621000,-0.7358326315879822,2.6569244861602783,0.0
1659366598453645706,-0.7412348389625549,2.6605021953582764,0.0
1659366598500002622,-0.7467826008796692,2.6643166542053223,0.0
1659366598545778036,-0.7535655498504639,2.6690592765808105,0.0
1659366598589702367,-0.758602499961853,2.67258882522583,0.0
1659366598637822151,-0.7667539715766907,2.6783335208892822,0.0
1659366598682135343,-0.7716963887214661,2.6818652153015137,0.0
1659366598730283260,-0.7804842591285706,2.688371419906616,0.0
1659366598774647712,-0.7851390242576599,2.6919925212860107,0.0
1659366598774806022,-0.7925782203674316,2.6980488300323486,0.0
1659366598818199396,-0.7969827651977539,2.701738119125366,0.0
1659366598871710300,-0.805473268032074,2.708983898162842,0.0
1659366598918864488,-0.8104276061058044,2.7132768630981445,0.0
1659366598961953878,-0.8170146942138672,2.719047784805298,0.0
1659366599005785703,-0.8212869763374329,2.722851514816284,0.0
1659366599049996614,-0.8294302225112915,2.73026180267334,0.0
1659366599094929933,-0.8340842723846436,2.734586238861084,0.0
1659366599141964197,-0.8427861928939819,2.742845296859741,0.0
1659366599193876504,-0.8475499749183655,2.7474584579467773,0.0
1659366599238589525,-0.8538838028907776,2.7536518573760986,0.0
1659366599282918930,-0.8584054708480835,2.7580056190490723,0.0
1659366599326209068,-0.8654961585998535,2.764763593673706,0.0
1659366599370179891,-0.8698622584342957,2.768986940383911,0.0
1659366599414485931,-0.8764472603797913,2.7754666805267334,0.0
1659366599458148956,-0.8808589577674866,2.7798962593078613,0.0
1659366599502401113,-0.8905913829803467,2.7898497581481934,0.0
1659366599550405740,-0.8948992490768433,2.7943103313446045,0.0
1659366599601071834,-0.8994608521461487,2.79905366897583,0.0
1659366599646144866,-0.904736340045929,2.8045852184295654,0.0
1659366599692506790,-0.9091783165931702,2.809302568435669,0.0
1659366599741997003,-0.9163927435874939,2.817178964614868,0.0
1659366599785738229,-0.9207109212875366,2.8221447467803955,0.0
1659366599829906463,-0.9281251430511475,2.8311216831207275,0.0
1659366599878473043,-0.9321085810661316,2.8361032009124756,0.0
1659366599878596305,-0.9374662041664124,2.8430306911468506,0.0
1659366599926779508,-0.941368043422699,2.8481719493865967,0.0
1659366599953051805,-0.946094810962677,2.854466438293457,0.0
1659366600003266334,-0.9497247934341431,2.859431505203247,0.0
1659366600051118850,-0.9549489617347717,2.8667421340942383,0.0
1659366600093666791,-0.9586087465286255,2.8719658851623535,0.0
1659366600141042947,-0.9660778045654297,2.8822760581970215,0.0
1659366600190362215,-0.9695378541946411,2.8868629932403564,0.0
1659366600247133016,-0.9730935096740723,2.8916311264038086,0.0
1659366600294325351,-0.9775407910346985,2.8976917266845703,0.0
1659366600343032121,-0.9806326031684875,2.9019527435302734,0.0
1659366600401555776,-0.9858719110488892,2.9092836380004883,0.0
1659366600449590682,-0.9884529113769531,2.912914514541626,0.0
1659366600449665784,-0.9930383563041687,2.9193127155303955,0.0
1659366600524660825,-0.9957842826843262,2.9231367111206055,0.0
1659366600524886846,-1.0002564191818237,2.9293668270111084,0.0
1659366600570591449,-1.003180980682373,2.9334986209869385,0.0
1659366600616206169,-1.008110523223877,2.940675735473633,0.0
1659366600757200241,-1.0109025239944458,2.9448373317718506,0.0
1659366600757327795,-1.014812707901001,2.950899124145508,0.0
1659366600801216602,-1.017491340637207,2.9551944732666016,0.0
1659366600891400337,-1.0208330154418945,2.960508108139038,0.0
1659366600891906976,-1.0229160785675049,2.963772773742676,0.0
1659366600894450426,-1.0253146886825562,2.967496395111084,0.0
1659366600905598640,-1.0283281803131104,2.972118616104126,0.0
1659366600954885721,-1.0305676460266113,2.975522994995117,0.0
1659366601006526947,-1.0345476865768433,2.981569528579712,0.0
1659366601056669235,-1.0366984605789185,2.9848506450653076,0.0
1659366601102344274,-1.0397120714187622,2.9894425868988037,0.0
1659366601146382808,-1.0407603979110718,2.99102520942688,0.0
1659366601219681262,-1.0419635772705078,2.9928390979766846,0.0
1659366601269186258,-1.0422844886779785,2.9933247566223145,0.0
1659366601269281387,-1.042494773864746,2.993640899658203,0.0
1659366601319721698,-1.0425652265548706,2.993746042251587,0.0
1659366601346292972,-1.0426074266433716,2.993809223175049,0.0
1659366601397665023,-1.0426074266433716,2.993809223175049,0.0
1659366601449631214,-1.0426214933395386,2.9938302040100098,0.0
1659366601509420633,-1.0426214933395386,2.9938302040100098,0.0
1659366601558396339,-1.0426214933395386,2.9938302040100098,0.0
1659366601608039379,-1.0426214933395386,2.9938302040100098,0.0
1659366601658469915,-1.0426214933395386,2.9938302040100098,0.0
1659366601706438064,-1.0426214933395386,2.9938302040100098,0.0
1659366601755275487,-1.0426214933395386,2.9938302040100098,0.0
1659366601802272081,-1.0426214933395386,2.9938302040100098,0.0
1659366601849423885,-1.0426214933395386,2.9938302040100098,0.0
1659366601898993730,-1.0424946546554565,2.993640899658203,0.0
1659366601974230289,-1.0414531230926514,2.992084264755249,0.0
1659366602018919706,-1.0392584800720215,2.988801956176758,0.0
1659366602063140869,-1.0370614528656006,2.985521078109741,0.0
1659366602063287973,-1.0324854850769043,2.9786548614501953,0.0
1659366602106525182,-1.0297013521194458,2.9744269847869873,0.0
1659366602161998271,-1.0265511274337769,2.9695615768432617,0.0
1659366602206295490,-1.0227611064910889,2.9635732173919678,0.0
1659366602252532482,-1.0200034379959106,2.959118366241455,0.0
1659366602298459529,-1.0159343481063843,2.9523799419403076,0.0
1659366602342103004,-1.0135855674743652,2.948387861251831,0.0
1659366602387676954,-1.009724736213684,2.9416444301605225,0.0
1659366602431607723,-1.00734543800354,2.9373490810394287,0.0
1659366602431723117,-1.0041788816452026,2.9313788414001465,0.0
1659366602477030515,-1.002088189125061,2.927245616912842,0.0
1659366602530777692,-0.9978119730949402,2.918236494064331,0.0
1659366602580836296,-0.9957758188247681,2.9136571884155273,0.0
1659366602637659549,-0.9936649203300476,2.908696413040161,0.0
1659366602682606935,-0.9909363985061646,2.9018824100494385,0.0
1659366602726540803,-0.9890043139457703,2.896713972091675,0.0
1659366602770093679,-0.9864147901535034,2.8892805576324463,0.0
1659366602818325519,-0.9847937822341919,2.8842716217041016,0.0
1659366602866093158,-0.9825392961502075,2.876756191253662,0.0
1659366602910951375,-0.9811339974403381,2.8716564178466797,0.0
1659366602954980373,-0.979810357093811,2.8664562702178955,0.0
1659366602955073833,-0.9781236052513123,2.8593385219573975,0.0
1659366603009620428,-0.9769014120101929,2.853854179382324,0.0
1659366603027028799,-0.975062370300293,2.8448781967163086,0.0
1659366603078504562,-0.9739679098129272,2.83903169631958,0.0
1659366603127974033,-0.9722115993499756,2.8287012577056885,0.0
1659366603178702354,-0.9713072776794434,2.822822332382202,0.0
1659366603222857236,-0.9701218605041504,2.8144264221191406,0.0
1659366603285388946,-0.9693362712860107,2.808351755142212,0.0
1659366603330416440,-0.9683588147163391,2.800107479095459,0.0
1659366603380563497,-0.9676934480667114,2.793891191482544,0.0
1659366603426636695,-0.9664511680603027,2.7803308963775635,0.0
1659366603476687192,-0.965968132019043,2.7740471363067627,0.0
1659366603526109457,-0.9655398726463318,2.7677340507507324,0.0
1659366603570409059,-0.9649658203125,2.758310556411743,0.0
1659366603616361618,-0.9646286964416504,2.7523975372314453,0.0
1659366603616798639,-0.9641271829605103,2.7420830726623535,0.0
1659366603658410072,-0.9638946652412415,2.7357850074768066,0.0
1659366603714778423,-0.9637134075164795,2.7294092178344727,0.0
1659366603758736848,-0.96356201171875,2.7210581302642822,0.0
1659366603802306652,-0.9635133743286133,2.714705228805542,0.0
1659366603846386432,-0.9635592103004456,2.7058212757110596,0.0
1659366603891159772,-0.9636632204055786,2.6999247074127197,0.0
1659366603938221931,-0.96394282579422,2.688918113708496,0.0
1659366603982348203,-0.9641532301902771,2.682695150375366,0.0
1659366604026452064,-0.964594304561615,2.673264503479004,0.0
1659366604070473432,-0.9649713635444641,2.6671254634857178,0.0
1659366604114673137,-0.9659845232963562,2.653292179107666,0.0
1659366604158799648,-0.966479480266571,2.647212505340576,0.0
1659366604205349922,-0.9670271873474121,2.6409847736358643,0.0
1659366604250563144,-0.9678058624267578,2.6329736709594727,0.0
1659366604299013614,-0.9684104919433594,2.627183675765991,0.0
1659366604346265554,-0.9695519208908081,2.6169965267181396,0.0
1659366604390272617,-0.970244288444519,2.6113693714141846,0.0
1659366604438497543,-0.9717741012573242,2.6003127098083496,0.0
1659366604483828544,-0.972612738609314,2.5947823524475098,0.0
1659366604526778459,-0.9742863178253174,2.584566354751587,0.0
1659366604570333003,-0.9752980470657349,2.5788590908050537,0.0
1659366604614314079,-0.9770245552062988,2.5698606967926025,0.0
1659366604662289857,-0.9782357811927795,2.564011573791504,0.0
1659366604709326028,-0.9805269837379456,2.5534496307373047,0.0
1659366604758517742,-0.981842041015625,2.5475709438323975,0.0
1659366604758657932,-0.9837738871574402,2.539159059524536,0.0
1659366604802093744,-0.9851464033126831,2.5333454608917236,0.0
1659366604834210395,-0.9877917766571045,2.522657871246338,0.0
1659366604885381221,-0.9893380403518677,2.516678810119629,0.0
1659366604934485912,-0.9920881390571594,2.5062267780303955,0.0
1659366604982365369,-0.9936537146568298,2.500331163406372,0.0
1659366605026248931,-0.9966564178466797,2.489370584487915,0.0
1659366605071215629,-0.9983288645744324,2.4835045337677,0.0
1659366605118831872,-1.000948190689087,2.474592447280884,0.0
1659366605162438392,-1.0026752948760986,2.468874216079712,0.0
1659366605235000848,-1.0056099891662598,2.4594228267669678,0.0
1659366605235154867,-1.0075747966766357,2.453301429748535,0.0
1659366605287037134,-1.0118942260742188,2.440387487411499,0.0
1659366605335364580,-1.0138611793518066,2.434720516204834,0.0
1659366605393745660,-1.0160553455352783,2.4285430908203125,0.0
1659366605438917160,-1.0190420150756836,2.420391321182251,0.0
1659366605497965574,-1.0211701393127441,2.4147558212280273,0.0
1659366605542215347,-1.0250835418701172,2.404681444168091,0.0
1659366605542321205,-1.0271984338760376,2.399366617202759,0.0
1659366605597043037,-1.0294910669326782,2.393768548965454,0.0
1659366605613965272,-1.0323915481567383,2.387025833129883,0.0
1659366605663893222,-1.0345118045806885,2.3823177814483643,0.0
1659366605705766677,-1.038516640663147,2.37382435798645,0.0
1659366605751021862,-1.0411936044692993,2.3683996200561523,0.0
1659366605802722454,-1.0470539331436157,2.3569834232330322,0.0
1659366605853524208,-1.0499218702316284,2.3515710830688477,0.0
1659366605905889272,-1.0540765523910522,2.3438618183135986,0.0
1659366605950050354,-1.056957483291626,2.338571310043335,0.0
1659366605993892669,-1.061354398727417,2.3306772708892822,0.0
1659366606040886163,-1.0645029544830322,2.325188636779785,0.0
1659366606089846611,-1.0676937103271484,2.3197243213653564,0.0
1659366606089950323,-1.072332739830017,2.3119702339172363,0.0
1659366606147404193,-1.0756545066833496,2.3065547943115234,0.0
1659366606171437025,-1.0813112258911133,2.297584295272827,0.0
1659366606226184606,-1.0848479270935059,2.2921249866485596,0.0
1659366606270163536,-1.090040683746338,2.284240484237671,0.0
1659366606319767713,-1.093684196472168,2.2787907123565674,0.0
1659366606362713575,-1.1009496450424194,2.2681210041046143,0.0
1659366606407660722,-1.1048898696899414,2.26241397857666,0.0
1659366606458584547,-1.1116942167282104,2.2526252269744873,0.0
1659366606509516477,-1.1156909465789795,2.2469265460968018,0.0
1659366606554690122,-1.1211673021316528,2.2392053604125977,0.0
1659366606598343372,-1.1252961158752441,2.233445405960083,0.0
1659366606644998311,-1.1295063495635986,2.2275569438934326,0.0
1659366606691552400,-1.1354492902755737,2.2192046642303467,0.0
1659366606734064579,-1.1393625736236572,2.213726043701172,0.0
1659366606778356552,-1.1463038921356201,2.204127550125122,0.0
1659366606822194576,-1.1503950357437134,2.1985275745391846,0.0
1659366606866266250,-1.1577750444412231,2.1884658336639404,0.0
1659366606914067745,-1.1619240045547485,2.1828455924987793,0.0
1659366606961889743,-1.1678906679153442,2.1747920513153076,0.0
1659366607007241964,-1.1722066402435303,2.168980598449707,0.0
1659366607007317543,-1.1781057119369507,2.1609714031219482,0.0
1659366607056056737,-1.1822717189788818,2.155238151550293,0.0
1659366607110032558,-1.1907718181610107,2.143643617630005,0.0
1659366607159965038,-1.1947661638259888,2.138286828994751,0.0
1659366607215777873,-1.1988402605056763,2.1328632831573486,0.0
1659366607257703065,-1.2043921947479248,2.125542640686035,0.0
1659366607306200504,-1.208505630493164,2.12018084526062,0.0
1659366607349848747,-1.2153462171554565,2.111360549926758,0.0
1659366607393670558,-1.2194621562957764,2.1060967445373535,0.0
1659366607437879800,-1.2283908128738403,2.0948612689971924,0.0
1659366607483540296,-1.232569694519043,2.089712381362915,0.0
1659366607535218000,-1.2369414567947388,2.0843613147735596,0.0
1659366607577808618,-1.243098497390747,2.076873779296875,0.0
1659366607625602960,-1.247199296951294,2.071922540664673,0.0
1659366607673813343,-1.2544654607772827,2.0632174015045166,0.0
1659366607717834949,-1.2587388753890991,2.0581467151641846,0.0
1659366607761840581,-1.2632743120193481,2.052800178527832,0.0
1659366607809877157,-1.269474744796753,2.0455472469329834,0.0
1659366607855293512,-1.2738120555877686,2.0404975414276123,0.0
1659366607855388879,-1.2817394733428955,2.0312578678131104,0.0
1659366607899695873,-1.286318302154541,2.0259151458740234,0.0
1659366607956425428,-1.2909774780273438,2.020474672317505,0.0
1659366608002148866,-1.2981292009353638,2.0120701789855957,0.0
1659366608046757936,-1.3027125597000122,2.006664752960205,0.0
1659366608094667673,-1.310027837753296,1.9981003999710083,0.0
1659366608138414144,-1.3147321939468384,1.9926319122314453,0.0
1659366608182422161,-1.3193751573562622,1.9872441291809082,0.0
1659366608230425596,-1.3263245820999146,1.9792331457138062,0.0
1659366608278698444,-1.3307826519012451,1.9741204977035522,0.0
1659366608278809309,-1.3381322622299194,1.965652585029602,0.0
1659366608326403379,-1.3424341678619385,1.9606726169586182,0.0
1659366608376597166,-1.3471492528915405,1.9552134275436401,0.0
1659366608423052549,-1.3523916006088257,1.9491393566131592,0.0
1659366608466532707,-1.3567848205566406,1.9440375566482544,0.0
1659366608523710727,-1.3640410900115967,1.93558931350708,0.0
1659366608524156570,-1.3685356378555298,1.9303410053253174,0.0
1659366608574611186,-1.3782083988189697,1.9188973903656006,0.0
1659366608622603893,-1.382856011390686,1.9133145809173584,0.0
1659366608679044246,-1.387309193611145,1.907932162284851,0.0
1659366608722389698,-1.3937854766845703,1.9000189304351807,0.0
1659366608770414113,-1.3979277610778809,1.8949053287506104,0.0
1659366608814333200,-1.4061447381973267,1.8847538232803345,0.0
1659366608863748788,-1.4102610349655151,1.8796844482421875,0.0
1659366608910436630,-1.4171236753463745,1.8712046146392822,0.0
1659366608954630374,-1.4214400053024292,1.8658088445663452,0.0
1659366608998133182,-1.428277611732483,1.8572115898132324,0.0
1659366609042357206,-1.4325021505355835,1.8519043922424316,0.0
1659366609086150646,-1.440744161605835,1.841545820236206,0.0
1659366609134474754,-1.4448864459991455,1.836302638053894,0.0
1659366609178202390,-1.4514693021774292,1.8278911113739014,0.0
1659366609226461410,-1.4557608366012573,1.8223789930343628,0.0
1659366609270960092,-1.4624533653259277,1.8137962818145752,0.0
1659366609318727970,-1.466673493385315,1.808421015739441,0.0
1659366609362206697,-1.4744137525558472,1.7984728813171387,0.0
1659366609406253814,-1.4786243438720703,1.7929941415786743,0.0
1659366609454297304,-1.4848006963729858,1.784972071647644,0.0
1659366609501005649,-1.488810658454895,1.7797861099243164,0.0
1659366609546220779,-1.4958007335662842,1.7707935571670532,0.0
1659366609590966939,-1.5001190900802612,1.7652381658554077,0.0
1659366609634207487,-1.5080983638763428,1.7549628019332886,0.0
1659366609678155660,-1.5123801231384277,1.749475121498108,0.0
1659366609726541280,-1.518479585647583,1.7417460680007935,0.0
1659366609774749279,-1.5228147506713867,1.7363004684448242,0.0
1659366609822210550,-1.52945876121521,1.7279049158096313,0.0
1659366609866370916,-1.5338020324707031,1.7223689556121826,0.0
1659366609910140991,-1.5396742820739746,1.7149120569229126,0.0
1659366609954089403,-1.5440826416015625,1.7093629837036133,0.0
1659366609999145507,-1.552298665046692,1.699048399925232,0.0
1659366610044303894,-1.5566927194595337,1.6935203075408936,0.0
1659366610086301803,-1.562415599822998,1.6863001585006714,0.0
1659366610130493640,-1.566863775253296,1.6806857585906982,0.0
1659366610174240827,-1.5738797187805176,1.6718745231628418,0.0
1659366610218629360,-1.5781974792480469,1.6664798259735107,0.0
1659366610266182661,-1.586564302444458,1.655994176864624,0.0
1659366610310323238,-1.5909594297409058,1.6504669189453125,0.0
1659366610358039855,-1.5968095064163208,1.643121600151062,0.0
1659366610402306795,-1.60112464427948,1.6377248764038086,0.0
1659366610446340560,-1.6072123050689697,1.63014817237854,0.0
1659366610490720748,-1.6114081144332886,1.6249476671218872,0.0
1659366610490883350,-1.6174399852752686,1.6175212860107422,0.0
1659366610539427995,-1.6216198205947876,1.6124383211135864,0.0
