%time,field.x,field.y,field.z
1659374687140896081,1.6248492002487183,2.013157606124878,0.0
1659374687197507858,1.6248342990875244,2.013137102127075,0.0
1659374687227354526,1.6248342990875244,2.013137102127075,0.0
1659374687283268928,1.6248492002487183,2.013157606124878,0.0
1659374687306717395,1.6248342990875244,2.013137102127075,0.0
1659374687361337184,1.6248342990875244,2.013137102127075,0.0
1659374687391780614,1.6248492002487183,2.013157606124878,0.0
1659374687447919368,1.6248342990875244,2.013137102127075,0.0
1659374687489722013,1.6248492002487183,2.013157606124878,0.0
1659374687545253515,1.6248342990875244,2.013137102127075,0.0
1659374687596781492,1.6248342990875244,2.013137102127075,0.0
1659374687652950763,1.6248492002487183,2.013157606124878,0.0
1659374687670156955,1.6248342990875244,2.013137102127075,0.0
1659374687725594282,1.6248342990875244,2.013137102127075,0.0
1659374687772423744,1.6248342990875244,2.013137102127075,0.0
1659374687827285289,1.6248342990875244,2.013137102127075,0.0
1659374687874007463,1.6248342990875244,2.013137102127075,0.0
1659374687922472476,1.6248492002487183,2.013157606124878,0.0
1659374687973947048,1.6248342990875244,2.013137102127075,0.0
1659374688018883943,1.6248342990875244,2.013137102127075,0.0
1659374688066316127,1.6248342990875244,2.013137102127075,0.0
1659374688066391706,1.6248342990875244,2.013137102127075,0.0
1659374688117210626,1.6248342990875244,2.013137102127075,0.0
1659374688134607076,1.6248342990875244,2.013137102127075,0.0
1659374688190105676,1.6248342990875244,2.013137102127075,0.0
1659374688241358995,1.6248492002487183,2.013157606124878,0.0
1659374688301249027,1.6248342990875244,2.013137102127075,0.0
1659374688346327781,1.6248342990875244,2.013137102127075,0.0
1659374688390547037,1.6248342990875244,2.013137102127075,0.0
1659374688434971809,1.6248342990875244,2.013137102127075,0.0
1659374688512876749,1.6248492002487183,2.013157606124878,0.0
1659374688513066530,1.6248342990875244,2.013137102127075,0.0
1659374688568658828,1.6248342990875244,2.013137102127075,0.0
1659374688578853845,1.6248342990875244,2.013137102127075,0.0
1659374688643995046,1.6248342990875244,2.013137102127075,0.0
1659374688717180490,1.6248342990875244,2.013137102127075,0.0
1659374688762528419,1.6248342990875244,2.013137102127075,0.0
1659374688810977220,1.6248342990875244,2.013137102127075,0.0
1659374688854163885,1.6248342990875244,2.013137102127075,0.0
1659374688902914762,1.6248342990875244,2.013137102127075,0.0
1659374688946091413,1.6248342990875244,2.013137102127075,0.0
1659374688994350910,1.6248342990875244,2.013137102127075,0.0
1659374689039321184,1.6248342990875244,2.013137102127075,0.0
1659374689115673303,1.6248492002487183,2.013157606124878,0.0
1659374689115778446,1.6248342990875244,2.013137102127075,0.0
1659374689157729625,1.6248492002487183,2.013157606124878,0.0
1659374689186973333,1.6248342990875244,2.013137102127075,0.0
1659374689238427877,1.6248342990875244,2.013137102127075,0.0
1659374689294577836,1.6247297525405884,2.0129940509796143,0.0
1659374689342560291,1.6227275133132935,2.01025652885437,0.0
1659374689406774520,1.6203479766845703,2.0070109367370605,0.0
1659374689504314422,1.6157625913619995,2.000800609588623,0.0
1659374689504453420,1.6122108697891235,1.9960293769836426,0.0
1659374689519349813,1.6069122552871704,1.9889615774154663,0.0
1659374689547431468,1.6028972864151,1.9836519956588745,0.0
1659374689572484016,1.5963103771209717,1.975115418434143,0.0
1659374689648604631,1.5920331478118896,1.9697208404541016,0.0
1659374689698379039,1.5843936204910278,1.9604047536849976,0.0
1659374689746376514,1.5799601078033447,1.9551048278808594,0.0
1659374689790631532,1.573959469795227,1.947914958000183,0.0
1659374689839419364,1.5696450471878052,1.9427464008331299,0.0
1659374689839596748,1.5632842779159546,1.9351978302001953,0.0
1659374689892890691,1.5590810775756836,1.9302664995193481,0.0
1659374689939371585,1.5516636371612549,1.9215564727783203,0.0
1659374690047970533,1.547805905342102,1.9170291423797607,0.0
1659374690048088073,1.5421959161758423,1.9106038808822632,0.0
1659374690096639394,1.5379083156585693,1.9058475494384766,0.0
1659374690127365589,1.5297585725784302,1.8970087766647339,0.0
1659374690182812929,1.5252931118011475,1.8922439813613892,0.0
1659374690230801820,1.5188534259796143,1.8854097127914429,0.0
1659374690274765253,1.5141549110412598,1.8804124593734741,0.0
1659374690322487115,1.5068162679672241,1.8725820779800415,0.0
1659374690367200374,1.5021424293518066,1.8675963878631592,0.0
1659374690410092353,1.4938222169876099,1.85874342918396,0.0
1659374690454288959,1.4892454147338867,1.8539097309112549,0.0
1659374690503688097,1.4831750392913818,1.8475624322891235,0.0
1659374690550274610,1.4785516262054443,1.842773199081421,0.0
1659374690598716020,1.4705746173858643,1.8345725536346436,0.0
1659374690642204046,1.4657020568847656,1.8296020030975342,0.0
1659374690686631917,1.4571702480316162,1.8210597038269043,0.0
1659374690733854293,1.452300786972046,1.8163009881973267,0.0
1659374690779056549,1.4452738761901855,1.8095496892929077,0.0
1659374690822469949,1.440132737159729,1.8046717643737793,0.0
1659374690870406866,1.4322335720062256,1.797184705734253,0.0
1659374690918545007,1.4271795749664307,1.792362093925476,0.0
1659374690967738628,1.4177805185317993,1.7834771871566772,0.0
1659374691017738580,1.412752389907837,1.778774619102478,0.0
1659374691017843961,1.4058830738067627,1.7723352909088135,0.0
1659374691065792083,1.4007983207702637,1.7675451040267944,0.0
1659374691124685525,1.3913284540176392,1.7584776878356934,0.0
1659374691180902242,1.3862812519073486,1.7535749673843384,0.0
1659374691226130008,1.3791831731796265,1.7466425895690918,0.0
1659374691270339012,1.3741410970687866,1.7416983842849731,0.0
1659374691320576906,1.3663264513015747,1.7340506315231323,0.0
1659374691366135597,1.3613752126693726,1.7291945219039917,0.0
1659374691410198688,1.354089617729187,1.7220556735992432,0.0
1659374691454705238,1.3489259481430054,1.7170186042785645,0.0
1659374691502304077,1.3392295837402344,1.7074940204620361,0.0
1659374691550520896,1.3341435194015503,1.7024502754211426,0.0
1659374691595509290,1.3272366523742676,1.6955763101577759,0.0
1659374691643975257,1.3223451375961304,1.690767765045166,0.0
1659374691690571784,1.3151437044143677,1.6836155652999878,0.0
1659374691734201192,1.3103381395339966,1.6787567138671875,0.0
1659374691778544902,1.3025507926940918,1.670901894569397,0.0
1659374691826991558,1.297585368156433,1.665880799293518,0.0
1659374691827268838,1.290412425994873,1.6585931777954102,0.0
1659374691871437549,1.2855100631713867,1.6535810232162476,0.0
1659374691905062437,1.27815580368042,1.6461167335510254,0.0
1659374691958024740,1.2733618021011353,1.6413177251815796,0.0
1659374692005978822,1.2640407085418701,1.63198983669281,0.0
1659374692061735630,1.2591273784637451,1.6270239353179932,0.0
1659374692107248306,1.2513970136642456,1.6190423965454102,0.0
1659374692155830383,1.2467188835144043,1.6142005920410156,0.0
1659374692202405691,1.2400156259536743,1.607303261756897,0.0
1659374692250358581,1.2353218793869019,1.6024062633514404,0.0
1659374692294330835,1.228724479675293,1.5954773426055908,0.0
1659374692345448255,1.224104642868042,1.590614676475525,0.0
1659374692390655994,1.2174392938613892,1.5836106538772583,0.0
1659374692438272476,1.2125344276428223,1.5784602165222168,0.0
1659374692482467651,1.203444480895996,1.5689069032669067,0.0
1659374692526459693,1.1987853050231934,1.564011812210083,0.0
1659374692570440292,1.1910638809204102,1.5557770729064941,0.0
1659374692619353294,1.1867567300796509,1.5511070489883423,0.0
1659374692662548065,1.1804389953613281,1.5442973375320435,0.0
1659374692711776256,1.1761062145233154,1.5397205352783203,0.0
1659374692711887836,1.169175624847412,1.532655954360962,0.0
1659374692761316299,1.164611577987671,1.528164267539978,0.0
1659374692811079740,1.1556472778320312,1.5195205211639404,0.0
1659374692867585420,1.1511873006820679,1.5153591632843018,0.0
1659374692914640665,1.145560622215271,1.510450839996338,0.0
1659374692962383985,1.141589641571045,1.5071903467178345,0.0
1659374693010169029,1.1356405019760132,1.5024718046188354,0.0
1659374693054348468,1.1319167613983154,1.49959135055542,0.0
1659374693098524332,1.1249415874481201,1.494171380996704,0.0
1659374693146715641,1.121206521987915,1.4912642240524292,0.0
1659374693190090894,1.1154316663742065,1.4868992567062378,0.0
1659374693238706350,1.1112679243087769,1.483845829963684,0.0
1659374693282654762,1.104145884513855,1.4787063598632812,0.0
1659374693326860427,1.0992249250411987,1.4751018285751343,0.0
1659374693370904207,1.0905101299285889,1.4687527418136597,0.0
1659374693419298648,1.0859286785125732,1.465543508529663,0.0
1659374693462434053,1.0795629024505615,1.4612665176391602,0.0
1659374693510843992,1.074592113494873,1.4580930471420288,0.0
1659374693554134130,1.066400408744812,1.4531502723693848,0.0
1659374693599430322,1.061008095741272,1.4500372409820557,0.0
1659374693644017457,1.0508579015731812,1.4443854093551636,0.0
1659374693690756797,1.0454597473144531,1.441490888595581,0.0
1659374693738386869,1.03699791431427,1.4371358156204224,0.0
1659374693786450624,1.0326508283615112,1.4350206851959229,0.0
1659374693830760478,1.0262677669525146,1.4321203231811523,0.0
1659374693874385833,1.0214674472808838,1.4300850629806519,0.0
1659374693918738365,1.0131291151046753,1.4267374277114868,0.0
1659374693968072175,1.0080006122589111,1.4247714281082153,0.0
1659374694014357328,1.001404881477356,1.422394037246704,0.0
1659374694058690786,0.9966316819190979,1.420785903930664,0.0
1659374694110433578,0.9894492030143738,1.4184831380844116,0.0
1659374694155098438,0.9854972958564758,1.4172985553741455,0.0
1659374694202649593,0.9784038066864014,1.4154119491577148,0.0
1659374694250128269,0.9741407632827759,1.414412021636963,0.0
1659374694298348188,0.9698891639709473,1.413475751876831,0.0
1659374694344628334,0.9694433212280273,1.4133820533752441,0.0
1659374694344734668,0.9712346792221069,1.4137169122695923,0.0
1659374694393447875,0.9735575914382935,1.414097547531128,0.0
1659374694447082757,0.9790906310081482,1.4149190187454224,0.0
1659374694516055345,0.9825537800788879,1.4153738021850586,0.0
1659374694563561439,0.9881357550621033,1.416017770767212,0.0
1659374694610470294,0.9926185011863708,1.4164681434631348,0.0
1659374694654304265,1.001318335533142,1.4172191619873047,0.0
1659374694705335617,1.0070488452911377,1.4176344871520996,0.0
1659374694705882310,1.0154892206192017,1.4181110858917236,0.0
1659374694754523277,1.0216095447540283,1.4183536767959595,0.0
1659374694779773950,1.0304144620895386,1.418591856956482,0.0
1659374694835283756,1.036589503288269,1.4186921119689941,0.0
1659374694878654479,1.0461061000823975,1.4187545776367188,0.0
1659374694922405004,1.05230712890625,1.4187322854995728,0.0
1659374694966249465,1.0610880851745605,1.4185541868209839,0.0
1659374695014964580,1.0673353672027588,1.4183169603347778,0.0
1659374695058123111,1.0762068033218384,1.4178441762924194,0.0
1659374695106203794,1.0825461149215698,1.41742742061615,0.0
1659374695150608062,1.0916355848312378,1.4167895317077637,0.0
1659374695194172382,1.097970724105835,1.4163135290145874,0.0
1659374695238321781,1.1079046726226807,1.4154391288757324,0.0
1659374695286888599,1.1143254041671753,1.4147827625274658,0.0
1659374695334653139,1.125994086265564,1.4134536981582642,0.0
1659374695378242969,1.1323753595352173,1.412672519683838,0.0
1659374695426428079,1.1408601999282837,1.4115793704986572,0.0
1659374695470309734,1.1472300291061401,1.4107096195220947,0.0
1659374695521997213,1.158698558807373,1.4090203046798706,0.0
1659374695570524215,1.164973497390747,1.4080275297164917,0.0
1659374695570650100,1.1745033264160156,1.4063949584960938,0.0
1659374695624659538,1.1810243129730225,1.405190110206604,0.0
1659374695653589725,1.1901370286941528,1.4033892154693604,0.0
1659374695707950353,1.1963272094726562,1.402077078819275,0.0
1659374695754621744,1.2046295404434204,1.400234341621399,0.0
1659374695798958539,1.2106717824935913,1.3988397121429443,0.0
1659374695846617698,1.2193067073822021,1.3967506885528564,0.0
1659374695890330314,1.2253172397613525,1.3952252864837646,0.0
1659374695938465118,1.2339266538619995,1.3929331302642822,0.0
1659374695986118078,1.2402163743972778,1.3911774158477783,0.0
1659374696034935951,1.2502590417861938,1.388276219367981,0.0
1659374696082288026,1.2563533782958984,1.3864820003509521,0.0
1659374696134012937,1.267569899559021,1.3830878734588623,0.0
1659374696179742813,1.273922085762024,1.381097674369812,0.0
1659374696179817676,1.282837986946106,1.3782325983047485,0.0
1659374696231550455,1.2889692783355713,1.3762165307998657,0.0
1659374696256266832,1.297537922859192,1.373348355293274,0.0
1659374696311969280,1.303697109222412,1.3712561130523682,0.0
1659374696371822357,1.3128465414047241,1.3680529594421387,0.0
1659374696448976755,1.3191784620285034,1.36576509475708,0.0
1659374696449079751,1.3308335542678833,1.3614519834518433,0.0
1659374696528590917,1.3372740745544434,1.3590197563171387,0.0
1659374696531788587,1.3470044136047363,1.355269432067871,0.0
1659374696581990242,1.3533121347427368,1.3527742624282837,0.0
1659374696632961511,1.3645251989364624,1.3482309579849243,0.0
1659374696690297603,1.3706321716308594,1.3457120656967163,0.0
1659374696755775928,1.3788715600967407,1.3422564268112183,0.0
1659374696799450397,1.3848731517791748,1.3396828174591064,0.0
1659374696799553632,1.3944990634918213,1.3354159593582153,0.0
1659374696853471040,1.4004597663879395,1.332687497138977,0.0
1659374696894058942,1.4114257097244263,1.3275766372680664,0.0
1659374696953256130,1.417533040046692,1.3246835470199585,0.0
1659374697002859354,1.4260724782943726,1.3205403089523315,0.0
1659374697047422885,1.4320794343948364,1.3175561428070068,0.0
1659374697090136289,1.44123375415802,1.3129433393478394,0.0
1659374697143229722,1.447279691696167,1.3098678588867188,0.0
1659374697189975976,1.459070086479187,1.303739309310913,0.0
1659374697238567590,1.465078592300415,1.3005369901657104,0.0
1659374697284484148,1.473437786102295,1.2960411310195923,0.0
1659374697334628820,1.479301929473877,1.2928909063339233,0.0
1659374697382500648,1.4881768226623535,1.288071632385254,0.0
1659374697426455020,1.494040608406067,1.2848151922225952,0.0
1659374697470340013,1.5052194595336914,1.278513789176941,0.0
1659374697514347076,1.511115550994873,1.2751598358154297,0.0
1659374697562191247,1.5184227228164673,1.2709592580795288,0.0
1659374697606471061,1.5242764949798584,1.2675318717956543,0.0
1659374697650424242,1.5334751605987549,1.2620042562484741,0.0
1659374697698479413,1.5391032695770264,1.2585452795028687,0.0
1659374697746352910,1.5498372316360474,1.25184166431427,0.0
1659374697790583133,1.5553531646728516,1.248346209526062,0.0
1659374697834329366,1.5617481470108032,1.2442054748535156,0.0
1659374697878492116,1.5662506818771362,1.2411946058273315,0.0
1659374697926213741,1.5723330974578857,1.2369517087936401,0.0
1659374697977703571,1.5758517980575562,1.2343882322311401,0.0
1659374698022465705,1.583405613899231,1.228641152381897,0.0
1659374698067161083,1.58769690990448,1.2252538204193115,0.0
1659374698110445261,1.5932198762893677,1.2207324504852295,0.0
1659374698154398679,1.5968519449234009,1.2176192998886108,0.0
1659374698198534727,1.6017787456512451,1.213180661201477,0.0
1659374698243007898,1.6048671007156372,1.2102577686309814,0.0
1659374698290558099,1.6092474460601807,1.205904245376587,0.0
1659374698338736295,1.6125805377960205,1.2024377584457397,0.0
1659374698338827610,1.6176707744598389,1.196940541267395,0.0
1659374698389284133,1.6214017868041992,1.1927729845046997,0.0
1659374698403711557,1.6262578964233398,1.1871346235275269,0.0
1659374698460883855,1.6295708417892456,1.1831084489822388,0.0
1659374698506423473,1.6341161727905273,1.1772807836532593,0.0
1659374698551825046,1.6373618841171265,1.1728813648223877,0.0
1659374698594343900,1.6418912410736084,1.166474461555481,0.0
1659374698643045902,1.6450527906417847,1.1618293523788452,0.0
1659374698693547964,1.64924955368042,1.1554104089736938,0.0
1659374698742499828,1.6522506475448608,1.1506301164627075,0.0
1659374698742682218,1.6563191413879395,1.1438028812408447,0.0
1659374698796602010,1.6590864658355713,1.1388835906982422,0.0
1659374698830107212,1.662874698638916,1.1318107843399048,0.0
1659374698885383367,1.665350317955017,1.1269646883010864,0.0
1659374698930291891,1.669133186340332,1.1191225051879883,0.0
1659374698974745273,1.6713886260986328,1.1141422986984253,0.0
1659374699021073818,1.675236463546753,1.1050519943237305,0.0
1659374699069449424,1.6772644519805908,1.099920392036438,0.0
1659374699114618301,1.679866075515747,1.0929216146469116,0.0
1659374699158920288,1.6815904378890991,1.087974190711975,0.0
1659374699202105998,1.6839412450790405,1.0806211233139038,0.0
1659374699245621919,1.6853655576705933,1.0756844282150269,0.0
1659374699290236711,1.6876438856124878,1.0668097734451294,0.0
1659374699339342594,1.688708782196045,1.062068223953247,0.0
1659374699382246971,1.6900607347488403,1.055059790611267,0.0
1659374699427918195,1.6908204555511475,1.0503880977630615,0.0
1659374699473536491,1.691650629043579,1.0441406965255737,0.0
1659374699517962455,1.6920956373214722,1.0397082567214966,0.0
1659374699562588453,1.6924854516983032,1.0339505672454834,0.0
1659374699607606172,1.6925833225250244,1.031548023223877,0.0
1659374699655398130,1.6926352977752686,1.0289921760559082,0.0
1659374699711663246,1.692637324333191,1.0287138223648071,0.0
1659374699753841638,1.6926380395889282,1.0285619497299194,0.0
1659374699798480272,1.6926380395889282,1.0285619497299194,0.0
1659374699841793060,1.6926380395889282,1.0285619497299194,0.0
1659374699887831211,1.6926380395889282,1.0285619497299194,0.0
1659374699931345939,1.6926419734954834,1.0273723602294922,0.0
1659374699977757453,1.6926499605178833,1.0247400999069214,0.0
1659374700024598360,1.6926743984222412,1.0171722173690796,0.0
1659374700070173740,1.69270658493042,1.0121861696243286,0.0
1659374700114252328,1.692808747291565,1.0049480199813843,0.0
1659374700162305831,1.69292414188385,1.0000643730163574,0.0
1659374700206197738,1.6931636333465576,0.9933612942695618,0.0
1659374700254371881,1.6933799982070923,0.9889118671417236,0.0
1659374700299135684,1.6938095092773438,0.9819393157958984,0.0
1659374700342458724,1.6941124200820923,0.97795170545578,0.0
1659374700386130094,1.6947835683822632,0.9708711504936218,0.0
1659374700430274486,1.6952725648880005,0.9666216969490051,0.0
1659374700474162578,1.6961382627487183,0.9601747393608093,0.0
1659374700518573045,1.6969325542449951,0.9549959897994995,0.0
1659374700562630176,1.6983872652053833,0.946565568447113,0.0
1659374700611011981,1.6995487213134766,0.9404484033584595,0.0
1659374700658838748,1.7019572257995605,0.9287470579147339,0.0
1659374700702458381,1.703337550163269,0.9225199222564697,0.0
1659374700750597476,1.7054193019866943,0.9137270450592041,0.0
1659374700794455766,1.7070056200027466,0.9074186086654663,0.0
1659374700838580131,1.7094476222991943,0.8981680870056152,0.0
1659374700886935949,1.7110916376113892,0.8922151327133179,0.0
1659374700934410095,1.7143549919128418,0.881065309047699,0.0
1659374700978403806,1.7162309885025024,0.8750221133232117,0.0
1659374701022021532,1.7189908027648926,0.8666042685508728,0.0
1659374701070736408,1.7209923267364502,0.8608153462409973,0.0
1659374701070818901,1.7240808010101318,0.8522697687149048,0.0
1659374701125555276,1.7261372804641724,0.8468236327171326,0.0
1659374701178861856,1.7300773859024048,0.8370866775512695,0.0
1659374701285267829,1.7322628498077393,0.8320753574371338,0.0
1659374701341724634,1.7353121042251587,0.8254542946815491,0.0
1659374701341892719,1.7374117374420166,0.8211278319358826,0.0
1659374701343207120,1.7411727905273438,0.8138689398765564,0.0
1659374701397070646,1.743895173072815,0.8089245557785034,0.0
1659374701447160005,1.74924898147583,0.7996528744697571,0.0
1659374701503431320,1.7524428367614746,0.7943374514579773,0.0
1659374701550611019,1.7566169500350952,0.787574291229248,0.0
1659374701655162096,1.7599133253097534,0.7823517918586731,0.0
1659374701655270099,1.7651342153549194,0.7743646502494812,0.0
1659374701742298841,1.7685422897338867,0.7693668007850647,0.0
1659374701742425680,1.7747364044189453,0.7606340646743774,0.0
1659374701785850286,1.7782584428787231,0.7558408975601196,0.0
1659374701792189836,1.782485008239746,0.7503105998039246,0.0
1659374701847505092,1.7846293449401855,0.7476178407669067,0.0
1659374701890510797,1.7862621545791626,0.7456181049346924,0.0
1659374701935197353,1.78671395778656,0.7450721263885498,0.0
1659374701980033636,1.786956548690796,0.7447800040245056,0.0
1659374702047496080,1.7869727611541748,0.7447605133056641,0.0
1659374702183313608,1.7869727611541748,0.7447605133056641,0.0
1659374702183438539,1.7869727611541748,0.7447605133056641,0.0
1659374702197034835,1.7869727611541748,0.7447605133056641,0.0
1659374702200465202,1.7869727611541748,0.7447605133056641,0.0
1659374702228892564,1.7869727611541748,0.7447605133056641,0.0
1659374702284413814,1.7869727611541748,0.7447605133056641,0.0
1659374702331326007,1.7869889736175537,0.7447410225868225,0.0
1659374702425692558,1.7869727611541748,0.7447605133056641,0.0
1659374702519223213,1.7869889736175537,0.7447410225868225,0.0
1659374702519585847,1.7869727611541748,0.7447605133056641,0.0
1659374702529904365,1.7869889736175537,0.7447410225868225,0.0
1659374702555238962,1.7869727611541748,0.7447605133056641,0.0
1659374702587986946,1.7869889736175537,0.7447410225868225,0.0
1659374702648270368,1.7869727611541748,0.7447605133056641,0.0
1659374702694683551,1.7869889736175537,0.7447410225868225,0.0
1659374702743101835,1.7869727611541748,0.7447605133056641,0.0
1659374702786097526,1.7869889736175537,0.7447410225868225,0.0
1659374702829654455,1.7869727611541748,0.7447605133056641,0.0
1659374702873589754,1.7869889736175537,0.7447410225868225,0.0
1659374702917776346,1.7869889736175537,0.7447410225868225,0.0
1659374702961752653,1.7869727611541748,0.7447605133056641,0.0
1659374703005739927,1.7869889736175537,0.7447410225868225,0.0
1659374703049761056,1.7869889736175537,0.7447410225868225,0.0
1659374703097796916,1.7869727611541748,0.7447605133056641,0.0
1659374703143176555,1.7869889736175537,0.7447410225868225,0.0
1659374703185415267,1.7869727611541748,0.7447605133056641,0.0
1659374703230189561,1.7869889736175537,0.7447410225868225,0.0
1659374703273991823,1.7869889736175537,0.7447410225868225,0.0
1659374703318063020,1.7870051860809326,0.744721531867981,0.0
1659374703362103462,1.7869889736175537,0.7447410225868225,0.0
1659374703405870437,1.7862943410873413,0.745578944683075,0.0
1659374703449958562,1.7850066423416138,0.7471415996551514,0.0
1659374703493751287,1.782387614250183,0.750361979007721,0.0
1659374703542662382,1.780174970626831,0.753129780292511,0.0
1659374703585830450,1.776566982269287,0.7577305436134338,0.0
1659374703629749059,1.7740143537521362,0.7610359191894531,0.0
1659374703682134389,1.7690081596374512,0.7676903009414673,0.0
1659374703726463079,1.766377568244934,0.7713165879249573,0.0
1659374703770601987,1.7624001502990723,0.776935875415802,0.0
1659374703816030263,1.7597092390060425,0.7807988524436951,0.0
1659374703862146139,1.7571474313735962,0.7845048904418945,0.0
1659374703910938024,1.7549842596054077,0.7877169847488403,0.0
1659374703954660892,1.7539548873901367,0.789311945438385,0.0
1659374703954823017,1.7544180154800415,0.7885567545890808,0.0
1659374703999384164,1.7550088167190552,0.7875535488128662,0.0
1659374704020023345,1.754958987236023,0.787641704082489,0.0
1659374704074625253,1.7542047500610352,0.7890466451644897,0.0
1659374704120904684,1.7521235942840576,0.7929566502571106,0.0
1659374704176906585,1.7509881258010864,0.7950185537338257,0.0
1659374704225129127,1.7509373426437378,0.7951061129570007,0.0
1659374704270166158,1.7515960931777954,0.7939960360527039,0.0
1659374704314695596,1.7511080503463745,0.7948248386383057,0.0
1659374704358085870,1.7499501705169678,0.7968159317970276,0.0
1659374704402271270,1.7475602626800537,0.800989031791687,0.0
1659374704450021743,1.7456347942352295,0.804378092288971,0.0
1659374704496484756,1.7424837350845337,0.8099236488342285,0.0
1659374704549022912,1.7401946783065796,0.81397944688797,0.0
1659374704549122571,1.7372100353240967,0.8193572163581848,0.0
1659374704600082159,1.735155701637268,0.8231667280197144,0.0
1659374704624713897,1.7339515686035156,0.8255075216293335,0.0
1659374704680221796,1.7343229055404663,0.8247593641281128,0.0
1659374704730170965,1.7355514764785767,0.8222609162330627,0.0
1659374704774726152,1.7368438243865967,0.8196245431900024,0.0
1659374704822150945,1.7389583587646484,0.8152771592140198,0.0
1659374704870228290,1.7405157089233398,0.8120379447937012,0.0
1659374704914836406,1.7422887086868286,0.8082566857337952,0.0
1659374704962981939,1.742505669593811,0.8077714443206787,0.0
1659374705006410121,1.7413215637207031,0.8105958700180054,0.0
1659374705050395488,1.7402015924453735,0.8134191632270813,0.0
1659374705094548225,1.7390174865722656,0.8165432810783386,0.0
1659374705138797998,1.7388349771499634,0.8170424699783325,0.0
1659374705138913631,1.7394665479660034,0.8152791857719421,0.0
1659374705195431947,1.7402266263961792,0.8130781650543213,0.0
1659374705223814725,1.7415800094604492,0.8089670538902283,0.0
1659374705279446840,1.7426283359527588,0.8056086897850037,0.0
1659374705326295852,1.7448710203170776,0.7977469563484192,0.0
1659374705410833358,1.746161937713623,0.7927998900413513,0.0
1659374705457992553,1.7477375268936157,0.7862021327018738,0.0
1659374705506696939,1.7487409114837646,0.781498908996582,0.0
1659374705506796836,1.7499051094055176,0.7753565311431885,0.0
1659374705556350946,1.7506325244903564,0.7709616422653198,0.0
1659374705572976350,1.7515405416488647,0.7644949555397034,0.0
1659374705626865148,1.7521004676818848,0.7596676349639893,0.0
1659374705670984268,1.7527896165847778,0.7523090839385986,0.0
1659374705750334739,1.753206729888916,0.7467055916786194,0.0
1659374705833750009,1.7537240982055664,0.7374056577682495,0.0
1659374705833866596,1.7539465427398682,0.7314111590385437,0.0
1659374705834638357,1.7541227340698242,0.7230604887008667,0.0
1659374705884315252,1.7541590929031372,0.7172138094902039,0.0
1659374705930517435,1.7540557384490967,0.7063307166099548,0.0
1659374705987353563,1.7538982629776,0.7003341317176819,0.0
1659374706030166387,1.753523349761963,0.6912299990653992,0.0
1659374706080999135,1.7531934976577759,0.6852911710739136,0.0
1659374706126329421,1.7526441812515259,0.6771089434623718,0.0
1659374706192041158,1.7521687746047974,0.671002209186554,0.0
1659374706192233800,1.7514222860336304,0.6626576781272888,0.0
1659374706237971305,1.7508151531219482,0.656791627407074,0.0
1659374706266838312,1.7497148513793945,0.6477209329605103,0.0
1659374706323058605,1.7489029169082642,0.6418541669845581,0.0
1659374706366284847,1.7476688623428345,0.6335933208465576,0.0
1659374706411386966,1.746732473373413,0.6277194619178772,0.0
1659374706458842277,1.7451971769332886,0.61891770362854,0.0
1659374706502244949,1.744040608406067,0.6128253936767578,0.0
1659374706554574489,1.7422553300857544,0.6039934158325195,0.0
1659374706598572015,1.7409552335739136,0.5979301333427429,0.0
1659374706642178535,1.739034652709961,0.5894636511802673,0.0
1659374706687361240,1.737586259841919,0.5833820104598999,0.0
1659374706687444686,1.7353349924087524,0.5745004415512085,0.0
1659374706738289356,1.7338777780532837,0.5691261887550354,0.0
1659374706784274578,1.7311298847198486,0.5596452355384827,0.0
1659374706838658094,1.7295085191726685,0.5543975830078125,0.0
1659374706885603666,1.7269734144210815,0.5466251969337463,0.0
1659374706933862924,1.725035309791565,0.5409482717514038,0.0
1659374706977982759,1.7221429347991943,0.5327895283699036,0.0
1659374707021951198,1.7199993133544922,0.5269706845283508,0.0
1659374707065750360,1.7167243957519531,0.5184134840965271,0.0
1659374707110922098,1.7144842147827148,0.5127670764923096,0.0
1659374707166200637,1.7099629640579224,0.501873254776001,0.0
1659374707213937997,1.7075117826461792,0.4962047040462494,0.0
1659374707258108139,1.7038383483886719,0.48797687888145447,0.0
1659374707301961660,1.7011910676956177,0.4822295904159546,0.0
1659374707349668979,1.6970480680465698,0.47346553206443787,0.0
1659374707393989562,1.6942936182022095,0.4677688479423523,0.0
1659374707458125591,1.6916733980178833,0.4624572694301605,0.0
1659374707458445549,1.688664436340332,0.456491082906723,0.0
1659374707549662351,1.6858412027359009,0.45099833607673645,0.0
1659374707549786329,1.6814067363739014,0.4425778090953827,0.0
1659374707606215715,1.6783794164657593,0.4369925260543823,0.0
1659374707606392621,1.6737524271011353,0.4287342429161072,0.0
1659374707654736042,1.6705055236816406,0.4231269061565399,0.0
1659374707665507078,1.6659270524978638,0.41542506217956543,0.0
1659374707719039201,1.6627222299575806,0.4101458787918091,0.0
1659374707764853000,1.6568933725357056,0.40077540278434753,0.0
1659374707819392204,1.653564691543579,0.3955734670162201,0.0
1659374707866749525,1.6489300727844238,0.3885335922241211,0.0
1659374707911274194,1.6454118490219116,0.3833352029323578,0.0
1659374707959990024,1.6378934383392334,0.3725016117095947,0.0
1659374708012640714,1.634231686592102,0.3673410713672638,0.0
1659374708058069467,1.6292779445648193,0.36052206158638,0.0
1659374708102765798,1.6254814863204956,0.3554282486438751,0.0
1659374708150108814,1.6200515031814575,0.3482693135738373,0.0
1659374708194199085,1.6162155866622925,0.3432687520980835,0.0
1659374708238206148,1.609815001487732,0.3350682258605957,0.0
1659374708286295652,1.6058828830718994,0.33014294505119324,0.0
1659374708334170579,1.600348711013794,0.3233884274959564,0.0
1659374708378309488,1.596277117729187,0.3185447156429291,0.0
1659374708423304557,1.5896432399749756,0.310829758644104,0.0
1659374708470848321,1.5854549407958984,0.30605289340019226,0.0
1659374708514106035,1.577513337135315,0.2972298860549927,0.0
1659374708562799453,1.5732269287109375,0.29260969161987305,0.0
1659374708606020927,1.5669748783111572,0.28598111867904663,0.0
1659374708651375532,1.562615990638733,0.2814291715621948,0.0
1659374708651537895,1.5560986995697021,0.27481013536453247,0.0
1659374708702374935,1.5515891313552856,0.27037131786346436,0.0
1659374708730542898,1.5451226234436035,0.26416924595832825,0.0
1659374708787652492,1.540540337562561,0.2598792612552643,0.0
1659374708835346937,1.5320104360580444,0.2521042227745056,0.0
1659374708882156133,1.5275440216064453,0.24813790619373322,0.0
1659374708927582502,1.5194876194000244,0.24120233952999115,0.0
1659374708983015537,1.5146459341049194,0.23716771602630615,0.0
1659374709027060747,1.5076963901519775,0.2315121442079544,0.0
1659374709075910806,1.5026118755340576,0.22745493054389954,0.0
1659374709121982574,1.4960697889328003,0.22234387695789337,0.0
1659374709169938087,1.490896224975586,0.21840089559555054,0.0
1659374709214502811,1.4835416078567505,0.21293635666370392,0.0
1659374709258467912,1.478481411933899,0.20926496386528015,0.0
1659374709302266359,1.469353437423706,0.20288482308387756,0.0
1659374709350152730,1.4644092321395874,0.199578195810318,0.0
1659374709394274473,1.457444667816162,0.19510632753372192,0.0
1659374709438918590,1.4522550106048584,0.19190078973770142,0.0
1659374709486409187,1.4437496662139893,0.18679194152355194,0.0
1659374709534351348,1.438231110572815,0.1835436075925827,0.0
1659374709582544565,1.428462028503418,0.17793762683868408,0.0
1659374709626431941,1.4227560758590698,0.17476192116737366,0.0
1659374709674524068,1.414903998374939,0.1704990267753601,0.0
1659374709723352670,1.409313440322876,0.16753511130809784,0.0
1659374709723483085,1.4008774757385254,0.1631849855184555,0.0
1659374709770492076,1.3950605392456055,0.16027358174324036,0.0
1659374709814705371,1.3842376470565796,0.15498048067092896,0.0
1659374709870094299,1.378286600112915,0.1521124541759491,0.0
1659374709918416976,1.370208740234375,0.14823561906814575,0.0
1659374709967394590,1.3643841743469238,0.14545509219169617,0.0
1659374710010060548,1.356036901473999,0.14155593514442444,0.0
1659374710062045335,1.3499997854232788,0.13881221413612366,0.0
1659374710109215497,1.3439217805862427,0.1360975056886673,0.0
1659374710109320640,1.3379225730895996,0.1334548443555832,0.0
1659374710162400722,1.3317965269088745,0.13078643381595612,0.0
1659374710178470134,1.3226735591888428,0.12688608467578888,0.0
1659374710233031988,1.3165748119354248,0.12434712797403336,0.0
1659374710278240680,1.3070744276046753,0.12049714475870132,0.0
1659374710326573848,1.3010294437408447,0.11809492111206055,0.0
1659374710374154090,1.291250467300415,0.11426019668579102,0.0
1659374710418577432,1.2848305702209473,0.1117740198969841,0.0
1659374710462579250,1.273053526878357,0.10728172212839127,0.0
1659374710512147426,1.2668687105178833,0.10496048629283905,0.0
1659374710587891340,1.2579371929168701,0.10167454183101654,0.0
1659374710588029623,1.2515803575515747,0.09938085079193115,0.0
1659374710629759550,1.2429218292236328,0.09630768746137619,0.0
1659374710663127183,1.2373285293579102,0.0943598747253418,0.0
1659374710709827184,1.2282536029815674,0.09125076234340668,0.0
1659374710769569635,1.2235296964645386,0.08965472877025604,0.0
1659374710817934513,1.2169243097305298,0.08746020495891571,0.0
1659374710861623048,1.211509346961975,0.0856965035200119,0.0
1659374710905670404,1.20298433303833,0.08293860405683517,0.0
1659374710950511455,1.1969377994537354,0.08098933845758438,0.0
1659374710994237422,1.188621163368225,0.07832753658294678,0.0
1659374711042825698,1.1823278665542603,0.07631868124008179,0.0
1659374711043020486,1.1726152896881104,0.07328662276268005,0.0
1659374711097968816,1.1663624048233032,0.07140381634235382,0.0
1659374711143145561,1.1602892875671387,0.06962697952985764,0.0
1659374711188559770,1.15410578250885,0.06786781549453735,0.0
1659374711237827062,1.1480293273925781,0.06619535386562347,0.0
1659374711282815456,1.1386711597442627,0.06376480311155319,0.0
1659374711326648950,1.1327213048934937,0.06230977922677994,0.0
1659374711326746702,1.123382568359375,0.0601167231798172,0.0
1659374711379932641,1.1176787614822388,0.0588318333029747,0.0
1659374711413977861,1.1093056201934814,0.05707725137472153,0.0
1659374711470517158,1.1036123037338257,0.05599050223827362,0.0
1659374711523004531,1.0959049463272095,0.05466208979487419,0.0
1659374711574693441,1.0903513431549072,0.05380759388208389,0.0
1659374711622403144,1.08302640914917,0.05282394215464592,0.0
1659374711666577339,1.079833984375,0.052448730915784836,0.0
1659374711713863849,1.0770400762557983,0.052153658121824265,0.0
1659374711762865781,1.0764858722686768,0.052099741995334625,0.0
1659374711763032913,1.0762338638305664,0.05207585170865059,0.0
1659374711811785936,1.0762087106704712,0.052073486149311066,0.0
1659374711838961839,1.0762087106704712,0.052073486149311066,0.0
1659374711911717414,1.0762087106704712,0.052073486149311066,0.0
1659374711954351663,1.0762087106704712,0.052073486149311066,0.0
1659374712007189512,1.0762087106704712,0.052073486149311066,0.0
1659374712050072431,1.0762087106704712,0.052073486149311066,0.0
1659374712099043846,1.0762087106704712,0.052073486149311066,0.0
1659374712142138957,1.0762087106704712,0.052073486149311066,0.0
1659374712189381361,1.0762087106704712,0.052073486149311066,0.0
1659374712234502553,1.0762087106704712,0.052073486149311066,0.0
1659374712278537750,1.0762087106704712,0.052073486149311066,0.0
1659374712322674989,1.0762087106704712,0.052073486149311066,0.0
1659374712366072893,1.0762087106704712,0.052073486149311066,0.0
1659374712417232751,1.0762087106704712,0.052073486149311066,0.0
1659374712466246366,1.0762087106704712,0.052073486149311066,0.0
1659374712511784791,1.0762087106704712,0.052073486149311066,0.0
1659374712560411691,1.0762087106704712,0.052073486149311066,0.0
1659374712610621929,1.0762087106704712,0.052073486149311066,0.0
1659374712654918670,1.0762087106704712,0.052073486149311066,0.0
1659374712698585271,1.076183557510376,0.05207112804055214,0.0
1659374712746194124,1.0762087106704712,0.052073486149311066,0.0
1659374712794480085,1.0745203495025635,0.051915135234594345,0.0
1659374712842213392,1.072327971458435,0.0517093762755394,0.0
1659374712892475128,1.0669357776641846,0.051196593791246414,0.0
1659374712938369512,1.0627045631408691,0.05077439919114113,0.0
1659374712986377000,1.056664228439331,0.050130490213632584,0.0
1659374713032315254,1.0518114566802979,0.04957107827067375,0.0
1659374713032435417,1.044154405593872,0.048588864505290985,0.0
1659374713084719896,1.0398190021514893,0.047973934561014175,0.0
1659374713112718582,1.0337172746658325,0.04702049493789673,0.0
1659374713168940305,1.0295253992080688,0.04630650579929352,0.0
1659374713214325189,1.0238741636276245,0.0452696830034256,0.0
1659374713260187149,1.0199013948440552,0.044484034180641174,0.0
1659374713306671857,1.0143578052520752,0.04329540580511093,0.0
1659374713350641965,1.0105372667312622,0.04240398481488228,0.0
1659374713394345998,1.003875494003296,0.040666818618774414,0.0
1659374713441217184,0.9996685981750488,0.039452120661735535,0.0
1659374713486419439,0.9932392835617065,0.03745410218834877,0.0
1659374713530767202,0.989039957523346,0.03604517877101898,0.0
1659374713575796842,0.9828351736068726,0.03377770632505417,0.0
1659374713618657827,0.9783652424812317,0.03200388699769974,0.0
1659374713665982961,0.973913311958313,0.03011937066912651,0.0
1659374713666058540,0.9687923789024353,0.027806604281067848,0.0
1659374713716406822,0.9642752408981323,0.025636237114667892,0.0
1659374713734562158,0.9572083353996277,0.022000020369887352,0.0
1659374713789781093,0.9526358246803284,0.01949443481862545,0.0
1659374713835483074,0.9447824954986572,0.014873714186251163,0.0
1659374713892146587,0.9405031204223633,0.01216964889317751,0.0
1659374713938339233,0.9337738156318665,0.00766223156824708,0.0
1659374713986293554,0.9294366240501404,0.004589706193655729,0.0
1659374714030184030,0.924014687538147,0.0005558124394156039,0.0
1659374714074716567,0.9198060035705566,-0.0027318126522004604,0.0
1659374714118738651,0.9137299656867981,-0.007736198604106903,0.0
1659374714162231445,0.9098128080368042,-0.011138897389173508,0.0
1659374714206764698,0.9030467867851257,-0.017392026260495186,0.0
1659374714250026702,0.8993697166442871,-0.02101687528192997,0.0
1659374714298754215,0.8949781060218811,-0.025607546791434288,0.0
1659374714342433929,0.8918265700340271,-0.029104838147759438,0.0
1659374714390943050,0.8876668810844421,-0.034039806574583054,0.0
1659374714434452295,0.8850067853927612,-0.037421856075525284,0.0
1659374714434569358,0.8814023733139038,-0.042342908680438995,0.0
1659374714490042686,0.8791266679763794,-0.04569273814558983,0.0
1659374714512634515,0.8760822415351868,-0.05053549259901047,0.0
1659374714567531585,0.8740647435188293,-0.05401764437556267,0.0
1659374714610105514,0.8713765144348145,-0.05906684696674347,0.0
1659374714654553890,0.8694369196891785,-0.06304896622896194,0.0
1659374714704534292,0.8676545023918152,-0.06702078878879547,0.0
1659374714754618406,0.8658772110939026,-0.07138019800186157,0.0
1659374714799837112,0.8643251657485962,-0.0756097212433815,0.0
1659374714799926996,0.8621288537979126,-0.08250734955072403,0.0
1659374714852410793,0.8608001470565796,-0.08733952045440674,0.0
1659374714892631530,0.8586083054542542,-0.09649641811847687,0.0
1659374714947562932,0.8575587868690491,-0.10160370171070099,0.0
1659374714990177392,0.8562771081924438,-0.10888244211673737,0.0
1659374715035064220,0.8555039763450623,-0.11414115130901337,0.0
1659374715079601526,0.8543604612350464,-0.12404778599739075,0.0
1659374715134127140,0.8539003133773804,-0.12936848402023315,0.0
1659374715182771921,0.8534572720527649,-0.1365937739610672,0.0
1659374715228251457,0.8532772064208984,-0.14182999730110168,0.0
1659374715274738788,0.8532229065895081,-0.14899271726608276,0.0
1659374715318434238,0.8533168435096741,-0.1538514643907547,0.0
1659374715362629652,0.853665292263031,-0.16105659306049347,0.0
1659374715406792402,0.8540452122688293,-0.16587598621845245,0.0
1659374715450232505,0.8547592759132385,-0.17234152555465698,0.0
1659374715495080471,0.855431318283081,-0.17705224454402924,0.0
1659374715495160818,0.856702983379364,-0.18435843288898468,0.0
1659374715549692153,0.8577107787132263,-0.18934506177902222,0.0
1659374715596015691,0.8598143458366394,-0.1985226422548294,0.0
1659374715650868415,0.8611188530921936,-0.20357081294059753,0.0
1659374715695172786,0.8632621765136719,-0.21101342141628265,0.0
1659374715739005327,0.864881694316864,-0.2161025106906891,0.0
1659374715785579442,0.8673256039619446,-0.22313109040260315,0.0
1659374715830864429,0.8692077398300171,-0.22812899947166443,0.0
1659374715874654769,0.8720642328262329,-0.23510974645614624,0.0
1659374715919142723,0.8741084933280945,-0.23971307277679443,0.0
1659374715962410926,0.8768588900566101,-0.2454678863286972,0.0
1659374716006483793,0.8789299130439758,-0.2494974583387375,0.0
1659374716050529956,0.8812280297279358,-0.25369301438331604,0.0
1659374716094222307,0.8819823861122131,-0.25501105189323425,0.0
1659374716139738798,0.8825191855430603,-0.255928635597229,0.0
1659374716185790061,0.8826094269752502,-0.25608110427856445,0.0
1659374716230855941,0.8826610445976257,-0.2561681866645813,0.0
1659374716275341510,0.882673978805542,-0.2561899721622467,0.0
1659374716319030284,0.882673978805542,-0.2561899721622467,0.0
1659374716364174127,0.882673978805542,-0.2561899721622467,0.0
1659374716409800291,0.882673978805542,-0.2561899721622467,0.0
1659374716455367326,0.882673978805542,-0.2561899721622467,0.0
1659374716498862504,0.882673978805542,-0.2561899721622467,0.0
1659374716549694061,0.882673978805542,-0.2561899721622467,0.0
1659374716597485065,0.882673978805542,-0.2561899721622467,0.0
1659374716647490501,0.882673978805542,-0.2561899721622467,0.0
1659374716695709943,0.882673978805542,-0.2561899721622467,0.0
1659374716739116191,0.882673978805542,-0.2561899721622467,0.0
1659374716786159276,0.882673978805542,-0.2561899721622467,0.0
1659374716830209493,0.882673978805542,-0.2561899721622467,0.0
1659374716876990556,0.882673978805542,-0.2561899721622467,0.0
1659374716923149108,0.882673978805542,-0.2561899721622467,0.0
1659374716976569175,0.882673978805542,-0.2561899721622467,0.0
1659374717026894330,0.8823394179344177,-0.2556232810020447,0.0
1659374717074107170,0.8812628984451294,-0.25378987193107605,0.0
1659374717125807046,0.8785770535469055,-0.24911534786224365,0.0
1659374717170764684,0.8765160441398621,-0.24542497098445892,0.0
1659374717214630842,0.8722591400146484,-0.23765604197978973,0.0
1659374717258441925,0.86997389793396,-0.23339591920375824,0.0
1659374717303001880,0.8664329648017883,-0.22659316658973694,0.0
1659374717345967292,0.8642386198043823,-0.2222287803888321,0.0
1659374717392866611,0.86284339427948,-0.21936102211475372,0.0
1659374717438425779,0.8629728555679321,-0.2196357697248459,0.0
1659374717486655235,0.8642288446426392,-0.2224012017250061,0.0
1659374717530118465,0.8653644919395447,-0.22497093677520752,0.0
1659374717574267387,0.8675195574760437,-0.23010534048080444,0.0
1659374717624076843,0.8685680031776428,-0.23279352486133575,0.0
1659374717624239206,0.8688958287239075,-0.23369774222373962,0.0
1659374717666826725,0.8684974312782288,-0.23252324759960175,0.0
1659374717712775707,0.868073046207428,-0.2311708629131317,0.0
1659374717763164520,0.868437647819519,-0.23243550956249237,0.0
1659374717810259103,0.8695254921913147,-0.2364938110113144,0.0
1659374717854898691,0.87041836977005,-0.24007968604564667,0.0
1659374717899817943,0.8722714781761169,-0.2481461614370346,0.0
1659374717955170392,0.8733375668525696,-0.25325000286102295,0.0
1659374718002410650,0.8747317790985107,-0.2605595588684082,0.0
1659374718069036722,0.8756930232048035,-0.26617276668548584,0.0
1659374718115615844,0.8769618272781372,-0.27478671073913574,0.0
1659374718159032821,0.8776096701622009,-0.2800368368625641,0.0
1659374718159125566,0.8784371614456177,-0.2878902852535248,0.0
1659374718203673124,0.8789488673210144,-0.2935875654220581,0.0
1659374718231693744,0.8795491456985474,-0.30189311504364014,0.0
1659374718288612842,0.8798786997795105,-0.307958722114563,0.0
1659374718334492683,0.8802118301391602,-0.316811203956604,0.0
1659374718379750728,0.88033527135849,-0.3227832615375519,0.0
1659374718426514387,0.8803975582122803,-0.33156585693359375,0.0
1659374718470301151,0.8803675174713135,-0.3373619318008423,0.0
1659374718616461038,0.8801276683807373,-0.3471035957336426,0.0
1659374718616879463,0.8798617124557495,-0.35279229283332825,0.0
1659374718664175987,0.8793199062347412,-0.36094966530799866,0.0
1659374718664336919,0.8788479566574097,-0.36642175912857056,0.0
1659374718713080167,0.8779699206352234,-0.37454983592033386,0.0
1659374718723757982,0.8772519826889038,-0.38012275099754333,0.0
1659374718766376733,0.8754466772079468,-0.391855388879776,0.0
1659374718823240280,0.8744749426841736,-0.39733830094337463,0.0
1659374718873892068,0.87214595079422,-0.4090041220188141,0.0
1659374718927680969,0.8708474636077881,-0.41478273272514343,0.0
1659374718977046489,0.8680004477500916,-0.4263330399990082,0.0
1659374719033068656,0.8664030432701111,-0.4323248863220215,0.0
1659374719083503007,0.8647844195365906,-0.4381273090839386,0.0
1659374719130143165,0.8629416227340698,-0.44447118043899536,0.0
1659374719175950288,0.8612595200538635,-0.4500707685947418,0.0
1659374719222351551,0.8581588864326477,-0.4598945081233978,0.0
1659374719266635179,0.8561962842941284,-0.46577686071395874,0.0
1659374719311326980,0.8529155254364014,-0.4751673638820648,0.0
1659374719380191326,0.850852370262146,-0.4808269739151001,0.0
1659374719380286455,0.8481786251068115,-0.4877984821796417,0.0
1659374719425943136,0.8460954427719116,-0.4929351806640625,0.0
1659374719440518856,0.8428157567977905,-0.5005066394805908,0.0
1659374719497347116,0.8403663635253906,-0.5058156251907349,0.0
1659374719542216777,0.8367803692817688,-0.5132469534873962,0.0
1659374719590751886,0.8342278003692627,-0.5183377861976624,0.0
1659374719634125709,0.8304443359375,-0.5256420373916626,0.0
1659374719678103923,0.8277142643928528,-0.5307262539863586,0.0
1659374719726185321,0.8221362233161926,-0.5405694842338562,0.0
1659374719774454832,0.8191201686859131,-0.545637309551239,0.0
1659374719822307825,0.814815104007721,-0.552646815776825,0.0
1659374719867921590,0.811504065990448,-0.557889997959137,0.0
1659374719910850763,0.806580662727356,-0.5654668211936951,0.0
1659374719960134983,0.8033077120780945,-0.5703726410865784,0.0
1659374720006487369,0.7960454225540161,-0.5810137987136841,0.0
1659374720054433107,0.7927428483963013,-0.585746169090271,0.0
1659374720098783016,0.7874598503112793,-0.5931390523910522,0.0
1659374720142184495,0.7840222120285034,-0.5978371500968933,0.0
1659374720190503120,0.7762972712516785,-0.608210563659668,0.0
1659374720234652042,0.7726998329162598,-0.6129791140556335,0.0
1659374720278514385,0.7668237686157227,-0.6206892132759094,0.0
1659374720322522878,0.7632033824920654,-0.6253765225410461,0.0
1659374720370933055,0.7574779987335205,-0.6325945854187012,0.0
1659374720414843320,0.7538283467292786,-0.6370647549629211,0.0
1659374720414978027,0.7480461597442627,-0.6440083980560303,0.0
1659374720464082241,0.7443060278892517,-0.6484363675117493,0.0
1659374720492839574,0.7380638718605042,-0.6557536125183105,0.0
1659374720541751384,0.7341635227203369,-0.6602777242660522,0.0
1659374720591568470,0.7272114753723145,-0.6681855320930481,0.0
1659374720638933897,0.7232825756072998,-0.6725496053695679,0.0
1659374720686543464,0.7165850400924683,-0.6798697710037231,0.0
1659374720730937480,0.7121989130973816,-0.6846046447753906,0.0
1659374720774650573,0.7053813338279724,-0.6918131709098816,0.0
1659374720818462610,0.7011734247207642,-0.6961590647697449,0.0
1659374720862811326,0.693019449710846,-0.7044344544410706,0.0
1659374720910617828,0.6890082955360413,-0.7084413170814514,0.0
1659374720954792022,0.6826218962669373,-0.7146896719932556,0.0
1659374721005029201,0.6783387064933777,-0.7187802195549011,0.0
1659374721054448366,0.6714475750923157,-0.7251963019371033,0.0
1659374721098928689,0.6670642495155334,-0.7291793823242188,0.0
1659374721146842718,0.657162070274353,-0.7380025386810303,0.0
1659374721190634250,0.6525540947914124,-0.7420378923416138,0.0
1659374721234231233,0.6442697644233704,-0.7491353750228882,0.0
1659374721278400182,0.6395472884178162,-0.7530757784843445,0.0
1659374721325375795,0.6311655640602112,-0.7599387764930725,0.0
1659374721374367952,0.6265189051628113,-0.7636923789978027,0.0
1659374721418307542,0.6191835999488831,-0.7695143222808838,0.0
1659374721462682723,0.6143893003463745,-0.7732446193695068,0.0
1659374721506800651,0.6064332127571106,-0.7792989611625671,0.0
1659374721554392814,0.601701557636261,-0.7828189730644226,0.0
1659374721598565101,0.5908461213111877,-0.7906136512756348,0.0
1659374721642409801,0.5858083367347717,-0.7940977215766907,0.0
1659374721686902999,0.5777357220649719,-0.799555778503418,0.0
1659374721734053373,0.5723552703857422,-0.8031205534934998,0.0
1659374721778375864,0.5651163458824158,-0.8078669905662537,0.0
1659374721826873302,0.5601145029067993,-0.8111322522163391,0.0
1659374721870107173,0.5510119795799255,-0.8169589042663574,0.0
1659374721918483495,0.5460282564163208,-0.8200643062591553,0.0
1659374721966274738,0.537778377532959,-0.8251063823699951,0.0
1659374722013715267,0.5323586463928223,-0.8283722996711731,0.0
1659374722013965368,0.5240854024887085,-0.8332774043083191,0.0
1659374722062404632,0.5188560485839844,-0.8363183736801147,0.0
1659374722111097574,0.5134286284446716,-0.8394211530685425,0.0
1659374722158808946,0.5070273280143738,-0.843012809753418,0.0
1659374722208749771,0.5014657974243164,-0.8460835814476013,0.0
1659374722208843708,0.4918992519378662,-0.8512200713157654,0.0
1659374722255150079,0.48660221695899963,-0.8539808988571167,0.0
1659374722298938989,0.47691968083381653,-0.8589509129524231,0.0
1659374722350234031,0.47116702795028687,-0.8618773818016052,0.0
1659374722398523569,0.4631529748439789,-0.8659406900405884,0.0
1659374722444385290,0.4572121798992157,-0.8689438104629517,0.0
1659374722490397691,0.4481838345527649,-0.8734123110771179,0.0
1659374722534192562,0.44200369715690613,-0.8763879537582397,0.0
1659374722582607030,0.4330642819404602,-0.8806337714195251,0.0
1659374722630767345,0.42697885632514954,-0.8835140466690063,0.0
1659374722674311637,0.42085984349250793,-0.8863824605941772,0.0
1659374722718537807,0.4139651954174042,-0.8895637392997742,0.0
1659374722762679100,0.4077243208885193,-0.8924098014831543,0.0
1659374722762791872,0.3978351056575775,-0.8968937397003174,0.0
1659374722811520814,0.3917066752910614,-0.8996813297271729,0.0
1659374722855139493,0.37879836559295654,-0.9054744839668274,0.0
1659374722909935474,0.3729318082332611,-0.9080415368080139,0.0
1659374722964145898,0.36117857694625854,-0.9130653142929077,0.0
1659374723016413450,0.3555724024772644,-0.9154043793678284,0.0
1659374723067761421,0.350021094083786,-0.9176774024963379,0.0
1659374723114026784,0.34323111176490784,-0.9203981161117554,0.0
1659374723158425092,0.3372492790222168,-0.9227536916732788,0.0
1659374723210008859,0.32712095975875854,-0.9266677498817444,0.0
1659374723254453182,0.32091382145881653,-0.9290015697479248,0.0
1659374723298360586,0.30976030230522156,-0.9331384897232056,0.0
1659374723342335224,0.3034270703792572,-0.9354965090751648,0.0
1659374723386157035,0.29427099227905273,-0.9389049410820007,0.0
1659374723434529542,0.2879331409931183,-0.9412504434585571,0.0
1659374723478668689,0.2784506380558014,-0.9447247982025146,0.0
1659374723522623777,0.2731679677963257,-0.9466394782066345,0.0
1659374723566404819,0.26420095562934875,-0.9499021172523499,0.0
1659374723614989280,0.2600460350513458,-0.9514369964599609,0.0
1659374723615100860,0.2528475224971771,-0.9541547298431396,0.0
1659374723663867473,0.24809782207012177,-0.9559774994850159,0.0
1659374723709661245,0.23787172138690948,-0.9599891901016235,0.0
1659374723762219190,0.23230448365211487,-0.9622229337692261,0.0
1659374723806686162,0.22261908650398254,-0.966155469417572,0.0
1659374723851239204,0.21665044128894806,-0.9686115384101868,0.0
1659374723894992113,0.20451514422893524,-0.9735745191574097,0.0
1659374723946034908,0.19862033426761627,-0.975943386554718,0.0
1659374723990863084,0.18893632292747498,-0.9798116087913513,0.0
1659374724038685798,0.18315620720386505,-0.9821264743804932,0.0
1659374724089069366,0.17194221913814545,-0.9865995645523071,0.0
1659374724138412714,0.16608288884162903,-0.9889207482337952,0.0
1659374724182489156,0.15642821788787842,-0.992725670337677,0.0
1659374724226415395,0.15070074796676636,-0.9949672818183899,0.0
1659374724270296573,0.1402205526828766,-0.9990935921669006,0.0
1659374724314442634,0.13532838225364685,-1.0010385513305664,0.0
1659374724358275651,0.12846629321575165,-1.0037834644317627,0.0
1659374724402404785,0.12414573132991791,-1.0055218935012817,0.0
1659374724446320056,0.1169467642903328,-1.0084465742111206,0.0
1659374724494658470,0.11301436275243759,-1.0100643634796143,0.0
1659374724538246870,0.10621693730354309,-1.0129005908966064,0.0
1659374724586492061,0.10256033390760422,-1.0144562721252441,0.0
1659374724630132436,0.09474608302116394,-1.0178757905960083,0.0
1659374724674408435,0.09114298224449158,-1.0194907188415527,0.0
1659374724718219518,0.08745384216308594,-1.0211611986160278,0.0
1659374724762294054,0.08277884125709534,-1.023292899131775,0.0
1659374724811566829,0.07927989959716797,-1.0248924493789673,0.0
1659374724811758995,0.07354556024074554,-1.0275071859359741,0.0
1659374724854524850,0.06981241703033447,-1.029203176498413,0.0
1659374724904516696,0.06285040080547333,-1.0323588848114014,0.0
1659374724954796314,0.05867673084139824,-1.034247875213623,0.0
1659374725003014564,0.05196649208664894,-1.0372846126556396,0.0
1659374725046171188,0.04781685397028923,-1.0391652584075928,0.0
1659374725090329647,0.04042690992355347,-1.0425416231155396,0.0
1659374725138336181,0.036565426737070084,-1.04432213306427,0.0
1659374725186533451,0.029838422313332558,-1.0474438667297363,0.0
1659374725230302572,0.026305057108402252,-1.0490896701812744,0.0
1659374725274557352,0.020826879888772964,-1.0516554117202759,0.0
1659374725319675445,0.01753075420856476,-1.053210973739624,0.0
1659374725362440347,0.011835996992886066,-1.0559108257293701,0.0
1659374725406504154,0.0085233049467206,-1.0574904680252075,0.0
1659374725406641960,0.003460807492956519,-1.0599285364151,0.0
1659374725459715604,7.129881123546511e-05,-1.0615819692611694,0.0
1659374725493319511,-0.006055605132132769,-1.0646090507507324,0.0
1659374725543303012,-0.009407227858901024,-1.066282033920288,0.0
1659374725600022792,-0.013184625655412674,-1.0681787729263306,0.0
1659374725646490812,-0.018064672127366066,-1.070643424987793,0.0
1659374725690165519,-0.0216070543974638,-1.0724440813064575,0.0
1659374725734193086,-0.028257453814148903,-1.0758386850357056,0.0
1659374725778616428,-0.032245438545942307,-1.077879786491394,0.0
1659374725822288036,-0.038280684500932693,-1.0809763669967651,0.0
1659374725870279788,-0.04195103794336319,-1.0828603506088257,0.0
1659374725919404745,-0.04598190262913704,-1.0849288702011108,0.0
1659374725919563055,-0.051524728536605835,-1.0877653360366821,0.0
1659374725969027519,-0.055788565427064896,-1.0899341106414795,0.0
1659374725993788003,-0.0642848089337349,-1.0942217111587524,0.0
1659374726043667793,-0.06955058127641678,-1.096877098083496,0.0
1659374726096085071,-0.08255872130393982,-1.103515863418579,0.0
1659374726145411252,-0.08825066685676575,-1.1064497232437134,0.0
1659374726198102474,-0.0940246656537056,-1.109445333480835,0.0
1659374726246396303,-0.10065886378288269,-1.1129262447357178,0.0
1659374726290715932,-0.1053757593035698,-1.1154307126998901,0.0
1659374726334105491,-0.11120095103979111,-1.1185463666915894,0.0
1659374726379221677,-0.11465801298618317,-1.1204010248184204,0.0
1659374726422099113,-0.1225631907582283,-1.124672293663025,0.0
1659374726466612339,-0.12614178657531738,-1.1266214847564697,0.0
1659374726515525341,-0.13040436804294586,-1.1289552450180054,0.0
1659374726558377981,-0.13718275725841522,-1.132702112197876,0.0
1659374726602846622,-0.142217755317688,-1.1355218887329102,0.0
1659374726603053331,-0.15069766342639923,-1.1403228044509888,0.0
1659374726652498722,-0.1561061143875122,-1.1434078216552734,0.0
1659374726693069458,-0.16632165014743805,-1.1493035554885864,0.0
1659374726742181301,-0.17189595103263855,-1.1525568962097168,0.0
1659374726798871278,-0.18214793503284454,-1.1586408615112305,0.0
1659374726849619150,-0.1878647357225418,-1.1621003150939941,0.0
1659374726894601821,-0.19555704295635223,-1.1667927503585815,0.0
1659374726942337274,-0.20126934349536896,-1.1703081130981445,0.0
1659374726987325668,-0.21012254059314728,-1.1758662462234497,0.0
1659374727030212163,-0.2153235226869583,-1.1791964769363403,0.0
1659374727078533411,-0.22079841792583466,-1.182755708694458,0.0
1659374727122097253,-0.2283163219690323,-1.187768578529358,0.0
1659374727168081521,-0.23339442908763885,-1.1912386417388916,0.0
1659374727168228149,-0.24263052642345428,-1.1977291107177734,0.0
1659374727228975057,-0.2474370002746582,-1.2011897563934326,0.0
1659374727269886970,-0.25240641832351685,-1.204813838005066,0.0
1659374727314236879,-0.2581057548522949,-1.2090685367584229,0.0
1659374727358386278,-0.2617833912372589,-1.2118843793869019,0.0
1659374727401977539,-0.26776939630508423,-1.2166378498077393,0.0
1659374727449779272,-0.2707931697368622,-1.21913743019104,0.0
1659374727493973493,-0.27636271715164185,-1.2239571809768677,0.0
1659374727541848182,-0.2793460786342621,-1.2266582250595093,0.0
1659374727585967063,-0.28454017639160156,-1.2315537929534912,0.0
1659374727630769252,-0.2877325117588043,-1.2346969842910767,0.0
1659374727630983114,-0.29296666383743286,-1.2401278018951416,0.0
1659374727676938772,-0.29638031125068665,-1.243865728378296,0.0
1659374727726898908,-0.30282166600227356,-1.251312255859375,0.0
1659374727776836872,-0.3060031533241272,-1.2551844120025635,0.0
1659374727826170444,-0.31068944931030273,-1.2611267566680908,0.0
1659374727869617462,-0.3139035105705261,-1.2653601169586182,0.0
1659374727918705463,-0.3199533224105835,-1.2737292051315308,0.0
1659374727962308883,-0.3230917453765869,-1.2782981395721436,0.0
1659374728008368968,-0.32660362124443054,-1.2835618257522583,0.0
1659374728053828954,-0.33090895414352417,-1.2902421951293945,0.0
1659374728098188400,-0.3340020775794983,-1.2952038049697876,0.0
1659374728142058849,-0.33926981687545776,-1.3039385080337524,0.0
1659374728189875364,-0.3422263264656067,-1.3089827299118042,0.0
1659374728238124847,-0.34759092330932617,-1.3185105323791504,0.0
1659374728292054414,-0.3503422141075134,-1.323612093925476,0.0
1659374728292187452,-0.35469529032707214,-1.331960916519165,0.0
1659374728338407754,-0.35727861523628235,-1.3370646238327026,0.0
1659374728360031604,-0.36125171184539795,-1.3450672626495361,0.0
1659374728410618543,-0.36385056376457214,-1.3503893613815308,0.0
1659374728454241752,-0.36786189675331116,-1.3587956428527832,0.0
1659374728499049425,-0.370439738035202,-1.3643519878387451,0.0
1659374728541804313,-0.37450045347213745,-1.3734325170516968,0.0
1659374728586008310,-0.37687262892723083,-1.3789421319961548,0.0
1659374728635397672,-0.3808523416519165,-1.388471245765686,0.0
1659374728684051513,-0.3832888603210449,-1.3944752216339111,0.0
1659374728735363006,-0.3870351016521454,-1.4039626121520996,0.0
1659374728778551101,-0.38923579454421997,-1.4097058773040771,0.0
1659374728822197675,-0.39287957549095154,-1.4194495677947998,0.0
1659374728867606639,-0.3949441909790039,-1.425081729888916,0.0
1659374728910371541,-0.3984024226665497,-1.4347316026687622,0.0
1659374728954060792,-0.4003821015357971,-1.4404209852218628,0.0
1659374728998485326,-0.40370190143585205,-1.4502530097961426,0.0
1659374729046233654,-0.40555036067962646,-1.4558799266815186,0.0
1659374729090983629,-0.4084394872188568,-1.464920997619629,0.0
1659374729134377002,-0.41026100516319275,-1.4707690477371216,0.0
1659374729179019212,-0.4133363366127014,-1.4810242652893066,0.0
1659374729222848653,-0.4150446951389313,-1.486985445022583,0.0
1659374729223044872,-0.41735655069351196,-1.4954060316085815,0.0
1659374729269992351,-0.41887199878692627,-1.501131534576416,0.0
