%time,field.x,field.y,field.z
2014293000000,-0.001763475963735892,0.0059080675050514255,-0.0010027927931245406
2014327000000,-0.0017647619345775682,0.005908762343215088,-0.001002792965086586
2014360000000,-0.0017660117155400366,0.005909436359211606,-0.0010027931323404703
2014393000000,-0.0017672631072446201,0.005910109994462876,-0.0010027932999395542
2014427000000,-0.0017685541057909154,0.005910803645633853,-0.0010027934724143768
2014461000000,-0.001769808770872106,0.0059114765080606835,-0.0010027936397444884
2014493000000,-0.0017710650510062258,0.005912148988151773,-0.0010027938074196954
2014527000000,-0.0017723610918806325,0.005912841445725464,-0.0010027939805345304
2014560000000,-0.0017736206581647077,0.005913513147213965,-0.0010027941489069783
2014604000000,-0.001774881846502611,0.005914184464072271,-0.0010027943176246154
2014648000000,-0.0017761829516443322,0.00591487572077832,-0.0010027944918170988
2014696000000,-0.0017774474403720718,0.005915546254397388,-0.0010027946612389121
2014696000000,-0.001778713558183446,0.005916216401094146,-0.001002794831009117
2014736000000,-0.0017800197495405094,0.005916906449776595,-0.0010027950062893552
2014760000000,-0.0017812891820473426,0.0059175758085650825,-0.00100279517677003
2014799000000,-0.0017825602507001983,0.005918244778124028,-0.0010027953476021423
2014842000000,-0.0017838715503223522,0.005918933611579249,-0.001002795523979548
2014885000000,-0.001785145948042858,0.0059196017885298656,-0.001002795695528063
2014929000000,-0.0017864219890047547,0.00592026957392835,-0.001002795867430871
2014929000000,-0.0017877384189433224,0.005920957185254952,-0.001002796044897343
2014967000000,-0.001789017795504541,0.00592162418834212,-0.0010027962184961346
2014994000000,-0.001790298812452254,0.005922290800449212,-0.0010027963924080056
2015027000000,-0.0017916203663402575,0.005922977203220276,-0.0010027965719514968
2015065000000,-0.0017929047210938623,0.005923643019294149,-0.0010027967465755898
2015100000000,-0.0017941907233806455,0.005924308442162401,-0.0010027969215573376
2015146000000,-0.0017955174208252747,0.005924993617983456,-0.001002797102087831
2015193000000,-0.001796806772430731,0.005925658242570788,-0.001002797276927335
2015237000000,-0.0017980977758703066,0.005926322472223704,-0.001002797452090181
2015237000000,-0.0017994296307679543,0.005927006416252961,-0.0010027976329329315
2015285000000,-0.0018007239951293745,0.005927669841860501,-0.0010027978088192648
2015293000000,-0.0018020200184373008,0.005928332870267136,-0.0010027979850637699
2015337000000,-0.0018033570527860258,0.005929015574182015,-0.001002798167024796
2015379000000,-0.001804656451518929,0.005929677793750308,-0.0010027983439998348
2015425000000,-0.0018059575163580808,0.005930339613749976,-0.0010027985213362928
2015467000000,-0.0018072997525116078,0.005931021070157834,-0.0010027987044256836
2015468000000,-0.0018086042073455428,0.005931682076496337,-0.00100279888249908
2015512000000,-0.001809910335478425,0.0059323426808829925,-0.0010027990609369625
2015527000000,-0.0018112577958933505,0.005933022882342916,-0.0010027992451642972
2015566000000,-0.001812567328658159,0.0059336826682137205,-0.0010027994243451618
2015611000000,-0.0018138785418901704,0.005934342049931497,-0.0010027996038809578
2015655000000,-0.0018152312410925544,0.00593502100431559,-0.0010027997902516544
2015699000000,-0.0018165458555602955,0.005935679580470996,-0.0010027999715322908
2015699000000,-0.0018178621476645576,0.005936337752877779,-0.001002800153174624
2015743000000,-0.0018192200845763224,0.005937015446832571,-0.0010028003407065826
2015760000000,-0.0018205397900923018,0.005937672797176481,-0.0010028005230984585
2015807000000,-0.0018218611797929237,0.005938329742750799,-0.001002800705613885
2015851000000,-0.0018232243732411784,0.005939006171434488,-0.0010028008934261645
2015894000000,-0.0018245491849966143,0.005939662292097924,-0.0010028010760959084
2015894000000,-0.0018258756858440875,0.005940318004991854,-0.001002801259135301
2015937000000,-0.0018272441528578674,0.005940993160630159,-0.0010028014481082911
2015960000000,-0.0018285740904335351,0.005941648043152961,-0.001002801631899898
2015993000000,-0.0018299057243575468,0.005942302515470444,-0.0010028018160636691
2016029000000,-0.0018312794875959028,0.005942976390392386,-0.0010028020061984867
2016076000000,-0.0018326145730127013,0.005943630027390116,-0.0010028021911210813
2016121000000,-0.0018339513620665125,0.005944283251737392,-0.001002802376418973
2016167000000,-0.0018353304442856747,0.005944955838308805,-0.0010028025677255824
2016167000000,-0.0018366706996643936,0.005945608222355571,-0.0010028027537885703
2016211000000,-0.001838012666002275,0.005946260191290613,-0.0010028029402299153
2016227000000,-0.0018393970862883172,0.00594693149152079,-0.0010028031333680493
2016262000000,-0.0018407425195717192,0.005947582631898599,-0.0010028033215502379
2016305000000,-0.0018420896608966298,0.005948233358008447,-0.0010028035101373838
2016350000000,-0.001843479413709978,0.005948903368746356,-0.0010028037048387742
2016391000000,-0.0018448300303190567,0.005949553250869152,-0.0010028038942005435
2016426000000,-0.0018461823619890898,0.005950202716824175,-0.0010028040838216089
2016426000000,-0.0018475774670315458,0.005950871428828629,-0.0010028042789554659
2016465000000,-0.001442896827244979,0.006001193850743997,-0.0010019027122899343
2016491000000,-0.00024965572233269766,0.006156604896846494,-0.0010019565803224863
2016540000000,0.001808152220918411,0.006428760632688645,-0.001002036908358865
2016587000000,0.004605365241225177,0.006806248026564462,-0.001002151795609793
2016633000000,0.008171840566598065,0.0072967625895166,-0.0010023155177981344
2016633000000,0.012604160422839728,0.007913571509671901,-0.0010025439308380887
2016675000000,0.01755894284970804,0.008601063378475517,-0.0010028134392219834
2016690000000,0.02303406919711967,0.009342128465323497,-0.0010027709529937812
2016734000000,0.029047589373945526,0.010118775173004314,-0.0010025182522873169
2016779000000,0.03510797073113404,0.010834429976897719,-0.0010021815677260203
2016827000000,0.041321588420196995,0.01149999275176601,-0.0010021027569297805
2016870000000,0.047875070654639335,0.012131830618974097,-0.001001070522597177
2016870000000,0.05426980641291753,0.012696899969417868,-0.0010021179912646228
2016903000000,0.06081070928717569,0.01319381224320676,-0.0010021473511603006
2016927000000,0.06785784190844386,0.013619481233671302,-0.001003168322327469
2016969000000,0.07476971122433168,0.01391355787186713,-0.0010028144782719996
2017017000000,0.08165746159188882,0.014100971641037024,-0.0010021780638710294
2017065000000,0.08901239504750925,0.014236468825017163,-0.0010023473005395973
2017065000000,0.09639302822868098,0.014271798436458675,-0.0010029446391633667
2017113000000,0.10378502872877993,0.014209591583615976,-0.0010034884560391581
2017127000000,0.11140401667003495,0.01404356215857076,-0.0010040014342859761
2017166000000,0.11849870290709262,0.013793202767746858,-0.0010049497951683285
2017190000000,0.12543557526663668,0.01345157232952644,-0.0010043961331813074
2017232000000,0.13255995943112192,0.013014340677163944,-0.0010039486897527941
2017274000000,0.1395108743714746,0.012509715758221757,-0.001002075472559278
2017321000000,0.1466206797604764,0.011925802433843032,-0.0010036233110362544
2017365000000,0.15402203881190604,0.011234359733543326,-0.001003289563985453
2017365000000,0.16094652754854805,0.010514520965201783,-0.0010035643285417999
2017408000000,0.16774575397614797,0.009740581099058185,-0.0010035257059231965
2017427000000,0.17478749425227477,0.00887359797718002,-0.001003240838048404
2017468000000,0.18187296515574955,0.00793272811876537,-0.0010025425889517471
2017511000000,0.18912894745708367,0.006907497139767064,-0.0010030997985167774
2017554000000,0.19660284764375346,0.005793906010359589,-0.0010034216689008106
2017585000000,0.2035759509491116,0.004703605795936253,-0.0010036532988846568
2017600000000,0.2103641705107109,0.003611323194448136,-0.0010040487290039583
2017633000000,0.21735295589149475,0.0024594991242521003,-0.0010043275136680171
2017677000000,0.22396287816880703,0.0013389131174778,-0.001003048091515999
2017722000000,0.23058363311088895,0.00014851436757835662,-0.001002870749204323
2017766000000,0.23774457260730536,-0.001193166655934256,-0.0010034565351010778
2017767000000,0.24458416532868762,-0.002507444239650971,-0.001002874663568968
2017811000000,0.2512424451510168,-0.003812683139307718,-0.0010033892149837985
2017827000000,0.25811709209017836,-0.005182808306387468,-0.0010030849189020911
2017870000000,0.2649600189556039,-0.0065836172432216,-0.001001822784153436
2017918000000,0.27199299076370564,-0.008098500750117053,-0.0010020128683760551
2017961000000,0.2793282274002822,-0.009761631969112752,-0.0010034382255262979
2017961000000,0.2864372350208421,-0.01143386019627265,-0.0010032900061326573
2018008000000,0.2935472149290229,-0.013150586439403016,-0.0010034174708404321
2018026000000,0.3008664699004055,-0.014963990635658179,-0.0010036976764270858
2018072000000,0.30760147965468776,-0.016678436164551037,-0.0010023193974371715
2018117000000,0.3141931844265644,-0.018413739511384516,-0.001003616445423107
2018161000000,0.321045209915191,-0.020250814156179388,-0.001003733842703778
2018162000000,0.32785262988592023,-0.022110207439692452,-0.0010029154896632683
2018206000000,0.33484196622324586,-0.02402516979355815,-0.0010039982277380913
2018227000000,0.342055876896668,-0.026010682755447753,-0.001003936702806376
2018270000000,0.34872023086913756,-0.02784976420701858,-0.0010026730712223014
2018314000000,0.3552648728463848,-0.02965962140411217,-0.0010033727428125291
2018357000000,0.3620359680928248,-0.03153432474407885,-0.001002867474058533
2018403000000,0.3686764367164481,-0.0333835468353787,-0.001002968197831678
2018404000000,0.37533606100046335,-0.03526840512709132,-0.0010022014030194176
2018452000000,0.38228231106380056,-0.03726986662440884,-0.0010023455994093607
2018456000000,0.3891696577909541,-0.039274228337236906,-0.0010032172326565163
2018501000000,0.3961405987646553,-0.0413021325101144,-0.0010033900285217508
2018550000000,0.40332591372629223,-0.04338905265033247,-0.0010034768489176789
2018594000000,0.41029917638351865,-0.045406784640370734,-0.0010037914591691094
2018594000000,0.4172766028096264,-0.04741323177887486,-0.0010035235693819713
2018636000000,0.4244452449099028,-0.04946761372210581,-0.001003516787155441
2018660000000,0.43140782835852587,-0.05145121505717843,-0.0010039318281703513
2018705000000,0.43837372141426156,-0.053425546540378614,-0.0010038479994257006
2018752000000,0.44555651116799566,-0.055448945838351395,-0.0010038488525548998
2018796000000,0.45251825825551184,-0.057393795168339826,-0.001003618712772842
2018796000000,0.4594844575090068,-0.05931473188281578,-0.0010030189967082555
2018840000000,0.46663470232867205,-0.061264107279130404,-0.0010027955274571551
2018860000000,0.47359569391518835,-0.06314991196443213,-0.0010031909928763377
2018900000000,0.48058809013916526,-0.0650331999231858,-0.0010032361533341139
2018943000000,0.48779863190753947,-0.06696301169234113,-0.0010033884873903165
2018987000000,0.49443063726400116,-0.06872929007972016,-0.0010039732280177488
2019029000000,0.5009295656766528,-0.07046467093726519,-0.00100349575730602
2019029000000,0.5077245906430291,-0.07227477030352228,-0.0010035971007964772
2019060000000,0.5142877022193378,-0.07401982833075886,-0.0010029454053070187
2019093000000,0.5210751721509448,-0.0758387969519575,-0.001002663645778095
2019134000000,0.5282144156600964,-0.07774106987451103,-0.0010035059382615605
2019176000000,0.5352090428542987,-0.07958444822227086,-0.0010038825685218175
2019204000000,0.5422071180691711,-0.0814114347233053,-0.001003823316012141
2019245000000,0.5494224702852465,-0.08327546043267396,-0.001003754261734404
2019289000000,0.5564337159463568,-0.08506736927657067,-0.0010032627873344628
2019337000000,0.5634303690912592,-0.08684218655943546,-0.0010027215811271688
2019337000000,0.5705995686186237,-0.08865512110936871,-0.0010025361477653573
2019376000000,0.5775998861256987,-0.090418111644864,-0.0010031981039671685
2019393000000,0.5846240530192472,-0.09217342602238128,-0.0010031967917546146
2019427000000,0.5918694198740745,-0.09397030581506197,-0.0010034136786052986
2019474000000,0.5987945854109841,-0.09569056771911935,-0.0010041920843856453
2019513000000,0.605488752658619,-0.09740788153835583,-0.0010039805459813589
2019547000000,0.6123688855363573,-0.09923907696785757,-0.0010041727156695282
2019587000000,0.6189949950822198,-0.10106648744161885,-0.0010027992101360253
2019623000000,0.6257702057376676,-0.10300947327670272,-0.001002173244013773
2019660000000,0.6329419803348877,-0.10512052429378776,-0.0010042469444740063
2019703000000,0.6399282431947281,-0.10722378282172146,-0.0010037645061430796
2019704000000,0.646897902077707,-0.10934678577417377,-0.0010037483427928519
2019746000000,0.6540735016262339,-0.11155856261802105,-0.00100351150065537
2019760000000,0.6609071317889608,-0.11368960901730182,-0.0010022424530974072
2019804000000,0.6674767961745536,-0.11577125147965263,-0.0010034921842717176
2019843000000,0.6741564232991517,-0.11791930828702253,-0.0010029733472640377
2019889000000,0.6807462544668117,-0.12007547631325634,-0.0010024981666231954
2019931000000,0.6874439256233768,-0.12231292496683348,-0.0010027261486997771
2019931000000,0.6945107460914727,-0.12470497194092119,-0.0010040258951948058
2019976000000,0.7010689204145288,-0.12694249540445596,-0.0010022720093911912
2019993000000,0.7074378819619598,-0.12914558021713882,-0.0010035496846521955
2020031000000,0.7140871014505445,-0.13145336038277516,-0.0010034949375919873
2020080000000,0.7206856158604698,-0.13375003237822075,-0.0010021456813729193
2020114000000,0.7274521094231396,-0.13608931019534873,-0.0010033539729869152
2020146000000,0.7345118419865186,-0.13852189794059333,-0.0010034489470229953
2020195000000,0.7413738555343024,-0.14088418454700163,-0.0010034736759561257
2020195000000,0.7482395575706142,-0.14325032228914802,-0.0010034248073032756
2020236000000,0.7553152957491812,-0.14569136588278206,-0.001003352742534283
2020260000000,0.7621987480284341,-0.14807357977233124,-0.0010029702963272012
2020299000000,0.7690599173359843,-0.1504685767122297,-0.001002836188502207
2020346000000,0.7760749586803184,-0.15294834084508904,-0.0010028684319503163
2020392000000,0.782854210576148,-0.1553685478514013,-0.0010030120539181765
2020431000000,0.7896944052363749,-0.1578202286219717,-0.0010039619670126204
2020431000000,0.7967421873509202,-0.1603517946280884,-0.0010042499138904586
2020475000000,0.803570679797936,-0.16280583894083656,-0.0010038665373162774
2020493000000,0.8104053902707116,-0.16524968497014472,-0.001003414947364098
2020533000000,0.8174192607326072,-0.16775411888613626,-0.0010036592143552701
2020578000000,0.824239793696859,-0.17017743563655527,-0.0010036943382086827
2020621000000,0.8310622368557137,-0.17258870978749213,-0.0010034862594644547
2020666000000,0.8380991244313026,-0.1750610252433055,-0.0010034653600335466
2020666000000,0.8449339402199717,-0.17744690415243933,-0.0010034135052822309
2020711000000,0.8517767377922776,-0.17981835409945535,-0.0010033218162074954
2020726000000,0.8588318677631512,-0.18224541635909217,-0.001003089033339101
2020773000000,0.8656730960282157,-0.18457956244011867,-0.0010027686804265773
2020816000000,0.8724747762755114,-0.18689313754412445,-0.0010027759616950405
2020860000000,0.8795254475352047,-0.18928260259152363,-0.0010036906760150371
2020860000000,0.8863909571975365,-0.1915960390478012,-0.0010037181513308027
2020902000000,0.893263520635932,-0.19389937478322808,-0.0010036973504544584
2020927000000,0.9003503397609675,-0.19625983750182968,-0.0010037892830584254
2020973000000,0.9072272201806025,-0.1985274442616133,-0.001003810324278244
2021019000000,0.9140904218575563,-0.20076787521188447,-0.0010031300470506668
2021067000000,0.9211607282241215,-0.20305027857717822,-0.0010039737771030156
2021067000000,0.9280434719369864,-0.20524700963657563,-0.0010036788330673313
2021112000000,0.9349354064161188,-0.20742398809024076,-0.0010036178878573554
2021127000000,0.9420462092068326,-0.20964572497138212,-0.0010036337928044856
2021168000000,0.9485982247801149,-0.2116661695504583,-0.0010021939621160554
2021217000000,0.9549822695064742,-0.21360845006411142,-0.001003159469899411
2021258000000,0.9615716958499478,-0.2156037925579459,-0.001002573184260832
2021302000000,0.9681215261455869,-0.2175942398462649,-0.001002060501129394
2021302000000,0.9747691652123344,-0.21964551803417512,-0.0010022246068192228
2021347000000,0.9817564021513797,-0.22182588227451064,-0.0010023712585871883
2021360000000,0.9886670782453898,-0.22398650725568361,-0.0010032588799774277
2021403000000,0.9955946337253432,-0.2261429430118721,-0.0010032804905370854
2021444000000,1.0027371841634305,-0.22835013593942863,-0.0010038528883637432
2021488000000,1.0096706103613349,-0.23047775306415813,-0.0010041718991759298
2021502000000,1.0165791943086495,-0.2325818715233883,-0.001003816035310301
2021537000000,1.0237117422265056,-0.23472966983711638,-0.0010038735007309764
2021583000000,1.0306459493100957,-0.23680217496130024,-0.0010038110434551148
2021628000000,1.0375919535943758,-0.23887028470477834,-0.0010038473177803424
2021629000000,1.0447523920763984,-0.24099418065512102,-0.001003615117991255
2021674000000,1.051561458706368,-0.24300685945606482,-0.0010022308655356187
2021692000000,1.058449344658423,-0.24505287924778293,-0.0010026842644923935
2021735000000,1.0655479211827346,-0.24720824690767046,-0.0010025000274442551
2021779000000,1.0724343421544615,-0.2493452410581958,-0.0010023974695129445
2021820000000,1.079384232311624,-0.25154257667798163,-0.0010036513514058154
2021855000000,1.08654663287605,-0.2538423273667856,-0.001003796885723482
2021896000000,1.0934820617445018,-0.25610067707308215,-0.001004008743237285
2021897000000,1.1004084277885016,-0.2583811090307327,-0.0010041282574659513
2021932000000,1.107536119746518,-0.26074853234781337,-0.001003600204607425
2021960000000,1.1142563881877465,-0.263015404182043,-0.0010032299767205911
2022001000000,1.1208012803905716,-0.2652595107414956,-0.001003237070993826
2022045000000,1.1274572674112577,-0.2675633418809965,-0.0010037796350815288
2022086000000,1.13418391424527,-0.2699078361634534,-0.0010035268811065985
2022132000000,1.1410469443435352,-0.2723139798249149,-0.0010035004401459276
2022132000000,1.1481157375909972,-0.27480243101634355,-0.001003367471856885
2022176000000,1.1547708424505483,-0.2771519759046891,-0.001002363671168613
2022193000000,1.1612240400436094,-0.2794386296144488,-0.0010035966181920104
2022238000000,1.167808567697713,-0.28178973374743943,-0.0010030205728224044
2022285000000,1.174332756514963,-0.2841408285931015,-0.0010026670743903572
2022330000000,1.1809847422445952,-0.28656939225216077,-0.001002925527785508
2022330000000,1.1879949377534385,-0.28914233346357515,-0.0010042276457002779
2022380000000,1.1948133883407366,-0.29164671412240734,-0.0010042514652639258
2022393000000,1.2016313587873435,-0.2941486603846883,-0.0010035262488463682
2022430000000,1.2086379795983473,-0.2967207770762472,-0.0010033784942493004
2022477000000,1.2154252879798004,-0.2992055042560558,-0.0010036758706344524
2022521000000,1.2222215216313654,-0.30167426942656295,-0.001003516430999836
2022570000000,1.2292311244221281,-0.30420093575825946,-0.001003419556963734
2022570000000,1.2360525885435691,-0.30664429107003777,-0.00100343665456595
2022616000000,1.242881022171756,-0.3090805943785288,-0.0010033739114900242
2022627000000,1.249920147079243,-0.31158220956917965,-0.0010032447734243215
2022674000000,1.2567465813251752,-0.31399415332762676,-0.0010025384810786672
2022718000000,1.2635344028174473,-0.3163862176730722,-0.0010029261705577844
2022762000000,1.2705439764622068,-0.3188511080919657,-0.0010035102513749165
2022762000000,1.277395736793805,-0.3212576060243558,-0.0010037654014972176
2022805000000,1.2842500760736524,-0.3236686552751632,-0.0010040604074295183
2022827000000,1.2913115154497645,-0.3261556646233152,-0.001004192741306486
2022870000000,1.2981673331934611,-0.3285722378409799,-0.0010037684333627853
2022913000000,1.3050155614534271,-0.33099054665140804,-0.0010034629527732736
2022957000000,1.312055133595099,-0.33348260417610515,-0.0010039955443647518
2022997000000,1.3186951852338058,-0.3358478134274528,-0.0010038239173090942
2022997000000,1.3254157556143151,-0.338292837735383,-0.0010035956174124748
2023044000000,1.3324705013342364,-0.34090028272935513,-0.0010034816344971047
2023060000000,1.339290837617003,-0.343450933097902,-0.0010034191911412783
2023100000000,1.3461081920699614,-0.34601860934608875,-0.0010033576018514782
2023146000000,1.3531248899547537,-0.34867951918331047,-0.001003114979649982
2023191000000,1.3597129007044906,-0.3511912781183221,-0.0010028971108987476
2023235000000,1.3661558765417836,-0.35364747470137153,-0.001003274840966746
2023235000000,1.3727314077244093,-0.35616956657972726,-0.0010041236062772602
2023283000000,1.3792921497286073,-0.3587013215900986,-0.001003496888169881
2023293000000,1.3860392376439274,-0.36131787276597954,-0.0010042848559125468
2023338000000,1.3930112737056355,-0.36401928149646745,-0.001003884641279748
2023382000000,1.3997526152681472,-0.3666257859607638,-0.0010030001112779872
2023429000000,1.406486573277039,-0.36923379509949944,-0.0010039817638924954
2023430000000,1.4134571437994927,-0.37193494688792267,-0.0010035900727024677
2023472000000,1.4198237340259623,-0.37440891786979447,-0.0010033129402100584
2023493000000,1.4256881974983846,-0.37669924853990877,-0.0010033355781792243
2023537000000,1.4317899775799126,-0.3790777862796195,-0.001003220627032439
2023565000000,1.4380461325505511,-0.3815075174016457,-0.0010024228718618113
2023590000000,1.4447478614811076,-0.3841179943422689,-0.0010025782772964502
2023632000000,1.4517256506437306,-0.38684340143423485,-0.0010031464438089999
2023678000000,1.4585064848378808,-0.3894984421076554,-0.0010033745795981798
2023722000000,1.4652449650090147,-0.3921575311515557,-0.0010035263435275235
2023765000000,1.4722093185126004,-0.39492635423475386,-0.0010043073730593155
2023765000000,1.4786782910652474,-0.39751562985332745,-0.0010035292260419035
2023813000000,1.485014654466615,-0.4000701058171089,-0.0010044417874416796
2023827000000,1.4915424991490962,-0.40271300463458476,-0.0010035729577591197
2023868000000,1.4979703895247325,-0.40532074944659097,-0.0010025507304273241
2023912000000,1.5045339716298305,-0.4079728032316379,-0.0010017928599590185
2023955000000,1.511442939076027,-0.41076104034571254,-0.0010033510459189592
2023998000000,1.517811202348914,-0.413334960699407,-0.0010030074260921548
2023998000000,1.5241167418111283,-0.4158893623084571,-0.0010031727384386992
2024042000000,1.5306243286527372,-0.4185293908891984,-0.0010031212133906307
2024060000000,1.5371675357015737,-0.4211892579198803,-0.0010029879307740207
2024095000000,1.543885994146875,-0.423924341474038,-0.0010033339804949547
2024139000000,1.5508180356988983,-0.4267427364984493,-0.0010031326824204052
2024187000000,1.55732750370078,-0.42938547170268876,-0.0010032312278240654
2024233000000,1.5636946021221108,-0.4319523880228015,-0.0010037482998033823
2024233000000,1.5702107910058416,-0.4345793159482212,-0.0010042594949619468
2024277000000,1.576257537926473,-0.43701491210874627,-0.001002668302187329
2024293000000,1.582142432125962,-0.4393903453614571,-0.0010043542801339948
2024335000000,1.5882100236132217,-0.4418333650323099,-0.0010034697479951137
2024382000000,1.5942460979967716,-0.4442538317361143,-0.0010012034416862561
2024431000000,1.6005253351688096,-0.44673245161396336,-0.0010015571925406606
2024431000000,1.6072053299335223,-0.449328133388405,-0.001001784376064234
2024478000000,1.613604706044571,-0.45179994247167454,-0.0010031458616000348
2024491000000,1.6199443533849665,-0.45425540599895087,-0.0010031761032103167
2024536000000,1.626478318374504,-0.456794245997074,-0.0010030999998762065
2024584000000,1.6330993260010562,-0.45937885416664664,-0.001002846537602374
2024626000000,1.6398562174873323,-0.46202824909281187,-0.0010032509256239913
2024673000000,1.6468208863082288,-0.4647524943703609,-0.0010030635577141823
2024674000000,1.6537411142611935,-0.4674714201620599,-0.0010029548264513244
2024719000000,1.660572484655773,-0.4702012134521964,-0.0010039780197141392
2024727000000,1.6675548118077008,-0.47304641043627427,-0.0010045310181675086
2024760000000,1.674299297676174,-0.47584169401621323,-0.0010043158370300793
2024808000000,1.6810308777507375,-0.47866377608413274,-0.0010038354996894268
2024857000000,1.6879276322979069,-0.48159736420869437,-0.0010037091320760222
2024894000000,1.6945998252599612,-0.48446226180116236,-0.0010036776685393885
2024895000000,1.7012651224196391,-0.48733380229372214,-0.0010034666523449573
2024942000000,1.7080785721349458,-0.4902867266566674,-0.0010033579739807848
2024960000000,1.7144238140874808,-0.49306133432007904,-0.0010030295111666324
2025008000000,1.7206823625235594,-0.4958032653783813,-0.00100299832439334
2025049000000,1.7271335969485746,-0.498634473618473,-0.001003190555780395
2025077000000,1.733567245094904,-0.5014631559269516,-0.0010028856645077182
2025099000000,1.7401476046836462,-0.5043526730759395,-0.0010029702592642062
2025149000000,1.746969802506999,-0.5073283322295803,-0.001003109209278201
2025193000000,1.753492817007699,-0.5101642767580076,-0.001003867683052169
2025193000000,1.7597774697281174,-0.5128903602251711,-0.0010043905210914451
2025233000000,1.7662108978700455,-0.5156631460208003,-0.0010042510011837417
2025259000000,1.7726201636496182,-0.5184032258321969,-0.0010030520487508757
2025297000000,1.7791650138255246,-0.5211669179397419,-0.0010027891527148239
2025340000000,1.7859269975238568,-0.5239904590621449,-0.0010026700495087484
2025386000000,1.7925425447030852,-0.5267295619239792,-0.0010031704311560044
2025432000000,1.7992427352802562,-0.5295015205871344,-0.0010032531934400686
2025432000000,1.806148007524293,-0.5323582947520836,-0.0010031623198518934
2025469000000,1.8125397143618336,-0.535000027321964,-0.0010029677749172385
2025492000000,1.8188534443891886,-0.5375998604982356,-0.0010030869112878996
2025540000000,1.8253659346742288,-0.5402869460765959,-0.0010032759725150178
2025585000000,1.8318671023191966,-0.5429782097103508,-0.001002940830349141
2025626000000,1.8384541979875932,-0.5457129832129888,-0.0010028872358785225
2025669000000,1.8452115118926922,-0.5485297201238962,-0.0010027564306144786
2025669000000,1.8518201911655858,-0.551300486262738,-0.001002873387265693
2025718000000,1.8585033078635471,-0.5541174913599614,-0.0010043291737453879
2025727000000,1.8653969527035887,-0.557029802449864,-0.0010043389277848529
2025770000000,1.8718837512771611,-0.5597763116562613,-0.001002568564298801
2025811000000,1.878301398182389,-0.5625228493902945,-0.001003058939102245
2025857000000,1.8847811886285288,-0.565306448047345,-0.0010033881297907901
2025890000000,1.8910281375968332,-0.5679847198654115,-0.0010034515511999353
2025938000000,1.8974922323254877,-0.5707325246064197,-0.0010017612568279481
2025938000000,1.9038890774181134,-0.5734442462073495,-0.0010033969737800602
2025984000000,1.9100350996418958,-0.5760406600059637,-0.001003136932514654
2025995000000,1.916306363577758,-0.5786880436272146,-0.0010032047528012976
2026040000000,1.9227699402016523,-0.5814177759433897,-0.0010032909721520017
2026089000000,1.9289951731552228,-0.5840406988173541,-0.0010028413121130897
2026136000000,1.93543833305634,-0.5867342986599688,-0.0010028939956095682
2026136000000,1.9421180411350543,-0.5895424799243201,-0.0010023649819422761
2026180000000,1.9486563562735684,-0.5923066671011038,-0.0010027408130377745
2026193000000,1.95531005249691,-0.5951280078255092,-0.0010039738262029654
2026236000000,1.9621933859869856,-0.5980394255054916,-0.0010040599917850654
2026280000000,1.9686797253938368,-0.6007784530201271,-0.0010025777696591257
2026322000000,1.9750994324494204,-0.6035082727548484,-0.0010029847076773388
2026354000000,1.9815796239099992,-0.6062634254640031,-0.0010032985621792369
2026388000000,1.987864744744254,-0.6089223631535889,-0.001003446787715332
2026433000000,1.9943595659769684,-0.6116450012506309,-0.001001922823200295
2026433000000,2.00125491242454,-0.6145272253048343,-0.001003216548881445
2026475000000,2.0075266229206994,-0.6171456793588596,-0.0010028985331104016
2026493000000,2.0130935057919763,-0.6194576346885736,-0.001003307123613531
2026536000000,2.0186952676093526,-0.6217704981030535,-0.0010032852131367023
2026582000000,2.0238210488999306,-0.6238738439029115,-0.0010018120563724496
2026626000000,2.0288221835355955,-0.6259027445233455,-0.0010037119311179683
2026659000000,2.0339152460629455,-0.6279672249348335,-0.0010038107886739533
2026689000000,2.039056102730232,-0.630052862429278,-0.0010022857045900932
2026732000000,2.0445785923315984,-0.6323353947354307,-0.0010022961651494217
2026733000000,2.0506844236680672,-0.6349354368993659,-0.0010025701097544533
2026776000000,2.0567633381664367,-0.6375974984902716,-0.0010017587786478183
2026790000000,2.062908200720671,-0.6403151640196596,-0.001003645210325789
2026836000000,2.069236852041831,-0.6431146295029152,-0.0010032050795212924
2026877000000,2.0751993574914605,-0.6457558119815605,-0.001003239941094209
2026898000000,2.080973455042788,-0.6483117818175025,-0.0010036329061582673
2026927000000,2.0869177699963246,-0.6509279252203755,-0.0010033749794343128
2026968000000,2.0929881320484522,-0.6535842692536068,-0.001002078165551909
2027018000000,2.0995538194900125,-0.6564363961803678,-0.001003248208092257
2027067000000,2.1063965032266188,-0.6593787016871138,-0.001003230932281239
2027067000000,2.1129712881482754,-0.6621792351089323,-0.001003194026362484
2027106000000,2.1193238408830557,-0.6648574246035153,-0.0010033822438269488
2027127000000,2.1257738585143167,-0.6675457300264088,-0.0010034254514412755
2027169000000,2.1321675820275887,-0.6701833802871446,-0.001002702452625872
2027214000000,2.138699005006352,-0.672863998969466,-0.0010029973451308564
2027259000000,2.145581540623322,-0.6756539521452208,-0.0010040825155369117
2027293000000,2.152003661170883,-0.6782211845554326,-0.001004319164117081
2027293000000,2.1583160314711622,-0.6807212773028188,-0.001003896792414992
2027327000000,2.1648281134810357,-0.6832748042283074,-0.0010031509109911484
2027360000000,2.1711214886500074,-0.6857228633431076,-0.0010038075348037107
2027399000000,2.177344880862617,-0.6881210308621517,-0.0010037931461340105
2027443000000,2.183499158959923,-0.6904751755537609,-0.0010034245120847732
2027487000000,2.1896662928897483,-0.6928100161916889,-0.0010021259412416259
2027532000000,2.196332022047411,-0.695307519404828,-0.0010031413047628251
2027532000000,2.2033139611008776,-0.6978964975640729,-0.0010033137785185053
2027576000000,2.210039370820458,-0.7003620840787363,-0.001003475704949349
2027590000000,2.2165358669593744,-0.7027222208032042,-0.0010028009820051177
2027635000000,2.223098925881239,-0.7050803262967964,-0.0010033582938201308
2027679000000,2.229356009308723,-0.7073115847775995,-0.0010035915650437183
2027723000000,2.2353885393115944,-0.7094742399945354,-0.001003835260258358
2027767000000,2.2415964210391275,-0.7117210782050631,-0.0010040646305980103
2027767000000,2.2478750523793947,-0.7140144770411133,-0.001002701381524078
2027811000000,2.2545942641993215,-0.7164794406159728,-0.0010036894995429403
2027827000000,2.261619928236041,-0.7190433444402448,-0.001003448807376909
2027867000000,2.268204798650895,-0.721445293715044,-0.0010032850707262647
2027910000000,2.274599252138916,-0.7237912878683801,-0.00100397980977349
2027951000000,2.2811846842960426,-0.726214303192849,-0.001003794375267826
2027977000000,2.28733336523477,-0.7284791489354461,-0.0010033196842329575
2027999000000,2.2930670945629275,-0.7305716027225252,-0.001003237007262927
2028038000000,2.2988246000752097,-0.7326617546785642,-0.0010034381501985504
2028085000000,2.3043589534150364,-0.7346667872404957,-0.0010036278943980834
2028130000000,2.3097990177113887,-0.7366454839935714,-0.0010032421861078215
2028130000000,2.3153609057549875,-0.7386862053155537,-0.0010026104715173123
2028173000000,2.320647951094111,-0.7406346560852664,-0.0010023208365736204
2028193000000,2.3257226155865354,-0.7425000945658574,-0.0010034476040414915
2028237000000,2.3307804929969045,-0.7443630880413359,-0.001003732418059549
2028281000000,2.3356604586419727,-0.7461692574035493,-0.0010039046950928755
2028325000000,2.3405382517087503,-0.747983352424389,-0.0010040661190808126
2028369000000,2.345560753104613,-0.7498602741096857,-0.001004118164749889
2028369000000,2.350444953872036,-0.7516872833638825,-0.0010039272848576149
2028416000000,2.3550144628391627,-0.7533835448990295,-0.001003241612315204
2028427000000,2.3594915890999006,-0.7550573320587383,-0.0010047758498106449
2028466000000,2.36356133590692,-0.7566028506708738,-0.0010029362604239353
2028515000000,2.367153642209842,-0.7580062431263069,-0.0010032013400286567
2028557000000,2.3703240768991147,-0.7593079016125794,-0.0010031394813245671
2028598000000,2.3728812330408835,-0.7604231670801059,-0.0010031419459474514
2028598000000,2.375096453886999,-0.7614622552516513,-0.0010031254896532317
2028642000000,2.3771862221106743,-0.7625117360557387,-0.001003109309394068
2028660000000,2.3790330751778392,-0.763497351735319,-0.0010030886221778224
2028705000000,2.3807067268465727,-0.7644394025708867,-0.0010030672920827537
2028745000000,2.3822556500700056,-0.7653540677797154,-0.0010030521309293793
2028790000000,2.3835940152488946,-0.7661787292393036,-0.0010030375667591622
2028832000000,2.384774787372179,-0.7669335862170598,-0.0010030245705836029
2028832000000,2.385831299034913,-0.7676313322352533,-0.0010030123512292273
2028874000000,2.386705620435919,-0.7682251299356964,-0.0010030003548278064
2028893000000,2.387434787624225,-0.7687318924326403,-0.0010029932503479722
2028935000000,2.388037489375686,-0.7691588844276831,-0.0010029839523168459
2028978000000,2.3884809184783014,-0.7694777330866267,-0.001002978337414688
2029018000000,2.3887868950084528,-0.7697000978978951,-0.001002972928029127
2029040000000,2.388959910566041,-0.7698267328591981,-0.0010029732623101466
2029070000000,2.3889958522876404,-0.7698485143514978,-0.001003075498148355
2029114000000,2.3889913590840792,-0.7698420664146622,-0.001004033698066762
2029157000000,2.3889926438319806,-0.7698419120508218,-0.0010039436771433798
2029190000000,2.3889921952687363,-0.7698408894715988,-0.001003936082218302
2029224000000,2.3889922038847815,-0.7698401558644322,-0.001003947513116308
2029266000000,2.388992120578584,-0.7698393239560595,-0.0010039478214126166
2029266000000,2.388992126952571,-0.7698385842310053,-0.0010039544719647221
2029307000000,2.3889920947976564,-0.7698377537952076,-0.0010039505563501083
2029327000000,2.3889920228855397,-0.7698368458519719,-0.001003952483826797
2029372000000,2.388992021076281,-0.7698360246122106,-0.001003950579098526
2029408000000,2.3889919682581238,-0.7698351574110565,-0.001003950657967656
2029454000000,2.3889919629655467,-0.7698343052619315,-0.0010039499545824934
2029499000000,2.388991935519921,-0.7698334586653068,-0.0010039494092419846
2029499000000,2.388793733129022,-0.7696894352681273,-0.0010030082881223416
2029544000000,2.3882134355273195,-0.7692486351188177,-0.0010024889959083828
2029560000000,2.387323087050709,-0.7685507852788748,-0.0010018388786825275
2029604000000,2.3861472063786118,-0.7675871036313652,-0.0010012322824529928
2029650000000,2.384852614938823,-0.7664655203914352,-0.0010014630208576639
2029695000000,2.383525111224499,-0.765253519034005,-0.0010016930224676056
2029695000000,2.381927758725909,-0.7637221478308946,-0.0010020900638002019
2029737000000,2.3798546393553557,-0.7616159462473644,-0.0010021362439707644
2029760000000,2.377473363594428,-0.7590356041046479,-0.0010024881061039964
2029801000000,2.374802410357296,-0.7559343283574035,-0.0010021718306201938
2029849000000,2.371835279205742,-0.7522404488830859,-0.0010029886937074906
2029890000000,2.3689822972497168,-0.7484259592150837,-0.0010024825208143073
2029938000000,2.366448255505182,-0.7447937396069578,-0.0010022917402516991
2029938000000,2.3642981049697407,-0.7414355172792487,-0.0010029900554067543
2029981000000,2.3624916534321074,-0.7383709565588887,-0.0010026054175827255
2029993000000,2.3606888881130716,-0.7350575273326153,-0.0010019790923557585
2030031000000,2.3587688178361836,-0.7312600504214898,-0.0010029420850982372
2030061000000,2.3570174823408134,-0.7275123864794005,-0.0010026071034120315
2030093000000,2.3553072010650373,-0.7235545821517864,-0.0010026273912416665
2030133000000,2.3537153524209034,-0.7196135211076508,-0.0010024540308674057
2030176000000,2.352284834026443,-0.7158199652406173,-0.0010024172197898203
2030221000000,2.350769139835389,-0.71150410089248,-0.0010028338705869305
2030263000000,2.3492376206571164,-0.706812030879969,-0.0010025393958225
2030263000000,2.3478643168371276,-0.7022695582842848,-0.0010027599124208184
2030307000000,2.34668551507221,-0.6980504707218395,-0.0010029307207185638
2030327000000,2.3456851771104668,-0.6941319175832839,-0.0010027319594722271
2030362000000,2.34482484909041,-0.6904496042739084,-0.001002559982905979
2030412000000,2.3439745520884325,-0.6864619817728866,-0.0010025458206161658
2030460000000,2.343092752327175,-0.6820839996797944,-0.0010020801270397908
2030461000000,2.3422687174073578,-0.677727222892433,-0.0010022171601676046
2030505000000,2.341438061344007,-0.6729737242229491,-0.0010024705044607493
2030526000000,2.3405274864427645,-0.6674066415633726,-0.0010025355861473587
2030569000000,2.339612945061619,-0.661360050046195,-0.0010028281055812702
2030611000000,2.33874518367528,-0.6549555038735541,-0.001001245802815489
2030656000000,2.337981342562491,-0.6482757384774658,-0.0010020704865555917
2030700000000,2.337364360232682,-0.6417060295362312,-0.0010023772967205323
2030701000000,2.336871684318849,-0.6349895512505206,-0.001002332456217326
2030732000000,2.3365338704488168,-0.6279856429568612,-0.0010015058644592331
2030760000000,2.3363504921902236,-0.6209727488145796,-0.0010039180904182349
2030805000000,2.336317986321854,-0.6140358185779042,-0.0010022481865662528
2030844000000,2.3364765790061144,-0.6072361273538949,-0.00100165730796686
2030879000000,2.3368288675509086,-0.6006556404838199,-0.0010021233006702636
2030920000000,2.3373928963459467,-0.5939750135832533,-0.0010022099796266545
2030949000000,2.338238496975801,-0.5869079150602996,-0.001002194423258794
2030992000000,2.3393114109088433,-0.5800662492982495,-0.0010019433494937828
2031025000000,2.34061472570104,-0.573419711941261,-0.0010012171063774056
2031063000000,2.3422788499833307,-0.5666246963215643,-0.0010017084040561813
2031063000000,2.344206437219892,-0.5600257191401201,-0.0010018790534680432
2031110000000,2.3464213208703013,-0.5535123740725617,-0.0010022098168195222
2031127000000,2.348906135687049,-0.5471632428384362,-0.0010008328724690901
2031169000000,2.3515320396177355,-0.5413892792392074,-0.001000976897308499
2031215000000,2.3545010863532188,-0.5356769782556838,-0.001001482117162656
2031256000000,2.357746063803599,-0.5301913886587226,-0.0010009517006979995
2031292000000,2.3609825797991113,-0.5254241693049482,-0.0010017879831437128
2031336000000,2.364495572580001,-0.5208910169729646,-0.0010018381673163636
2031336000000,2.3684157867840936,-0.516457252129536,-0.0010019042958782608
2031382000000,2.3724998966173136,-0.5124082434683777,-0.0010021154978717486
2031393000000,2.3768403765007218,-0.5086286429712132,-0.001002456604971745
2031438000000,2.3812936895308834,-0.5052334925299996,-0.0010001328522181302
2031481000000,2.385402655044765,-0.5024692714144863,-0.0010008960415708555
2031531000000,2.3892402566421946,-0.5003103963834724,-0.0010010804552480698
2031532000000,2.39271017971051,-0.49870205130841794,-0.0010011434771565082
2031568000000,2.395427070774469,-0.49767964371521045,-0.0010012550364325752
2031593000000,2.3973568036078072,-0.4971091711541296,-0.001001465365031779
2031627000000,2.3984020910979567,-0.4968834942860175,-0.0010017768674746332
2031664000000,2.398425041645673,-0.4968902622261101,-0.0010020729773085255
2031708000000,2.397466071631307,-0.49698560864535274,-0.0010025067979122677
2031748000000,2.3956989701934908,-0.49703801682970167,-0.0010027323566504098
2031792000000,2.3942260934032484,-0.4969942108892002,-0.0010024342612854377
2031836000000,2.3933839904455976,-0.49691832826544385,-0.0010020666059593723
2031836000000,2.3927153271826427,-0.49681379669531434,-0.0010028281084682455
2031875000000,2.392219823266761,-0.4967076373221527,-0.0010031926580455798
2031893000000,2.391733106144483,-0.49657487368811454,-0.0010033849688270424
2031932000000,2.391147722325163,-0.4963744923476212,-0.0010013870816945568
2031974000000,2.3904124501846957,-0.496078347735562,-0.0010011268862177222
2032023000000,2.3893341459954116,-0.49557312735524994,-0.0010014221354500627
2032064000000,2.3877826022751636,-0.49474916073973113,-0.0010015401633342823
2032065000000,2.385775069833896,-0.4935633824700355,-0.0010017335298414566
2032108000000,2.3832227085347455,-0.49190052980086646,-0.001002010834666986
2032127000000,2.380011520530618,-0.4895950264396254,-0.0010023480565707656
2032168000000,2.3764072075615372,-0.4867494314716653,-0.0010029072945491047
2032200000000,2.3727158612845445,-0.48353069748490984,-0.0010032530993009485
2032231000000,2.368915766177769,-0.47980301499219186,-0.001002947145706895
2032272000000,2.3652039283723045,-0.47572333995026694,-0.0010029402229075543
2032321000000,2.3615719859986677,-0.47128255884499254,-0.0010032712082856353
2032346000000,2.357945728223645,-0.46637297785829435,-0.0010026438396440393
2032386000000,2.3544579281590132,-0.46111448243101333,-0.0010034211868285604
2032431000000,2.351092743328625,-0.4554685945340618,-0.0010034741585960363
2032431000000,2.34773842527276,-0.4491425543316121,-0.0010030027842133013
2032458000000,2.34454515234056,-0.44230730185149897,-0.001003543878332045
2032492000000,2.341737921267883,-0.43545390792730765,-0.00100388079781423
2032531000000,2.339134664506839,-0.4281178437523163,-0.001004383784937779
2032563000000,2.3368953473089475,-0.42079607115677603,-0.0010047261195282563
2032608000000,2.334975249290405,-0.4134044606723347,-0.00100430638190354
2032656000000,2.33337823839257,-0.4059179137364478,-0.0010039806607475658
2032697000000,2.3321367714001275,-0.39854662193500695,-0.0010043071767149685
2032698000000,2.33115968993984,-0.3910135385192412,-0.001003817140787712
2032737000000,2.3304924587169293,-0.3837159059160935,-0.0010033362629997614
2032760000000,2.3301281089355177,-0.3769973226175767,-0.0010034037684157442
2032804000000,2.3299981319745404,-0.3700075977303732,-0.0010033353198692398
2032852000000,2.3301602728814137,-0.36236137210134134,-0.0010038085040993544
2032897000000,2.330612058112902,-0.3547695092683625,-0.0010051607328368621
2032897000000,2.331330945240983,-0.34724482317089744,-0.0010045212584736743
2032927000000,2.332322346008141,-0.33952385774239474,-0.0010045537932652712
2032959000000,2.3334399084626836,-0.3321007949566389,-0.0010044690997317585
2033004000000,2.334770695673195,-0.32488825429654383,-0.0010034214025620505
2033049000000,2.3363745476329334,-0.3177824491046316,-0.0010045260037463838
2033093000000,2.3381232675213695,-0.3109277134385302,-0.0010038721611207412
2033128000000,2.3401007427503844,-0.3040326716517042,-0.0010031579282561015
2033128000000,2.3423412809440673,-0.29712196252115625,-0.0010025524263789012
2033163000000,2.3446836262933,-0.29050969271471216,-0.0010033739563785893
2033193000000,2.3473012003252203,-0.2836466366064288,-0.0010033716826195506
2033231000000,2.350218611247175,-0.2765171932599427,-0.0010037680402067359
2033265000000,2.3532103903397337,-0.2696677965258844,-0.001004130977235465
2033310000000,2.3562793735454948,-0.26305393889582634,-0.0010031392009128975
2033356000000,2.3595581712695273,-0.2564119704662932,-0.0010035397585903515
2033404000000,2.362822848206735,-0.25015574532325807,-0.0010038817857041804
2033404000000,2.3663187573293487,-0.24378038363812815,-0.0010022406461213974
2033450000000,2.3701391740197817,-0.2371234561993858,-0.001003654921235473
2033460000000,2.3739781949115852,-0.23074610493145248,-0.001003436333021638
2033498000000,2.377946244997211,-0.22444748458726263,-0.0010034895319677578
2033542000000,2.382166957275658,-0.21803916342491192,-0.0010036744188374365
2033587000000,2.3863897233313427,-0.21190200687828614,-0.0010039658362061485
2033629000000,2.39057146632198,-0.20606809017016292,-0.001004915753373338
2033629000000,2.3948559400059004,-0.20030159306485765,-0.0010050665411713462
2033675000000,2.3990908943261946,-0.19479772724957062,-0.0010046860496857914
2033693000000,2.4034225311446273,-0.1893450279334169,-0.0010034510131589833
2033736000000,2.4080364229762283,-0.18370664370190884,-0.0010030300815063037
2033781000000,2.4126859962931477,-0.1781517577426941,-0.0010038951049603367
2033825000000,2.4173785479155088,-0.1726693620926228,-0.0010022450593136605
2033869000000,2.422277480083277,-0.16713359509291761,-0.001003310151366562
2033870000000,2.4269354836296033,-0.16198980949653452,-0.0010028437363958295
2033910000000,2.431852088169237,-0.15666021698070398,-0.0010022571027527155
2033927000000,2.437059322885976,-0.1511287188522353,-0.001002730291464228
2033970000000,2.442154193617614,-0.1458230339157617,-0.0010029951389657066
2034007000000,2.4472098758278373,-0.1406667006684999,-0.001003525324365269
2034027000000,2.452311146532368,-0.1355796396870825,-0.0010041077250517207
2034068000000,2.45726436832994,-0.13073063004707,-0.00100459781655143
2034118000000,2.462390372276234,-0.12580116951501727,-0.001003380762019515
2034161000000,2.4678515018585747,-0.12064692915050687,-0.0010032849935543917
2034162000000,2.4731647133538304,-0.11570792810923035,-0.0010036479998664534
2034207000000,2.478468668869076,-0.11087207088568606,-0.0010037849339090792
2034227000000,2.484017411911673,-0.10589807099869128,-0.0010038903456181247
2034260000000,2.4894898734284414,-0.10106617747119172,-0.0010036970936967635
2034294000000,2.494943559699082,-0.09632918530408904,-0.0010033774919112996
2034326000000,2.500408624965907,-0.0916816693276886,-0.0010028739036121552
2034372000000,2.5056778150854946,-0.08725937555277077,-0.0010027209924433206
2034422000000,2.511239095182059,-0.08265641204973045,-0.0010026118928378874
2034461000000,2.517126515879831,-0.07786682032693447,-0.001003099273199918
2034463000000,2.5228461060037697,-0.07327845525017744,-0.0010036115523559958
2034505000000,2.5285809740965317,-0.06873211475786137,-0.0010040665148965434
2034527000000,2.5345065022439877,-0.06407647451569443,-0.0010044622664941022
2034569000000,2.540270770015176,-0.059587245272422894,-0.001004036614068067
2034612000000,2.545928053290183,-0.05521683312586208,-0.0010019570090020434
2034653000000,2.551657425816144,-0.05086035437524668,-0.0010039156706808175
2034692000000,2.5571179439036613,-0.046749413628338156,-0.001003963097222886
2034713000000,2.5626920606872194,-0.04258860576703143,-0.0010025995204624091
2034750000000,2.5685514711793362,-0.03828435438145531,-0.0010023315509083558
2034793000000,2.574361474700659,-0.03408183553782837,-0.001002153374928462
2034793000000,2.580019646743382,-0.030033531647949634,-0.001003039069729983
2034837000000,2.585776848641759,-0.025952028346171985,-0.0010029846011631559
2034860000000,2.5913853757035423,-0.022013311292222244,-0.001002984127242798
2034898000000,2.5972910739202533,-0.017905215714151518,-0.0010030781885108225
2034946000000,2.603500072635901,-0.013631333031945532,-0.0010035114374914687
2034990000000,2.609547415000718,-0.009512881466114976,-0.0010039409111540117
2035017000000,2.615595832997215,-0.005429653366800599,-0.0010037320858585635
2035053000000,2.6218255858564947,-0.0012414322930874044,-0.0010035281822690367
2035095000000,2.6278443300578855,0.0027836519299466646,-0.0010039924316808738
2035095000000,2.633683813573434,0.00667139123135387,-0.0010044737336180158
2035143000000,2.6395641614887997,0.010557368276819456,-0.001004047393614045
2035160000000,2.6452731337132027,0.014314842313969563,-0.0010036072789334216
2035200000000,2.6511317931099905,0.01814964774016959,-0.0010025562972477801
2035237000000,2.6572533670447576,0.02210022099049872,-0.0010020971240609702
2035281000000,2.663301293488924,0.025952974093930645,-0.0010021697462735055
2035322000000,2.669232065398864,0.029695963877736254,-0.001003052878061926
2035367000000,2.6752223937991175,0.03343819886081834,-0.0010031591642927287
2035367000000,2.6810453625328203,0.03704926950666701,-0.001003228835496417
2035405000000,2.686623703956084,0.040480130538949256,-0.0010034175299054107
2035426000000,2.692260839823163,0.043913465695043376,-0.0010037283599177924
2035471000000,2.697728603667303,0.04722171410105029,-0.0010039014601394697
2035504000000,2.703388970023921,0.050632664951851473,-0.0010025198998887784
2035543000000,2.709359452427837,0.05425597316393632,-0.0010012929617620112
2035589000000,2.715170531886528,0.05781486455085855,-0.0010019345642016224
2035628000000,2.7211013463835663,0.06147141111189015,-0.0010023507827710172
2035628000000,2.7274222179654486,0.06537270462446977,-0.0010037164383340062
2035673000000,2.7336098591217532,0.06918292021894332,-0.0010033680292549502
2035693000000,2.739880425464422,0.07302468838955145,-0.0010038534348808664
2035736000000,2.7463209639023076,0.0769243818125503,-0.0010030759198049986
2035778000000,2.7525878850263323,0.08066919219607877,-0.001003343164802082
2035822000000,2.758851513874085,0.08437317806453865,-0.0010032587553991112
2035865000000,2.7653268177798207,0.08817604872714581,-0.0010034562900311204
2035865000000,2.7716271823550893,0.09185002549167853,-0.0010036873906392359
2035914000000,2.777919144086124,0.09550204362024654,-0.001003744433673813
2035927000000,2.784395799182755,0.09925970681083725,-0.001003825383053835
2035973000000,2.7906728413316335,0.10290297444328973,-0.0010032214841169326
2036011000000,2.796903307847441,0.10652221311593857,-0.001003361198372077
2036054000000,2.8033469437671146,0.11026838128960736,-0.0010041088404797623
2036095000000,2.8096202617469803,0.1139150522570582,-0.0010038864311702825
2036095000000,2.815743038556123,0.11746945852171961,-0.0010030744823225253
2036139000000,2.8218491098859966,0.12099497996146762,-0.0010034888365949048
2036160000000,2.8277601140162854,0.12440543526806667,-0.0010029248733200886
2036200000000,2.833761584430688,0.1278573457153116,-0.0010018280768929397
2036243000000,2.8400062325333124,0.13142238542379953,-0.0010021347541888798
2036292000000,2.846196973830475,0.13493928457479298,-0.0010021308044144313
2036341000000,2.8525065884197245,0.13852199654309016,-0.0010032849025448584
2036341000000,2.859012035886919,0.14221747606115634,-0.0010034363994018934
2036382000000,2.8653286527472024,0.14580676449713662,-0.001003610033121792
2036393000000,2.8716485529282436,0.14939789198984746,-0.0010037753260255036
2036435000000,2.8781553432733595,0.1530944732278948,-0.001003421713358578
2036478000000,2.8844408362800085,0.15666644812687722,-0.0010032280894744228
2036525000000,2.8906595565901148,0.1601974958495075,-0.0010023898327397932
2036571000000,2.897169045213137,0.16387305649660888,-0.0010040111158446142
2036571000000,2.903522187931166,0.16743468848255175,-0.0010038951045577074
2036615000000,2.909867824389493,0.17097371179496954,-0.001003580270289458
2036627000000,2.916409834247959,0.17461415512254433,-0.001003040441179718
2036672000000,2.9227512662319226,0.17813544515449062,-0.0010027808216559117
2036715000000,2.928835191491467,0.18150487230247164,-0.0010028450784350731
2036758000000,2.9349887572896347,0.18491297056806058,-0.0010032594035378622
2036802000000,2.9409709481674704,0.1882167830112778,-0.001003457218044384
2036802000000,2.9470210703633968,0.19154049854976143,-0.0010037952158980963
2036846000000,2.9534956397329326,0.1950625500614244,-0.0010038393659842978
2036860000000,2.9598945667658185,0.198528927007485,-0.001003874502008631
2036902000000,2.966277764230616,0.20198033860862233,-0.001003671867478767
2036943000000,2.9728162560636653,0.20552617473922083,-0.001002942518641966
2036987000000,2.979138460588945,0.20896002498480656,-0.001003346634387111
2037029000000,2.985182500667289,0.21224755071899803,-0.0010029460776355484
2037030000000,2.991290208696504,0.21555424008879487,-0.001003724509126249
2037071000000,2.997286111937681,0.21880338832576796,-0.0010036638300982698
2037093000000,3.0033520555788504,0.22208319231044088,-0.0010034197446747127
2037131000000,3.0096927389293784,0.22547526663125733,-0.0010025809344407326
2037171000000,3.0158789025702153,0.22875433102385817,-0.0010021809973945993
2037216000000,3.022033392660483,0.23198772765258077,-0.0010020886233488256
2037260000000,3.028491392532983,0.23536409221945798,-0.0010021982679897026
2037297000000,3.0349018205651612,0.23871612062852737,-0.0010033548003728528
2037297000000,3.0410608123747713,0.24195234322160206,-0.0010037347764322302
2037342000000,3.0472215404376266,0.24522426329465746,-0.0010038240835165552
2037360000000,3.0531837472779504,0.2484314713653069,-0.0010038617811513224
2037404000000,3.059240747549188,0.2517375513226618,-0.001002396005238524
2037446000000,3.065459983212738,0.2551955712822077,-0.0010017574755169442
2037487000000,3.071495775413495,0.2586093727507564,-0.0010016328977471012
2037529000000,3.0774606094152,0.2620247205826353,-0.001003319811544695
2037529000000,3.0834933523988957,0.26548260772479726,-0.001003669718361501
2037573000000,3.089361440003757,0.2688711762913564,-0.0010036222786464523
2037593000000,3.095192466974571,0.2722697439931674,-0.0010031993270191372
2037633000000,3.1011718847953627,0.27580263367243396,-0.0010027216393053776
2037678000000,3.106940615932851,0.2792459580198211,-0.0010029123171994662
2037725000000,3.1129512459044864,0.2828691942077059,-0.0010018679341421213
2037773000000,3.1193072237800012,0.286717978651004,-0.001003023986010678
2037773000000,3.1254747745418925,0.2904857405673922,-0.0010032537117496652
2037814000000,3.131373844355718,0.2941156428896648,-0.00100345205046512
2037827000000,3.137337005309036,0.2978060970953058,-0.0010037654585750393
2037861000000,3.143108027951837,0.30140640506031646,-0.001003967204612384
2037905000000,3.14898078913537,0.3051022645372703,-0.0010027996114617896
2037954000000,3.155032067108833,0.30895913624757715,-0.0010027254562403297
2037998000000,3.160894319040763,0.31273346844212446,-0.0010016680130283812
2037998000000,3.1665222939779887,0.3163910838390124,-0.0010027286582439468
2038041000000,3.1722417220553805,0.32013048824484897,-0.0010028748702869857
2038058000000,3.177921752426317,0.3238605297533944,-0.0010036409993856195
2038093000000,3.1837153478266598,0.3276770299905315,-0.0010026309482431515
2038140000000,3.189709655155794,0.3316108971398048,-0.0010019032444760628
2038185000000,3.195595461972436,0.33546433515170343,-0.0010020931275811357
2038230000000,3.2016332603286104,0.3394171420070249,-0.0010028759265100287
2038230000000,3.207874536182083,0.3435148046615897,-0.0010030510572087668
2038273000000,3.2139319689565418,0.34750177625050543,-0.0010031182973082968
2038293000000,3.219993401774851,0.351498920734448,-0.0010030880003372676
2038332000000,3.226238697975318,0.35562390319585513,-0.0010033107269115903
2038363000000,3.2322965703204605,0.35963306918026594,-0.0010035787952121095
2038408000000,3.238342506941681,0.36364496045610706,-0.001003006857180841
2038452000000,3.244540187716084,0.3677571782727418,-0.0010036893060210994
2038491000000,3.250568769716537,0.37176156192848664,-0.001004373908177765
2038532000000,3.256393074286342,0.37563326589594437,-0.0010037235702601115
2038532000000,3.262236348781505,0.37952358434714417,-0.0010036696694318836
2038576000000,3.267908376761083,0.3833064104639351,-0.0010031262899908994
2038593000000,3.273668269467554,0.38713889289900383,-0.0010020561900331744
2038635000000,3.2796826818502836,0.3911190938764494,-0.0010021539866854716
2038674000000,3.2856555257398687,0.3950607341284193,-0.0010027855580771287
2038724000000,3.291306883433296,0.39880236452841306,-0.0010033494492690531
2038766000000,3.297043775961831,0.40261778865970305,-0.0010030024125382009
2038766000000,3.302702517133284,0.4063928944658323,-0.0010032706541192697
2038811000000,3.308597948342846,0.4103376992764971,-0.001002878730770821
2038828000000,3.3148244565661065,0.4145076261584074,-0.0010039117723804926
2038860000000,3.3208651771150883,0.41855115901916146,-0.0010039778755020108
2038904000000,3.3268916764575005,0.42259078172141556,-0.0010033016869682963
2038931000000,3.3329133989142092,0.4266219515307132,-0.0010036660814048658
2038961000000,3.3385913128177744,0.43041383366782077,-0.0010043745885843676
2039011000000,3.34426549854706,0.43420415974573995,-0.0010040458555820274
2039053000000,3.350111680220458,0.43810318669637277,-0.001003572045611495
2039099000000,3.3557771123338744,0.4418798736609062,-0.0010029780207531126
2039101000000,3.3615302239767146,0.44569895008404065,-0.0010021223933185698
2039141000000,3.3675683826466787,0.4496822298076712,-0.0010021927058376304
2039160000000,3.373581663538066,0.45363958709154834,-0.0010028504812775799
2039201000000,3.379233808958209,0.4573708531294153,-0.0010033464297397043
2039246000000,3.384980906168971,0.46117373275455514,-0.0010030508892509074
2039290000000,3.3906538376709707,0.4649351532555544,-0.0010030525018597698
2039333000000,3.3965597632326414,0.4688616677810231,-0.0010027127161536635
2039333000000,3.4027993912978145,0.4730137405888927,-0.001003963594725668
2039376000000,3.408851573602683,0.4770388588835567,-0.0010038233535795936
2039393000000,3.4149182016139177,0.48108207558582183,-0.001004090954423248
2039440000000,3.421111634521697,0.4852235692212783,-0.0010044073003240353
2039483000000,3.427119675255996,0.4892620178155537,-0.0010042247881512055
2039528000000,3.432945657465577,0.49319760565270204,-0.0010026438468232445
2039528000000,3.4387551388753805,0.4971421157044127,-0.0010040122672985152
2039572000000,3.444353490984301,0.5009529538366883,-0.0010032074240182466
2039593000000,3.4497572198946527,0.5046480698330567,-0.0010029718951561906
2039635000000,3.4551266337969992,0.5083297848130143,-0.0010029268218763876
2039674000000,3.460333149471922,0.5119129522245826,-0.0010029046044209913
2039722000000,3.465836096694562,0.5157089381369666,-0.001002122286971805
2039765000000,3.471975744111753,0.5199414310044845,-0.001003120246598481
2039765000000,3.477971404678017,0.5240659405823119,-0.0010034782545583834
2039809000000,3.4839556417140725,0.5281823931452521,-0.001003574117430326
2039824000000,3.490112914363661,0.5324323693857059,-0.0010037737964448262
2039868000000,3.4960746979819612,0.536566459006317,-0.0010038515842934678
2039908000000,3.5018570247945116,0.5405872432219692,-0.0010034412994782416
2039953000000,3.5076814210088068,0.5446214175612354,-0.0010036635299299664
2039999000000,3.5132664910058162,0.5484984232270947,-0.001004223019268738
2040000000000,3.518985848858689,0.5524836546532722,-0.0010017607888706224
2040047000000,3.5250354760831226,0.5567020513583454,-0.0010029820528555562
2040060000000,3.5309092254582466,0.560780446742515,-0.0010023571161017868
2040093000000,3.5367858858904895,0.5648566701901064,-0.0010024987309287144
2040138000000,3.5428999333594295,0.5691128993555525,-0.0010028269310435219
2040179000000,3.548828762312255,0.5732607455569123,-0.001002852278708808
2040203000000,3.5547627255969716,0.5774273538514005,-0.0010029594354539588
2040243000000,3.5608773019214244,0.5817301449431977,-0.001003047423554726
2040287000000,3.5668128411347104,0.585915407805354,-0.001003136135896688
2040333000000,3.5727338012332774,0.5901057403774352,-0.001003788411962147
2040333000000,3.5788199916864314,0.594435994855393,-0.0010040843818352359
2040376000000,3.584703692973898,0.5986505358201409,-0.0010035195039789988
2040393000000,3.5903954627240235,0.6027417693053277,-0.001002824685760323
2040436000000,3.596078295731916,0.6068285860694766,-0.0010044753838761265
2040482000000,3.601585729341621,0.6108115461330506,-0.0010040650852293637
2040524000000,3.606911349745555,0.6146938179857584,-0.0010041881071416806
