%time,field.x,field.y,field.z
1659376125678838491,-0.30509698390960693,-1.3049110174179077,0.0
1659376125711990833,-0.30509698390960693,-1.3049110174179077,0.0
1659376125767429351,-0.30509698390960693,-1.3049110174179077,0.0
1659376125795960664,-0.30509698390960693,-1.3049110174179077,0.0
1659376125853027343,-0.30509698390960693,-1.3049110174179077,0.0
1659376125896995306,-0.3050752580165863,-1.3049240112304688,0.0
1659376125955355644,-0.30509698390960693,-1.3049110174179077,0.0
1659376125990508317,-0.30509698390960693,-1.3049110174179077,0.0
1659376126047449588,-0.30509698390960693,-1.3049110174179077,0.0
1659376126072215557,-0.30509698390960693,-1.3049110174179077,0.0
1659376126128284692,-0.30509698390960693,-1.3049110174179077,0.0
1659376126161087512,-0.30509698390960693,-1.3049110174179077,0.0
1659376126214351177,-0.30509698390960693,-1.3049110174179077,0.0
1659376126264763116,-0.30509698390960693,-1.3049110174179077,0.0
1659376126319848537,-0.30509698390960693,-1.3049110174179077,0.0
1659376126364899635,-0.30509698390960693,-1.3049110174179077,0.0
1659376126410198211,-0.30509698390960693,-1.3049110174179077,0.0
1659376126454168796,-0.30509698390960693,-1.3049110174179077,0.0
1659376126502955913,-0.30509698390960693,-1.3049110174179077,0.0
1659376126545742511,-0.30509698390960693,-1.3049110174179077,0.0
1659376126590167284,-0.30509698390960693,-1.3049110174179077,0.0
1659376126637912273,-0.30509698390960693,-1.3049110174179077,0.0
1659376126681938409,-0.30509698390960693,-1.3049110174179077,0.0
1659376126726030588,-0.30509698390960693,-1.3049110174179077,0.0
1659376126774481058,-0.30509698390960693,-1.3049110174179077,0.0
1659376126817898511,-0.30509698390960693,-1.3049110174179077,0.0
1659376126862063646,-0.30509698390960693,-1.3049110174179077,0.0
1659376126905840158,-0.30509698390960693,-1.3049110174179077,0.0
1659376126954805612,-0.30509698390960693,-1.3049110174179077,0.0
1659376127001792669,-0.30509698390960693,-1.3049110174179077,0.0
1659376127047005176,-0.30509698390960693,-1.3049110174179077,0.0
1659376127047086000,-0.30509698390960693,-1.3049110174179077,0.0
1659376127099143266,-0.30509698390960693,-1.3049110174179077,0.0
1659376127129139900,-0.30509698390960693,-1.3049110174179077,0.0
1659376127185844659,-0.30509698390960693,-1.3049110174179077,0.0
1659376127230819225,-0.30509698390960693,-1.3049110174179077,0.0
1659376127286953687,-0.30509698390960693,-1.3049110174179077,0.0
1659376127330898523,-0.30509698390960693,-1.3049110174179077,0.0
1659376127375884294,-0.30509698390960693,-1.3049110174179077,0.0
1659376127421682834,-0.30509698390960693,-1.3049110174179077,0.0
1659376127465615987,-0.30509698390960693,-1.3049110174179077,0.0
1659376127510042190,-0.30509698390960693,-1.3049110174179077,0.0
1659376127553923130,-0.30509698390960693,-1.3049110174179077,0.0
1659376127597970962,-0.30509698390960693,-1.3049110174179077,0.0
1659376127642047166,-0.30509698390960693,-1.3049110174179077,0.0
1659376127686675548,-0.30509698390960693,-1.3049110174179077,0.0
1659376127729779720,-0.30509698390960693,-1.3049110174179077,0.0
1659376127856291532,-0.30509698390960693,-1.3049110174179077,0.0
1659376127856468677,-0.30509698390960693,-1.3049110174179077,0.0
1659376127908945322,-0.30509698390960693,-1.3049110174179077,0.0
1659376127909015178,-0.30509698390960693,-1.3049110174179077,0.0
1659376127954439401,-0.30509698390960693,-1.3049110174179077,0.0
1659376127973171472,-0.30509698390960693,-1.3049110174179077,0.0
1659376128029657602,-0.30509698390960693,-1.3049110174179077,0.0
1659376128075955390,-0.30509698390960693,-1.3049110174179077,0.0
1659376128131592750,-0.30509698390960693,-1.3049110174179077,0.0
1659376128174051523,-0.30509698390960693,-1.3049110174179077,0.0
1659376128218269348,-0.3051621615886688,-1.3048720359802246,0.0
1659376128262285470,-0.30713844299316406,-1.3036891222000122,0.0
1659376128310009002,-0.30945920944213867,-1.3022931814193726,0.0
1659376128354314804,-0.31339797377586365,-1.2999043464660645,0.0
1659376128397804975,-0.3167002201080322,-1.2978814840316772,0.0
1659376128441888809,-0.32385870814323425,-1.293432354927063,0.0
1659376128497575521,-0.3280338644981384,-1.2908002138137817,0.0
1659376128543005228,-0.33259570598602295,-1.2878799438476562,0.0
1659376128586494445,-0.33382418751716614,-1.2870762348175049,0.0
1659376128630386829,-0.33254382014274597,-1.2879390716552734,0.0
1659376128676005363,-0.3311713635921478,-1.2888914346694946,0.0
1659376128722113370,-0.3317088186740875,-1.2885116338729858,0.0
1659376128767742633,-0.3331693410873413,-1.2874646186828613,0.0
1659376128811417102,-0.3363249599933624,-1.2851765155792236,0.0
1659376128855416536,-0.33926424384117126,-1.283021330833435,0.0
1659376128899431228,-0.34536436200141907,-1.2784572839736938,0.0
1659376128943929195,-0.34954673051834106,-1.2752597332000732,0.0
1659376128986168384,-0.3561120629310608,-1.2700963020324707,0.0
1659376129030295848,-0.3604685962200165,-1.2665475606918335,0.0
1659376129074409484,-0.3668053150177002,-1.2611839771270752,0.0
1659376129118396520,-0.37092772126197815,-1.257554531097412,0.0
1659376129162829160,-0.3769262433052063,-1.2521122694015503,0.0
1659376129210889577,-0.38122281432151794,-1.2481096982955933,0.0
1659376129258440494,-0.3878193497657776,-1.2417871952056885,0.0
1659376129307108879,-0.3921668231487274,-1.2375084161758423,0.0
1659376129354278802,-0.40004658699035645,-1.2295314073562622,0.0
1659376129402314186,-0.4042408764362335,-1.2251722812652588,0.0
1659376129446322917,-0.41197508573532104,-1.216880202293396,0.0
1659376129490976095,-0.4159596562385559,-1.2124640941619873,0.0
1659376129534738779,-0.4218003749847412,-1.2058035135269165,0.0
1659376129583750963,-0.4256933629512787,-1.2012397050857544,0.0
1659376129583850383,-0.43166399002075195,-1.1941237449645996,0.0
1659376129636475801,-0.435549259185791,-1.18942129611969,0.0
1659376129664434194,-0.4415573179721832,-1.1819430589675903,0.0
1659376129720654964,-0.44507914781570435,-1.177403450012207,0.0
1659376129766474246,-0.4507784843444824,-1.1697819232940674,0.0
1659376129816248893,-0.45334169268608093,-1.1662317514419556,0.0
1659376129862318277,-0.45777782797813416,-1.1599138975143433,0.0
1659376129907020568,-0.4608375132083893,-1.1554443836212158,0.0
1659376129954099416,-0.465747594833374,-1.1480709314346313,0.0
1659376129999177932,-0.46912652254104614,-1.1428712606430054,0.0
1659376130042484045,-0.4754907786846161,-1.1327608823776245,0.0
1659376130098462104,-0.4787551164627075,-1.1273994445800781,0.0
1659376130142533302,-0.4838810861110687,-1.118786334991455,0.0
1659376130186376810,-0.48707422614097595,-1.1132941246032715,0.0
1659376130234414339,-0.4913673400878906,-1.1056901216506958,0.0
1659376130282509803,-0.4943908452987671,-1.1001603603363037,0.0
1659376130326601743,-0.4987996518611908,-1.0919268131256104,0.0
1659376130371248483,-0.5017419457435608,-1.0863534212112427,0.0
1659376130415723800,-0.5073339343070984,-1.0756819248199463,0.0
1659376130461584806,-0.5102980136871338,-1.069977045059204,0.0
1659376130506470680,-0.5145232677459717,-1.0617046356201172,0.0
1659376130550193071,-0.5174553394317627,-1.055869698524475,0.0
1659376130594436168,-0.5225427746772766,-1.0455098152160645,0.0
1659376130639181852,-0.5253610610961914,-1.0396472215652466,0.0
1659376130682289600,-0.5291470289230347,-1.031582236289978,0.0
1659376130730675935,-0.5318119525909424,-1.0257316827774048,0.0
1659376130778218746,-0.5367862582206726,-1.0146198272705078,0.0
1659376130822190999,-0.5393778085708618,-1.0087363719940186,0.0
1659376130871978521,-0.5429168939590454,-1.0005325078964233,0.0
1659376130918414354,-0.5454103350639343,-0.9946068525314331,0.0
1659376130962313652,-0.5489525198936462,-0.9859923720359802,0.0
1659376131006277084,-0.5513613820075989,-0.9800044894218445,0.0
1659376131050477027,-0.555895984172821,-0.9685153961181641,0.0
1659376131107357978,-0.5582355856895447,-0.9625272750854492,0.0
1659376131150340557,-0.5616722702980042,-0.9535170793533325,0.0
1659376131199206590,-0.5639910697937012,-0.9472503066062927,0.0
1659376131199302196,-0.5671178102493286,-0.9386378526687622,0.0
1659376131246155500,-0.5693191885948181,-0.9324630498886108,0.0
1659376131274617910,-0.5724489092826843,-0.9235023856163025,0.0
1659376131330079555,-0.574547529220581,-0.9173453450202942,0.0
1659376131375286817,-0.5782473683357239,-0.9061992168426514,0.0
1659376131430509328,-0.5801872611045837,-0.9002028703689575,0.0
1659376131475397586,-0.5830150842666626,-0.8912485241889954,0.0
1659376131518663644,-0.5849534869194031,-0.885012686252594,0.0
1659376131566230535,-0.5874146819114685,-0.8770045042037964,0.0
1659376131610763549,-0.5893444418907166,-0.8706336617469788,0.0
1659376131654428720,-0.5920639634132385,-0.8614344596862793,0.0
1659376131703598499,-0.5938419699668884,-0.8552563190460205,0.0
1659376131750389814,-0.5956221222877502,-0.8489208817481995,0.0
1659376131794357776,-0.5972529053688049,-0.8429380655288696,0.0
1659376131839006900,-0.5988906621932983,-0.8367212414741516,0.0
1659376131839094161,-0.6013484597206116,-0.8268737196922302,0.0
1659376131884286403,-0.6029053926467896,-0.8202975392341614,0.0
1659376131902685642,-0.6053354740142822,-0.8099225163459778,0.0
1659376131960042953,-0.606920599937439,-0.8032490015029907,0.0
1659376132007653713,-0.6098066568374634,-0.7910831570625305,0.0
1659376132061099529,-0.6113807559013367,-0.7843289971351624,0.0
1659376132106243371,-0.6134780645370483,-0.7752538323402405,0.0
1659376132175141096,-0.615023136138916,-0.7685449719429016,0.0
1659376132175314664,-0.617346465587616,-0.7582752704620361,0.0
1659376132223305463,-0.6188865303993225,-0.7513058185577393,0.0
1659376132268728494,-0.6202563643455505,-0.7450504302978516,0.0
1659376132314779043,-0.621745228767395,-0.7382510900497437,0.0
1659376132364172697,-0.6232507824897766,-0.7313776612281799,0.0
1659376132415716409,-0.6254358291625977,-0.7214919924736023,0.0
1659376132463733911,-0.6269804835319519,-0.7145754098892212,0.0
1659376132463833570,-0.6292403936386108,-0.7043952345848083,0.0
1659376132511927843,-0.6307052373886108,-0.6977201700210571,0.0
1659376132533689022,-0.6329092979431152,-0.6876831650733948,0.0
1659376132590678453,-0.6343628764152527,-0.6810833811759949,0.0
1659376132638131856,-0.6366905570030212,-0.6702961921691895,0.0
1659376132682480812,-0.6380938291549683,-0.6635820865631104,0.0
1659376132727673292,-0.6407458782196045,-0.6507938504219055,0.0
1659376132776818275,-0.6421465277671814,-0.6440792083740234,0.0
1659376132826392412,-0.6442364454269409,-0.6338886022567749,0.0
1659376132872541666,-0.6455863118171692,-0.6270861029624939,0.0
1659376132926403760,-0.647541344165802,-0.6166884303092957,0.0
1659376132975155353,-0.6487720608711243,-0.6097862124443054,0.0
1659376133022240161,-0.650471568107605,-0.6002680659294128,0.0
1659376133066786527,-0.6516844034194946,-0.5935683846473694,0.0
1659376133066968202,-0.6534602642059326,-0.5836782455444336,0.0
1659376133123572587,-0.6546521186828613,-0.5769491195678711,0.0
1659376133151703119,-0.6565122008323669,-0.566045880317688,0.0
1659376133208951950,-0.657658040523529,-0.559077799320221,0.0
1659376133253903150,-0.6598362326622009,-0.5461747646331787,0.0
1659376133299215078,-0.6610591411590576,-0.5391684174537659,0.0
1659376133351822614,-0.6622779369354248,-0.5322641134262085,0.0
1659376133393702507,-0.6639745831489563,-0.5229511857032776,0.0
1659376133439973115,-0.6652867197990417,-0.5160382390022278,0.0
1659376133503197431,-0.6675121784210205,-0.5045584440231323,0.0
1659376133547951459,-0.6688385009765625,-0.49772554636001587,0.0
1659376133548182010,-0.6707940697669983,-0.4876887798309326,0.0
1659376133595915317,-0.6720547676086426,-0.4813072681427002,0.0
1659376133651982307,-0.6745998859405518,-0.4686264097690582,0.0
1659376133702888250,-0.6758621335029602,-0.46240007877349854,0.0
1659376133750362157,-0.677839457988739,-0.4525998532772064,0.0
1659376133795745611,-0.6791154146194458,-0.44622138142585754,0.0
1659376133841432809,-0.6817663908004761,-0.4331229031085968,0.0
1659376133890361309,-0.6830686926841736,-0.4268272817134857,0.0
1659376133942392349,-0.6857653260231018,-0.41397079825401306,0.0
1659376133990424633,-0.6871514916419983,-0.4074082672595978,0.0
1659376134038823604,-0.6892770528793335,-0.39740610122680664,0.0
1659376134083357334,-0.6906349658966064,-0.391044557094574,0.0
1659376134083514451,-0.6928568482398987,-0.3806229829788208,0.0
1659376134151415109,-0.6943171620368958,-0.37379157543182373,0.0
1659376134162405967,-0.6963276863098145,-0.36456725001335144,0.0
1659376134219125509,-0.6979044079780579,-0.3575281500816345,0.0
1659376134266283750,-0.7000696659088135,-0.3480011820793152,0.0
1659376134310891866,-0.7016366124153137,-0.34116747975349426,0.0
1659376134354196548,-0.7038699984550476,-0.33155226707458496,0.0
1659376134402391433,-0.705442488193512,-0.32487574219703674,0.0
1659376134446416139,-0.7078118920326233,-0.3152410387992859,0.0
1659376134490339279,-0.7095558047294617,-0.3085026144981384,0.0
1659376134538162946,-0.7121129035949707,-0.29881125688552856,0.0
1659376134673405170,-0.7138898968696594,-0.2921338379383087,0.0
1659376134673677206,-0.7163766622543335,-0.282816618680954,0.0
1659376134753942251,-0.7181684970855713,-0.27606457471847534,0.0
1659376134754113197,-0.7206868529319763,-0.26657241582870483,0.0
1659376134780446529,-0.7224655747413635,-0.259921669960022,0.0
1659376134780515670,-0.7250085473060608,-0.25054094195365906,0.0
1659376134806592702,-0.7268916964530945,-0.24373498558998108,0.0
1659376134824239015,-0.729244589805603,-0.2352994829416275,0.0
1659376134879161834,-0.7311767935752869,-0.22837579250335693,0.0
1659376134923789262,-0.734352171421051,-0.21709534525871277,0.0
1659376134979508876,-0.736295759677887,-0.2102537453174591,0.0
1659376135032056093,-0.7389277219772339,-0.2011871486902237,0.0
1659376135074973106,-0.740921676158905,-0.19449201226234436,0.0
1659376135122324228,-0.7429656982421875,-0.1876533329486847,0.0
1659376135122451305,-0.7449079751968384,-0.18115408718585968,0.0
1659376135176986932,-0.7468727827072144,-0.1746087372303009,0.0
1659376135192424297,-0.7500647902488708,-0.16404500603675842,0.0
1659376135248924493,-0.7521482706069946,-0.15727119147777557,0.0
1659376135299103975,-0.7556065917015076,-0.14612725377082825,0.0
1659376135342319250,-0.7576929926872253,-0.13935434818267822,0.0
1659376135389231681,-0.7616634368896484,-0.1266467571258545,0.0
1659376135436734676,-0.7638289332389832,-0.1198987141251564,0.0
1659376135486800193,-0.7668620944023132,-0.11055831611156464,0.0
1659376135530471324,-0.7690425515174866,-0.10384169220924377,0.0
1659376135581255674,-0.7720817923545837,-0.09445005655288696,0.0
1659376135712612867,-0.7742742300033569,-0.08768410235643387,0.0
1659376135712755918,-0.7771685719490051,-0.07883088290691376,0.0
1659376135762797594,-0.7793858647346497,-0.0721529945731163,0.0
1659376135762913465,-0.7828807234764099,-0.0617656335234642,0.0
1659376135808330059,-0.7851176857948303,-0.05514773353934288,0.0
1659376135816293716,-0.7894501686096191,-0.04239849001169205,0.0
1659376135871712923,-0.7917284965515137,-0.03576793521642685,0.0
1659376135914446830,-0.7949720621109009,-0.02636452205479145,0.0
1659376135964538097,-0.7972636818885803,-0.01973854936659336,0.0
1659376136010524511,-0.8005689382553101,-0.010142219252884388,0.0
1659376136054318904,-0.8028663992881775,-0.003384473966434598,0.0
1659376136098467826,-0.8063706159591675,0.006919554900377989,0.0
1659376136142429590,-0.808638334274292,0.013500222004950047,0.0
1659376136190436124,-0.8123032450675964,0.024070218205451965,0.0
1659376136239301443,-0.8145666122436523,0.030625617131590843,0.0
1659376136282243490,-0.8176485896110535,0.03973652422428131,0.0
1659376136342139482,-0.8198750019073486,0.046464718878269196,0.0
1659376136342219829,-0.8231810927391052,0.05646144971251488,0.0
1659376136387902498,-0.8254165053367615,0.06315997987985611,0.0
1659376136405819654,-0.8283559083938599,0.07186488062143326,0.0
1659376136460403442,-0.8305627107620239,0.07833265513181686,0.0
1659376136510428190,-0.8348930478096008,0.09084182232618332,0.0
1659376136561800241,-0.8372080326080322,0.09743285179138184,0.0
1659376136606505870,-0.8405751585960388,0.10703446716070175,0.0
1659376136656337261,-0.84285569190979,0.11355709284543991,0.0
1659376136709546566,-0.8458441495895386,0.12208451330661774,0.0
1659376136754623413,-0.8481161594390869,0.12858332693576813,0.0
1659376136799309015,-0.8516058921813965,0.13862468302249908,0.0
1659376136842527627,-0.8539543151855469,0.14539168775081635,0.0
1659376136890523433,-0.8582958579063416,0.1578165590763092,0.0
1659376136935381174,-0.8605750799179077,0.16431283950805664,0.0
1659376136978868246,-0.8647549152374268,0.17633841931819916,0.0
1659376137022615671,-0.8670490384101868,0.1830170601606369,0.0
1659376137071843147,-0.8701566457748413,0.1920657455921173,0.0
1659376137117868185,-0.8721561431884766,0.1978553831577301,0.0
1659376137167451381,-0.8755672574043274,0.20770969986915588,0.0
1659376137210440397,-0.8775814771652222,0.21354779601097107,0.0
1659376137254813194,-0.8816717267036438,0.2254704236984253,0.0
1659376137303358554,-0.8837951421737671,0.231672465801239,0.0
1659376137303535461,-0.8868672847747803,0.2406262755393982,0.0
1659376137348196268,-0.8890061378479004,0.2468230128288269,0.0
1659376137398688554,-0.8927835822105408,0.25772902369499207,0.0
1659376137450423955,-0.8948774933815002,0.26375383138656616,0.0
1659376137495142936,-0.8983216285705566,0.27354300022125244,0.0
1659376137542959451,-0.9004132151603699,0.2794076204299927,0.0
1659376137586566209,-0.9043031334877014,0.2901395261287689,0.0
1659376137632068872,-0.9065351486206055,0.29619553685188293,0.0
1659376137678639650,-0.9102187156677246,0.3060053586959839,0.0
1659376137722133874,-0.912717342376709,0.3125018775463104,0.0
1659376137765950918,-0.9161151051521301,0.3211199641227722,0.0
1659376137823372364,-0.918539822101593,0.3271560072898865,0.0
1659376137823463678,-0.9225722551345825,0.3371832072734833,0.0
1659376137865996122,-0.9249374270439148,0.34310677647590637,0.0
1659376137900698900,-0.9286211729049683,0.352373868227005,0.0
1659376137956138849,-0.9312600493431091,0.35900574922561646,0.0
1659376138006838560,-0.9355313181877136,0.36964622139930725,0.0
1659376138050517797,-0.9381720423698425,0.37616825103759766,0.0
1659376138098915100,-0.9416046738624573,0.38469070196151733,0.0
1659376138142562150,-0.9441619515419006,0.3911098837852478,0.0
1659376138190668106,-0.9478195309638977,0.4003601372241974,0.0
1659376138234348058,-0.9503903388977051,0.4068828523159027,0.0
1659376138278304338,-0.9544482231140137,0.4170089662075043,0.0
1659376138322346687,-0.9571115970611572,0.42352181673049927,0.0
1659376138367916822,-0.9598093032836914,0.4301026463508606,0.0
1659376138368011474,-0.9623405337333679,0.43628668785095215,0.0
1659376138414321660,-0.9650101065635681,0.4428243339061737,0.0
1659376138432393074,-0.9687822461128235,0.45200109481811523,0.0
1659376138487425327,-0.9714719653129578,0.4584757089614868,0.0
1659376138530347347,-0.975395917892456,0.46783608198165894,0.0
1659376138578531980,-0.9781227111816406,0.47429513931274414,0.0
1659376138622284650,-0.9830726981163025,0.48602473735809326,0.0
1659376138670331716,-0.9857783913612366,0.492410272359848,0.0
1659376138714318990,-0.9882487058639526,0.498235821723938,0.0
1659376138762490987,-0.99129718542099,0.5054931640625,0.0
1659376138827698945,-0.9939677715301514,0.5119208693504333,0.0
1659376138827827930,-0.99828040599823,0.5222983360290527,0.0
1659376138874281644,-1.0010466575622559,0.5288780927658081,0.0
1659376138882322788,-1.0045874118804932,0.5371638536453247,0.0
1659376138938217878,-1.0074034929275513,0.5436673164367676,0.0
1659376138991178989,-1.0114597082138062,0.5530539155006409,0.0
1659376139035186290,-1.0142343044281006,0.5595201253890991,0.0
1659376139083310365,-1.0170031785964966,0.5659337043762207,0.0
1659376139126164913,-1.019705057144165,0.5721280574798584,0.0
1659376139175173044,-1.0224218368530273,0.5783435106277466,0.0
1659376139175262928,-1.0262988805770874,0.5872560739517212,0.0
1659376139223955869,-1.0290498733520508,0.5936222076416016,0.0
1659376139246061086,-1.0333539247512817,0.6036186218261719,0.0
1659376139297877550,-1.0360629558563232,0.6099201440811157,0.0
1659376139343564510,-1.040779709815979,0.6208686828613281,0.0
1659376139395915269,-1.0436803102493286,0.6275562047958374,0.0
1659376139442107915,-1.047742247581482,0.6369403004646301,0.0
1659376139488268613,-1.0504838228225708,0.6433104872703552,0.0
1659376139533740997,-1.056005835533142,0.6560341119766235,0.0
1659376139579780340,-1.0588529109954834,0.6625241041183472,0.0
1659376139622125148,-1.0628162622451782,0.6715646386146545,0.0
1659376139668372392,-1.0656003952026367,0.677944004535675,0.0
1659376139714495420,-1.0692167282104492,0.6862246990203857,0.0
1659376139758101940,-1.071983814239502,0.6925562620162964,0.0
1659376139806599378,-1.0763529539108276,0.7024967670440674,0.0
1659376139850175857,-1.079278588294983,0.7090904116630554,0.0
1659376139898454427,-1.0854034423828125,0.7228208184242249,0.0
1659376139942850351,-1.088192343711853,0.7290597558021545,0.0
1659376139991585254,-1.0940238237380981,0.7422004342079163,0.0
1659376140046061038,-1.0967057943344116,0.7483206391334534,0.0
1659376140097243309,-1.099382996559143,0.7544981241226196,0.0
1659376140142281293,-1.1024357080459595,0.761671245098114,0.0
1659376140195231914,-1.1051442623138428,0.7681928277015686,0.0
1659376140238393783,-1.108961582183838,0.7775698304176331,0.0
1659376140282303810,-1.1115339994430542,0.7839556336402893,0.0
1659376140326847076,-1.1160035133361816,0.7950347065925598,0.0
1659376140374282121,-1.1185253858566284,0.8013044595718384,0.0
1659376140418527841,-1.1232324838638306,0.8131880760192871,0.0
1659376140462208271,-1.1257025003433228,0.8195056319236755,0.0
1659376140510313272,-1.129393458366394,0.8289602994918823,0.0
1659376140556912183,-1.131756067276001,0.8349937796592712,0.0
1659376140557095766,-1.135359287261963,0.8442924618721008,0.0
1659376140608164548,-1.1375454664230347,0.8500413298606873,0.0
1659376140656192064,-1.1424287557601929,0.8629152774810791,0.0
1659376140705154657,-1.144616961479187,0.8686633706092834,0.0
1659376140751787662,-1.1485154628753662,0.8790684342384338,0.0
1659376140798199653,-1.1506210565567017,0.8848203420639038,0.0
1659376140848127126,-1.1547127962112427,0.8962865471839905,0.0
1659376140898089408,-1.1567180156707764,0.9020205736160278,0.0
1659376140946219444,-1.1599234342575073,0.9113835692405701,0.0
1659376140994448900,-1.1618907451629639,0.9173176884651184,0.0
1659376141042691230,-1.1646581888198853,0.925972580909729,0.0
1659376141086099147,-1.1664679050445557,0.9318243265151978,0.0
1659376141130557775,-1.1693687438964844,0.9414448738098145,0.0
1659376141178706407,-1.1710866689682007,0.9472450613975525,0.0
1659376141178825616,-1.1738002300262451,0.9564723968505859,0.0
1659376141226552724,-1.1754820346832275,0.9622304439544678,0.0
1659376141260286569,-1.1780054569244385,0.9710912108421326,0.0
1659376141310927152,-1.1796486377716064,0.977070689201355,0.0
1659376141354271173,-1.1819255352020264,0.9856056571006775,0.0
1659376141402310848,-1.1834689378738403,0.9915332198143005,0.0
1659376141446420192,-1.1858576536178589,1.000849962234497,0.0
1659376141494432687,-1.1873644590377808,1.0067869424819946,0.0
1659376141542411327,-1.1905584335327148,1.0198678970336914,0.0
1659376141590873956,-1.1919434070587158,1.0258344411849976,0.0
1659376141638222217,-1.1940934658050537,1.0352610349655151,0.0
1659376141683561801,-1.1954022645950317,1.0410633087158203,0.0
1659376141726839542,-1.1972908973693848,1.0496406555175781,0.0
1659376141774727582,-1.198632836341858,1.0559797286987305,0.0
1659376141774845600,-1.2003767490386963,1.0646393299102783,0.0
1659376141831084012,-1.2015259265899658,1.0706814527511597,0.0
1659376141854084968,-1.2029685974121094,1.0785999298095703,0.0
1659376141909253597,-1.2040570974349976,1.0847561359405518,0.0
1659376141954597949,-1.2056993246078491,1.094541072845459,0.0
1659376141997950315,-1.2066587209701538,1.1005394458770752,0.0
1659376142042553186,-1.2081191539764404,1.1101995706558228,0.0
1659376142089241743,-1.2090435028076172,1.1167407035827637,0.0
1659376142138271331,-1.210331916809082,1.1262720823287964,0.0
1659376142182694673,-1.2111817598342896,1.1327722072601318,0.0
1659376142226493597,-1.212364673614502,1.1421897411346436,0.0
1659376142270285367,-1.2131619453430176,1.1489005088806152,0.0
1659376142315150737,-1.2141767740249634,1.1579047441482544,0.0
1659376142358210563,-1.214875340461731,1.164499282836914,0.0
1659376142402121782,-1.2158489227294922,1.1741442680358887,0.0
1659376142446040868,-1.2164902687072754,1.1807191371917725,0.0
1659376142492919445,-1.2171145677566528,1.1874481439590454,0.0
1659376142493007421,-1.2177515029907227,1.1948621273040771,0.0
1659376142544297695,-1.218266248703003,1.2014226913452148,0.0
1659376142560343265,-1.2189891338348389,1.2115211486816406,0.0
1659376142609369754,-1.2194117307662964,1.2179869413375854,0.0
1659376142666952371,-1.2201292514801025,1.2316358089447021,0.0
1659376142717545270,-1.220369577407837,1.2378575801849365,0.0
1659376142774181127,-1.2205636501312256,1.2439544200897217,0.0
1659376142818629264,-1.2207188606262207,1.251621961593628,0.0
1659376142884742259,-1.220752477645874,1.257114291191101,0.0
1659376142930703163,-1.2206847667694092,1.265820860862732,0.0
1659376142930787324,-1.2205698490142822,1.2715651988983154,0.0
1659376142977627754,-1.2203940153121948,1.2776625156402588,0.0
1659376143008035898,-1.2200247049331665,1.2861335277557373,0.0
1659376143057964563,-1.2196569442749023,1.2923237085342407,0.0
1659376143106741666,-1.218977928161621,1.3017655611038208,0.0
1659376143150008916,-1.2184737920761108,1.3077937364578247,0.0
1659376143198844432,-1.2173123359680176,1.3195312023162842,0.0
1659376143242903947,-1.2166094779968262,1.325666904449463,0.0
1659376143286497116,-1.2154792547225952,1.3346062898635864,0.0
1659376143331971168,-1.214720368385315,1.3401737213134766,0.0
1659376143374807357,-1.2130637168884277,1.3513656854629517,0.0
1659376143424695014,-1.2121061086654663,1.3572361469268799,0.0
1659376143470448493,-1.210660457611084,1.365282654762268,0.0
1659376143514399290,-1.2096604108810425,1.370399832725525,0.0
1659376143558707475,-1.2085304260253906,1.3758782148361206,0.0
1659376143607507228,-1.2070320844650269,1.3826755285263062,0.0
1659376143650642395,-1.205822229385376,1.3877472877502441,0.0
1659376143650788545,-1.204465389251709,1.3930171728134155,0.0
1659376143698773860,-1.2039622068405151,1.394873857498169,0.0
1659376143740783929,-1.203561782836914,1.3963124752044678,0.0
1659376143790763378,-1.2035067081451416,1.3965072631835938,0.0
1659376143840023994,-1.2034928798675537,1.39655601978302,0.0
1659376143890330791,-1.2034928798675537,1.39655601978302,0.0
1659376143934291124,-1.2034928798675537,1.39655601978302,0.0
1659376143979486227,-1.2034928798675537,1.39655601978302,0.0
1659376144027200937,-1.2034928798675537,1.39655601978302,0.0
1659376144093234539,-1.2034928798675537,1.39655601978302,0.0
1659376144093358516,-1.2034928798675537,1.39655601978302,0.0
1659376144138464212,-1.2034928798675537,1.39655601978302,0.0
1659376144195057868,-1.2034928798675537,1.39655601978302,0.0
1659376144239704132,-1.2034928798675537,1.39655601978302,0.0
1659376144285556077,-1.2034928798675537,1.39655601978302,0.0
1659376144330081939,-1.2034928798675537,1.39655601978302,0.0
1659376144374482870,-1.2034928798675537,1.39655601978302,0.0
1659376144418126106,-1.2034928798675537,1.39655601978302,0.0
1659376144463134288,-1.2034928798675537,1.39655601978302,0.0
1659376144506178140,-1.203147530555725,1.3977735042572021,0.0
1659376144550629377,-1.2024842500686646,1.4001110792160034,0.0
1659376144598798751,-1.2010455131530762,1.405148983001709,0.0
1659376144642886161,-1.1998250484466553,1.4093542098999023,0.0
1659376144686581611,-1.1971561908721924,1.4182515144348145,0.0
1659376144730255365,-1.1955705881118774,1.4233512878417969,0.0
1659376144778357028,-1.1928801536560059,1.4317384958267212,0.0
1659376144827055692,-1.1910508871078491,1.4373183250427246,0.0
1659376144827331304,-1.1881046295166016,1.446181058883667,0.0
1659376144870540618,-1.1861928701400757,1.451866865158081,0.0
1659376144916588544,-1.1818809509277344,1.4643288850784302,0.0
1659376144967713117,-1.179918646812439,1.469809651374817,0.0
1659376145010380029,-1.1769394874572754,1.4778831005096436,0.0
1659376145089917898,-1.1748504638671875,1.4833710193634033,0.0
1659376145089988708,-1.171463966369629,1.4919935464859009,0.0
1659376145134541511,-1.1692380905151367,1.4974820613861084,0.0
1659376145176320075,-1.1649070978164673,1.5077695846557617,0.0
1659376145227180719,-1.1626285314559937,1.512988805770874,0.0
1659376145274445533,-1.1586360931396484,1.5218780040740967,0.0
1659376145319028139,-1.1562917232513428,1.5269566774368286,0.0
1659376145363133668,-1.1519306898117065,1.5360935926437378,0.0
1659376145413589954,-1.149392008781433,1.5412195920944214,0.0
1659376145458657026,-1.1435935497283936,1.5525537729263306,0.0
1659376145506262540,-1.1407380104064941,1.5579725503921509,0.0
1659376145550325155,-1.1354800462722778,1.5676461458206177,0.0
1659376145596775531,-1.132423996925354,1.573099970817566,0.0
1659376145723863840,-1.1280491352081299,1.580744743347168,0.0
1659376145723980903,-1.125113606452942,1.585801124572754,0.0
1659376145741054773,-1.1194294691085815,1.595466136932373,0.0
1659376145769804716,-1.1161774396896362,1.6008942127227783,0.0
1659376145823062181,-1.1098995208740234,1.6111178398132324,0.0
1659376145895893096,-1.1066089868545532,1.6163439750671387,0.0
1659376145938431024,-1.1017054319381714,1.6239336729049683,0.0
1659376145981923103,-1.098165512084961,1.6292698383331299,0.0
1659376146026955842,-1.0923571586608887,1.6378388404846191,0.0
1659376146074153184,-1.0887857675552368,1.643000841140747,0.0
1659376146122204303,-1.0835171937942505,1.6505279541015625,0.0
1659376146170124769,-1.0798486471176147,1.6557146310806274,0.0
1659376146214025974,-1.0721837282180786,1.6662578582763672,0.0
1659376146257875680,-1.0682740211486816,1.6714882850646973,0.0
1659376146302322387,-1.0600440502166748,1.6821777820587158,0.0
1659376146346058845,-1.0563158988952637,1.6868771314620972,0.0
1659376146391547203,-1.0523329973220825,1.691826581954956,0.0
1659376146437000513,-1.0472954511642456,1.6980063915252686,0.0
1659376146482306718,-1.0433862209320068,1.7027546167373657,0.0
1659376146526162862,-1.036334753036499,1.7111774682998657,0.0
1659376146570477724,-1.032127857208252,1.716105580329895,0.0
1659376146615377664,-1.0232025384902954,1.7263562679290771,0.0
1659376146662476539,-1.0191999673843384,1.7308582067489624,0.0
1659376146714264392,-1.010372519493103,1.740586280822754,0.0
1659376146774992704,-1.006369948387146,1.744917392730713,0.0
1659376146822531700,-1.0019797086715698,1.749613881111145,0.0
1659376146870012521,-0.9970989227294922,1.754752278327942,0.0
1659376146914567232,-0.9926189184188843,1.7593984603881836,0.0
1659376146914732456,-0.9854813814163208,1.7666853666305542,0.0
1659376146958212137,-0.9811449646949768,1.7710469961166382,0.0
1659376146991810083,-0.9724982976913452,1.7795454263687134,0.0
1659376147042171955,-0.9681087136268616,1.78374445438385,0.0
1659376147086511611,-0.9611428380012512,1.7902659177780151,0.0
1659376147130234003,-0.956745445728302,1.7943086624145508,0.0
1659376147177947282,-0.952005922794342,1.7986148595809937,0.0
1659376147222260951,-0.9459304213523865,1.8040472269058228,0.0
1659376147270576238,-0.9414028525352478,1.8080207109451294,0.0
1659376147318457603,-0.9328920245170593,1.8153594732284546,0.0
1659376147362426042,-0.9284395575523376,1.8191490173339844,0.0
1659376147406112670,-0.9195153713226318,1.826547622680664,0.0
1659376147450525283,-0.9149007201194763,1.830260157585144,0.0
1659376147519364595,-0.9066197872161865,1.8368041515350342,0.0
1659376147566233873,-0.9018831253051758,1.840484857559204,0.0
1659376147566368818,-0.8940088748931885,1.846521258354187,0.0
1659376147611028194,-0.8893285989761353,1.8500674962997437,0.0
1659376147644041299,-0.8802294135093689,1.856833815574646,0.0
1659376147694647312,-0.8752796053886414,1.86044180393219,0.0
1659376147740077495,-0.8675563335418701,1.8659590482711792,0.0
1659376147805488348,-0.8626251816749573,1.8694190979003906,0.0
1659376147805952072,-0.853509783744812,1.875728726387024,0.0
1659376147853841304,-0.8485959768295288,1.8790802955627441,0.0
1659376147910701751,-0.8434080481529236,1.8825688362121582,0.0
1659376147954559564,-0.8360787630081177,1.8874081373214722,0.0
1659376147998911857,-0.8312021493911743,1.8905874490737915,0.0
1659376148042739152,-0.820594310760498,1.8973487615585327,0.0
1659376148087186574,-0.8153494000434875,1.9006093740463257,0.0
1659376148134041309,-0.8065333962440491,1.905987024307251,0.0
1659376148179932594,-0.8013703227043152,1.909090280532837,0.0
1659376148223037719,-0.7928672432899475,1.9141535758972168,0.0
1659376148267118930,-0.7874986529350281,1.9173074960708618,0.0
1659376148311271667,-0.7777905464172363,1.9229178428649902,0.0
1659376148356386899,-0.77248615026474,1.9259297847747803,0.0
1659376148398177385,-0.7632893919944763,1.9311083555221558,0.0
1659376148442553997,-0.7579016089439392,1.9341270923614502,0.0
1659376148486275434,-0.7476008534431458,1.9398205280303955,0.0
1659376148530360221,-0.7420895099639893,1.9428249597549438,0.0
1659376148574841737,-0.733780562877655,1.9473072290420532,0.0
1659376148621423244,-0.7283130288124084,1.950232982635498,0.0
1659376148666594266,-0.7192290425300598,1.9550371170043945,0.0
1659376148710899829,-0.7136633396148682,1.9579395055770874,0.0
1659376148753946542,-0.7035277485847473,1.9631354808807373,0.0
1659376148798266649,-0.6978986859321594,1.9659698009490967,0.0
1659376148843125104,-0.6887505650520325,1.970594882965088,0.0
1659376148893453836,-0.6829323768615723,1.9735599756240845,0.0
1659376148942461490,-0.6731855273246765,1.9784592390060425,0.0
1659376148987110853,-0.6676682829856873,1.9811774492263794,0.0
1659376148987213850,-0.6597536206245422,1.9849847555160522,0.0
1659376149031320333,-0.654184877872467,1.987595796585083,0.0
1659376149077731132,-0.6431493759155273,1.992677092552185,0.0
1659376149128740310,-0.6374765038490295,1.9952436685562134,0.0
1659376149174297332,-0.6285338997840881,1.9991782903671265,0.0
1659376149218386650,-0.6226667165756226,2.0016801357269287,0.0
1659376149267314672,-0.6118485331535339,2.006185531616211,0.0
1659376149312349557,-0.6060186624526978,2.008579730987549,0.0
1659376149360222101,-0.5949645042419434,2.0130434036254883,0.0
1659376149424588203,-0.5891730189323425,2.015329599380493,0.0
1659376149470480203,-0.5792956948280334,2.019120693206787,0.0
1659376149533648729,-0.573461651802063,2.021296262741089,0.0
1659376149533847093,-0.5645167827606201,2.0246191024780273,0.0
1659376149578438043,-0.5581125617027283,2.0270040035247803,0.0
1659376149598135709,-0.54706209897995,2.031054735183716,0.0
1659376149647390604,-0.5407244563102722,2.0333268642425537,0.0
1659376149705040931,-0.5344736576080322,2.03554105758667,0.0
1659376149750704526,-0.5260609984397888,2.0384743213653564,0.0
1659376149794421195,-0.5200009346008301,2.040543556213379,0.0
1659376149842344522,-0.5126415491104126,2.043037176132202,0.0
1659376149886231660,-0.5103887319564819,2.043802261352539,0.0
1659376149930183649,-0.5093581676483154,2.04415225982666,0.0
1659376149978165149,-0.5089986324310303,2.04427433013916,0.0
1659376150026103973,-0.5092863440513611,2.0441770553588867,0.0
1659376150070104122,-0.5107972621917725,2.0436673164367676,0.0
1659376150122888803,-0.5131233334541321,2.042881727218628,0.0
1659376150123061180,-0.5167913436889648,2.041639804840088,0.0
1659376150171018600,-0.520003616809845,2.0405514240264893,0.0
1659376150182204484,-0.523695170879364,2.0393002033233643,0.0
1659376150231666326,-0.5228798389434814,2.0395755767822266,0.0
1659376150288643121,-0.5158537030220032,2.0419485569000244,0.0
1659376150342642545,-0.511513352394104,2.043414354324341,0.0
1659376150400169372,-0.5066410303115845,2.0450453758239746,0.0
1659376150446203231,-0.4981604814529419,2.0478575229644775,0.0
1659376150490654230,-0.4923435151576996,2.049776077270508,0.0
1659376150538461923,-0.4821503460407257,2.053133010864258,0.0
1659376150588717222,-0.4757562577724457,2.055241107940674,0.0
1659376150638199329,-0.4642535150051117,2.058990955352783,0.0
1659376150682916164,-0.45815256237983704,2.060936450958252,0.0
1659376150682992696,-0.4487149715423584,2.0639150142669678,0.0
1659376150729854822,-0.4426549971103668,2.065822124481201,0.0
1659376150784430265,-0.4281002879142761,2.070330858230591,0.0
1659376150838333845,-0.42211657762527466,2.0721418857574463,0.0
1659376150891849040,-0.4153080880641937,2.0741984844207764,0.0
1659376150940930843,-0.4070264995098114,2.0767176151275635,0.0
1659376150986642122,-0.4007565975189209,2.0786314010620117,0.0
1659376151030823230,-0.3896985352039337,2.081937313079834,0.0
1659376151078347444,-0.38313642144203186,2.083845376968384,0.0
1659376151121970176,-0.3696008026599884,2.087787628173828,0.0
1659376151167124271,-0.36284834146499634,2.089766263961792,0.0
1659376151211277008,-0.35624203085899353,2.0917036533355713,0.0
1659376151254566192,-0.34662702679634094,2.094534397125244,0.0
1659376151298489332,-0.34038999676704407,2.096381664276123,0.0
1659376151346601486,-0.32980576157569885,2.0995049476623535,0.0
1659376151390858411,-0.3235386610031128,2.101339817047119,0.0
1659376151390962362,-0.3134555220603943,2.104283094406128,0.0
1659376151441714525,-0.3073553740978241,2.106057643890381,0.0
1659376151469785690,-0.2978760302066803,2.108811140060425,0.0
1659376151518731594,-0.2917028069496155,2.1106061935424805,0.0
1659376151562326431,-0.2819557785987854,2.113436222076416,0.0
1659376151612437009,-0.27577903866767883,2.1152191162109375,0.0
1659376151660342693,-0.26214954257011414,2.119109869003296,0.0
1659376151706669092,-0.25601112842559814,2.120842695236206,0.0
1659376151750914096,-0.24603599309921265,2.123610734939575,0.0
1659376151798954248,-0.23971132934093475,2.1253349781036377,0.0
1659376151849174976,-0.22600293159484863,2.1290361881256104,0.0
1659376151897938728,-0.22001472115516663,2.1306471824645996,0.0
1659376151946617364,-0.2111191749572754,2.133045196533203,0.0
1659376151991255044,-0.20618242025375366,2.1343750953674316,0.0
1659376152037859439,-0.19856144487857819,2.136444330215454,0.0
1659376152082710981,-0.19321539998054504,2.137908935546875,0.0
1659376152082870960,-0.18467585742473602,2.140265464782715,0.0
1659376152131332397,-0.17865487933158875,2.1419482231140137,0.0
1659376152160280466,-0.16984042525291443,2.144449472427368,0.0
1659376152211597919,-0.16366255283355713,2.146228551864624,0.0
1659376152257604360,-0.15330633521080017,2.1492297649383545,0.0
1659376152306571960,-0.14705896377563477,2.1510417461395264,0.0
1659376152350238561,-0.13649283349514008,2.154136896133423,0.0
1659376152394448757,-0.13008873164653778,2.1560440063476562,0.0
1659376152440801620,-0.1179952323436737,2.1596860885620117,0.0
1659376152486169815,-0.1116727963089943,2.1616010665893555,0.0
1659376152533786773,-0.1006401926279068,2.1649911403656006,0.0
1659376152586081504,-0.09450329840183258,2.1669068336486816,0.0
1659376152634722232,-0.08521267026662827,2.169846534729004,0.0
1659376152682992935,-0.0784182921051979,2.1720333099365234,0.0
1659376152729825496,-0.0676717460155487,2.1754891872406006,0.0
1659376152773968458,-0.06099290773272514,2.177621841430664,0.0
1659376152818184375,-0.0485912449657917,2.181635618209839,0.0
1659376152865885496,-0.04190761223435402,2.183835506439209,0.0
1659376152909870147,-0.032986029982566833,2.186765193939209,0.0
1659376152982476234,-0.02638930082321167,2.1889050006866455,0.0
1659376152982569932,-0.015332106500864029,2.192469835281372,0.0
1659376153034713029,-0.008757743053138256,2.194596529006958,0.0
1659376153060268640,0.0033042507711797953,2.1985089778900146,0.0
1659376153112027168,0.010045443661510944,2.200695753097534,0.0
1659376153161901235,0.01929657533764839,2.2036759853363037,0.0
1659376153206810712,0.025831205770373344,2.205760955810547,0.0
1659376153254058837,0.03256000205874443,2.2079036235809326,0.0
1659376153297672510,0.04235213249921799,2.2110202312469482,0.0
1659376153346359491,0.049057524651288986,2.2131528854370117,0.0
1659376153394443035,0.06137754023075104,2.217089891433716,0.0
1659376153443377971,0.06800351291894913,2.219221591949463,0.0
1659376153443540811,0.07765961438417435,2.2223479747772217,0.0
1659376153489784479,0.08423040062189102,2.2244858741760254,0.0
1659376153545373916,0.09070318192243576,2.226597785949707,0.0
1659376153590032577,0.09943471103906631,2.229457139968872,0.0
1659376153638321161,0.10609624534845352,2.2316431999206543,0.0
1659376153685855150,0.11610092222690582,2.2349252700805664,0.0
1659376153729921340,0.12276312708854675,2.2371091842651367,0.0
1659376153774094343,0.13747933506965637,2.2419443130493164,0.0
1659376153822109222,0.14428170025348663,2.2441883087158203,0.0
1659376153866729974,0.1506517082452774,2.246288537979126,0.0
1659376153914519309,0.15930591523647308,2.2491400241851807,0.0
1659376153962405920,0.16591592133045197,2.2513208389282227,0.0
1659376154005970001,0.17660419642925262,2.254873514175415,0.0
1659376154054200887,0.18334555625915527,2.2571403980255127,0.0
1659376154054356336,0.1936350017786026,2.260608673095703,0.0
1659376154097915172,0.20003823935985565,2.2627692222595215,0.0
1659376154150364637,0.206649050116539,2.2650270462036133,0.0
1659376154197837352,0.21538281440734863,2.268038511276245,0.0
1659376154246109724,0.22169969975948334,2.270217180252075,0.0
1659376154289994001,0.23257139325141907,2.2739388942718506,0.0
1659376154333877563,0.23923008143901825,2.2762131690979004,0.0
1659376154380506515,0.24586117267608643,2.278489828109741,0.0
1659376154380657672,0.25544068217277527,2.281765937805176,0.0
1659376154437634468,0.26200219988822937,2.2840113639831543,0.0
1659376154458411455,0.272081196308136,2.2875468730926514,0.0
1659376154510200738,0.27836906909942627,2.2898077964782715,0.0
1659376154556380510,0.29103830456733704,2.2943689823150635,0.0
1659376154602818965,0.29709097743034363,2.2965359687805176,0.0
1659376154670757055,0.3039039969444275,2.2989821434020996,0.0
1659376154719779491,0.3117366135120392,2.301809310913086,0.0
1659376154762407064,0.3178791105747223,2.304025650024414,0.0
1659376154762550115,0.3289904296398163,2.3079824447631836,0.0
1659376154806022644,0.33503153920173645,2.3101065158843994,0.0
1659376154844298124,0.34686726331710815,2.3142921924591064,0.0
1659376154895214796,0.35311439633369446,2.316516876220703,0.0
1659376154937983989,0.3630874454975128,2.3200483322143555,0.0
1659376154982006788,0.36912834644317627,2.3221728801727295,0.0
1659376155030161857,0.38153043389320374,2.3265790939331055,0.0
1659376155081178665,0.3876715302467346,2.3287994861602783,0.0
1659376155128612279,0.3970838785171509,2.332244634628296,0.0
1659376155255113363,0.40323537588119507,2.334510326385498,0.0
1659376155255259037,0.4129485487937927,2.338090658187866,0.0
1659376155287680864,0.4191724359989166,2.340379476547241,0.0
1659376155293219804,0.42584550380706787,2.3428401947021484,0.0
1659376155310598850,0.4341981112957001,2.345940351486206,0.0
1659376155367842197,0.4405319392681122,2.348296880722046,0.0
1659376155413822889,0.45123645663261414,2.352261543273926,0.0
1659376155457555532,0.45729416608810425,2.3544888496398926,0.0
1659376155503668308,0.4691232740879059,2.358842134475708,0.0
1659376155549215078,0.4753418564796448,2.361145257949829,0.0
1659376155594605922,0.4849821925163269,2.36470365524292,0.0
1659376155638193368,0.4910927414894104,2.366933822631836,0.0
1659376155681885242,0.5036785006523132,2.3715760707855225,0.0
1659376155725685596,0.5098373293876648,2.373894691467285,0.0
1659376155771698713,0.5215381979942322,2.3783023357391357,0.0
1659376155816673755,0.5276544690132141,2.3805902004241943,0.0
1659376155862542152,0.5376162528991699,2.384300947189331,0.0
1659376155913134336,0.5436865091323853,2.3865673542022705,0.0
1659376155964518070,0.5544121265411377,2.390619993209839,0.0
1659376156011354923,0.5605130791664124,2.3929483890533447,0.0
1659376156011819124,0.5695490837097168,2.396388530731201,0.0
1659376156065897464,0.5761801600456238,2.3988893032073975,0.0
1659376156094883680,0.5857276916503906,2.402479410171509,0.0
1659376156152903079,0.592237114906311,2.4049441814422607,0.0
1659376156206627368,0.6047793030738831,2.409703016281128,0.0
1659376156266053676,0.6113419532775879,2.412169933319092,0.0
1659376156314073085,0.6207237243652344,2.4156248569488525,0.0
1659376156362682104,0.6271973848342896,2.4179675579071045,0.0
1659376156406178712,0.637490451335907,2.4217312335968018,0.0
1659376156454939603,0.6438459753990173,2.4241018295288086,0.0
1659376156498393297,0.6563426852226257,2.4287657737731934,0.0
1659376156546852827,0.6628926992416382,2.431194305419922,0.0
1659376156594673156,0.6714552640914917,2.4343833923339844,0.0
1659376156728460073,0.6779943704605103,2.4368412494659424,0.0
1659376156728890419,0.6884270310401917,2.440809965133667,0.0
1659376156742953777,0.6949527263641357,2.443303108215332,0.0
1659376156748325824,0.7075226306915283,2.4481313228607178,0.0
1659376156819595575,0.7140092253684998,2.450655460357666,0.0
1659376156874394893,0.7232202291488647,2.4542746543884277,0.0
1659376156923119544,0.7295732498168945,2.4567928314208984,0.0
1659376156966996908,0.743403971195221,2.4622888565063477,0.0
1659376156967093229,0.7444387674331665,2.462700605392456,0.0
1659376157011687278,0.7509490251541138,2.4653029441833496,0.0
1659376157028441667,0.7613581418991089,2.469470977783203,0.0
1659376157077803373,0.7678664326667786,2.4720780849456787,0.0
1659376157133104801,0.7817144989967346,2.4776668548583984,0.0
1659376157183471441,0.7880197167396545,2.480236053466797,0.0
1659376157238685369,0.7946022152900696,2.4829297065734863,0.0
1659376157282151222,0.8033818006515503,2.4865362644195557,0.0
1659376157326736688,0.8096541166305542,2.489119052886963,0.0
1659376157370558261,0.8210440874099731,2.4938313961029053,0.0
1659376157418728590,0.827400803565979,2.4964749813079834,0.0
1659376157466131448,0.8360720872879028,2.5000784397125244,0.0
1659376157510445594,0.8425675630569458,2.50278377532959,0.0
1659376157559013366,0.8516939282417297,2.5066113471984863,0.0
1659376157606968402,0.8581075072288513,2.5093157291412354,0.0
1659376157654954910,0.8710593581199646,2.514819622039795,0.0
1659376157701335906,0.8774787187576294,2.5175750255584717,0.0
1659376157746141910,0.8859849572181702,2.5212438106536865,0.0
1659376157794439792,0.8922838568687439,2.523958921432495,0.0
1659376157838996171,0.9059538245201111,2.529843330383301,0.0
1659376157882515192,0.9124875068664551,2.532653331756592,0.0
1659376157984485626,0.9188356995582581,2.535382032394409,0.0
1659376157984581232,0.9278600215911865,2.5392556190490723,0.0
1659376157991287231,0.9340934157371521,2.541930913925171,0.0
1659376158032922029,0.9447896480560303,2.546529531478882,0.0
1659376158083999156,0.9511167407035828,2.549243211746216,0.0
1659376158130139589,0.9599378108978271,2.5530128479003906,0.0
1659376158174595594,0.9661316275596619,2.555652141571045,0.0
1659376158219194650,0.9795137047767639,2.5613083839416504,0.0
1659376158264454603,0.9857695698738098,2.5639307498931885,0.0
1659376158320114612,0.9920498728752136,2.5665602684020996,0.0
1659376158366747856,1.0001039505004883,2.569934129714966,0.0
1659376158418535947,1.0061976909637451,2.5724849700927734,0.0
1659376158466808080,1.0166858434677124,2.5768611431121826,0.0
1659376158510550737,1.0225741863250732,2.579312801361084,0.0
1659376158558542966,1.0346200466156006,2.5843594074249268,0.0
1659376158603594303,1.0404016971588135,2.586803674697876,0.0
1659376158603849172,1.0491807460784912,2.590542793273926,0.0
1659376158650810718,1.0550178289413452,2.593050479888916,0.0
1659376158689000129,1.066624641418457,2.5980944633483887,0.0
1659376158737972259,1.0723271369934082,2.6005945205688477,0.0
1659376158794316053,1.0856804847717285,2.6065704822540283,0.0
1659376158844282388,1.0911811590194702,2.6090877056121826,0.0
1659376158898625373,1.0968581438064575,2.611706256866455,0.0
1659376158942535638,1.1045235395431519,2.6152710914611816,0.0
1659376158987401962,1.1090388298034668,2.6173863410949707,0.0
1659376159034107208,1.1151701211929321,2.6202878952026367,0.0
1659376159082301378,1.1165173053741455,2.6209323406219482,0.0
1659376159126628398,1.1176350116729736,2.621469736099243,0.0
1659376159174386739,1.1177946329116821,2.621546745300293,0.0
1659376159222461700,1.1178858280181885,2.6215908527374268,0.0
1659376159269199371,1.1178630590438843,2.621579885482788,0.0
1659376159269274711,1.1178858280181885,2.6215908527374268,0.0
1659376159314194917,1.1178858280181885,2.6215908527374268,0.0
1659376159361156702,1.1178858280181885,2.6215908527374268,0.0
1659376159410710811,1.1178858280181885,2.6215908527374268,0.0
1659376159459293127,1.1178858280181885,2.6215908527374268,0.0
1659376159502808809,1.1178858280181885,2.6215908527374268,0.0
1659376159548949241,1.1178858280181885,2.6215908527374268,0.0
1659376159596186637,1.1178858280181885,2.6215908527374268,0.0
1659376159644694328,1.1178858280181885,2.6215908527374268,0.0
1659376159690000057,1.1178858280181885,2.6215908527374268,0.0
1659376159737938165,1.1178858280181885,2.6215908527374268,0.0
1659376159781517505,1.1178858280181885,2.6215908527374268,0.0
1659376159825616121,1.117065191268921,2.621195077896118,0.0
1659376159869912862,1.1146022081375122,2.620009183883667,0.0
1659376159913838624,1.108507752418518,2.617089033126831,0.0
1659376159957793712,1.1036856174468994,2.6147937774658203,0.0
1659376160001865625,1.0934882164001465,2.610011100769043,0.0
1659376160046474456,1.087602972984314,2.607300281524658,0.0
1659376160090816974,1.0787768363952637,2.6032910346984863,0.0
1659376160134696722,1.0726628303527832,2.6005330085754395,0.0
1659376160178025722,1.0630652904510498,2.5962026119232178,0.0
1659376160222424983,1.056929349899292,2.5934314727783203,0.0
1659376160266288280,1.0488216876983643,2.589738130569458,0.0
1659376160310359477,1.0425420999526978,2.586854934692383,0.0
1659376160355320215,1.0337928533554077,2.582859992980957,0.0
1659376160398515701,1.0274498462677002,2.579993963241577,0.0
1659376160442875623,1.0156184434890747,2.574706792831421,0.0
1659376160487234592,1.0091848373413086,2.571857213973999,0.0
1659376160530064344,0.9999721050262451,2.567782402038574,0.0
1659376160574694871,0.9939804077148438,2.5651228427886963,0.0
1659376160618327617,0.9850541353225708,2.561213970184326,0.0
1659376160662625074,0.9790281057357788,2.5586330890655518,0.0
1659376160706689834,0.9677565693855286,2.5538997650146484,0.0
1659376160750516653,0.9616707563400269,2.551395893096924,0.0
1659376160798220872,0.9518042802810669,2.547438621520996,0.0
1659376160842809438,0.9453719854354858,2.544914484024048,0.0
1659376160886354446,0.9327622056007385,2.5399789810180664,0.0
1659376161011979341,0.9267259240150452,2.537623643875122,0.0
1659376161012061595,0.9206101298332214,2.5352632999420166,0.0
1659376161017272472,0.9137004613876343,2.5326404571533203,0.0
1659376161052851438,0.9074875116348267,2.5303220748901367,0.0
1659376161071487188,0.8974562883377075,2.526653289794922,0.0
1659376161124524831,0.891645073890686,2.5246386528015137,0.0
1659376161196206331,0.8851206302642822,2.52252197265625,0.0
1659376161247107267,0.876512348651886,2.519859552383423,0.0
1659376161291498661,0.8700132369995117,2.517916679382324,0.0
1659376161291916847,0.8596912026405334,2.5148885250091553,0.0
1659376161336935758,0.8531495332717896,2.513000726699829,0.0
1659376161358129501,0.8441537618637085,2.51039719581604,0.0
1659376161407724142,0.8377770185470581,2.5085771083831787,0.0
1659376161464061498,0.8246182203292847,2.504976749420166,0.0
1659376161516560077,0.8182770609855652,2.503314256668091,0.0
1659376161573649168,0.8118718266487122,2.5016977787017822,0.0
1659376161618413925,0.8016712665557861,2.4991915225982666,0.0
1659376161668715953,0.7951634526252747,2.497675657272339,0.0
1659376161714763164,0.7837281823158264,2.4952316284179688,0.0
1659376161758494138,0.7773756384849548,2.493955135345459,0.0
1659376161806620836,0.7682535648345947,2.492202043533325,0.0
1659376161852753639,0.7618016004562378,2.491041660308838,0.0
1659376161899775743,0.7531654238700867,2.489588737487793,0.0
1659376161943003654,0.7466650009155273,2.4885635375976562,0.0
1659376161943250417,0.7375025749206543,2.487197160720825,0.0
1659376161990764379,0.7317669987678528,2.486361265182495,0.0
1659376162034432411,0.7250789403915405,2.485391616821289,0.0
1659376162079151868,0.717003345489502,2.484292507171631,0.0
1659376162127723932,0.710900604724884,2.483527660369873,0.0
1659376162170527696,0.7003454566001892,2.482264280319214,0.0
1659376162214677810,0.6942842602729797,2.4815783500671387,0.0
1659376162259409189,0.6789962649345398,2.480056047439575,0.0
1659376162309285640,0.6728691458702087,2.479520320892334,0.0
1659376162354655265,0.6661341786384583,2.4789631366729736,0.0
1659376162398314237,0.6580906510353088,2.4782609939575195,0.0
1659376162442815065,0.6520987153053284,2.4776411056518555,0.0
1659376162505132436,0.6415989398956299,2.476567268371582,0.0
1659376162505295276,0.6356495022773743,2.4760336875915527,0.0
1659376162550328493,0.6257829070091248,2.4752650260925293,0.0
1659376162582245588,0.6195427775382996,2.474884033203125,0.0
1659376162626425027,0.6104940176010132,2.4744091033935547,0.0
1659376162673369169,0.6041749715805054,2.474078416824341,0.0
1659376162720897436,0.5974509119987488,2.473738670349121,0.0
1659376162766083478,0.5890060067176819,2.4733517169952393,0.0
1659376162813650131,0.5828112959861755,2.4730703830718994,0.0
1659376162813718080,0.5720431208610535,2.472517251968384,0.0
1659376162861162662,0.5653982162475586,2.472121477127075,0.0
1659376162895964384,0.5556458830833435,2.4715359210968018,0.0
1659376162951903581,0.5488736033439636,2.4711501598358154,0.0
1659376162998820781,0.5400523543357849,2.4706859588623047,0.0
1659376163047159194,0.533755898475647,2.47041392326355,0.0
1659376163096127033,0.5221172571182251,2.4700987339019775,0.0
1659376163146866798,0.515916645526886,2.470017910003662,0.0
1659376163190480470,0.5059448480606079,2.46990704536438,0.0
1659376163238704919,0.49959272146224976,2.4698033332824707,0.0
1659376163287309646,0.4866630733013153,2.4694766998291016,0.0
1659376163334629535,0.47993332147598267,2.4692795276641846,0.0
1659376163382895469,0.4706471264362335,2.469050645828247,0.0
1659376163428550720,0.46404165029525757,2.468961000442505,0.0
1659376163428669929,0.4536895751953125,2.468959093093872,0.0
1659376163478525876,0.44715970754623413,2.469022035598755,0.0
1659376163532558917,0.43364524841308594,2.4692201614379883,0.0
1659376163587605953,0.4267115592956543,2.4693610668182373,0.0
1659376163630252838,0.4171725809574127,2.469606637954712,0.0
1659376163681682109,0.41092318296432495,2.469777822494507,0.0
1659376163727042675,0.4006795287132263,2.470160961151123,0.0
1659376163770120143,0.3944113552570343,2.470494508743286,0.0
1659376163818488121,0.3821916878223419,2.4713611602783203,0.0
1659376163863764524,0.37570953369140625,2.4719042778015137,0.0
1659376163911274194,0.3669590651988983,2.4726572036743164,0.0
1659376163958382606,0.361663281917572,2.473111629486084,0.0
1659376164006248950,0.35401806235313416,2.473716974258423,0.0
1659376164050474166,0.34952718019485474,2.4740772247314453,0.0
1659376164094149589,0.3402113616466522,2.4750354290008545,0.0
1659376164142678022,0.33486270904541016,2.4757111072540283,0.0
1659376164186237096,0.3261187672615051,2.4769654273986816,0.0
1659376164235111713,0.3202188014984131,2.4778988361358643,0.0
1659376164278512477,0.3122822642326355,2.479238271713257,0.0
1659376164323179483,0.30745041370391846,2.480112314224243,0.0
1659376164366658210,0.29891809821128845,2.481847047805786,0.0
1659376164412465095,0.29433292150497437,2.482914447784424,0.0
1659376164459896564,0.28786540031433105,2.4845938682556152,0.0
1659376164506482601,0.2834276258945465,2.4858293533325195,0.0
1659376164550411939,0.2773492932319641,2.4875881671905518,0.0
1659376164594285964,0.2729727625846863,2.4889423847198486,0.0
1659376164642724514,0.2663572430610657,2.4911863803863525,0.0
1659376164692487716,0.26207447052001953,2.4927401542663574,0.0
1659376164692674398,0.2555760443210602,2.4952337741851807,0.0
1659376164741857767,0.2513187825679779,2.49699330329895,0.0
1659376164765554428,0.24545539915561676,2.4996299743652344,0.0
1659376164823708772,0.24103453755378723,2.5017669200897217,0.0
1659376164869557142,0.234259232878685,2.5052506923675537,0.0
1659376164914513587,0.23095980286598206,2.5070245265960693,0.0
1659376164959353923,0.22936585545539856,2.5079078674316406,0.0
1659376165003409147,0.23032768070697784,2.5073463916778564,0.0
1659376165050340890,0.23312866687774658,2.505619764328003,0.0
1659376165098487138,0.235562264919281,2.5040695667266846,0.0
1659376165142451524,0.23956535756587982,2.5014045238494873,0.0
1659376165186478614,0.2425919622182846,2.499284267425537,0.0
1659376165231609582,0.24781879782676697,2.495454788208008,0.0
1659376165282439470,0.2514522671699524,2.4926645755767822,0.0
1659376165328498601,0.2551696300506592,2.489694118499756,0.0
1659376165328612327,0.26052093505859375,2.485203742980957,0.0
1659376165379979372,0.2640838921070099,2.4820497035980225,0.0
1659376165421846389,0.27005133032798767,2.476351261138916,0.0
1659376165472651958,0.27290359139442444,2.473405599594116,0.0
1659376165519044637,0.2760002017021179,2.4699950218200684,0.0
1659376165562196016,0.2764590382575989,2.4694550037384033,0.0
1659376165610590934,0.2750996947288513,2.4711551666259766,0.0
1659376165659147262,0.27353739738464355,2.473210573196411,0.0
1659376165703146219,0.2698856592178345,2.478347063064575,0.0
1659376165749821424,0.2676357328891754,2.4817750453948975,0.0
1659376165794773101,0.26457852125167847,2.486788511276245,0.0
1659376165838213205,0.2625540792942047,2.490354299545288,0.0
1659376165887186527,0.2604505121707916,2.494281053543091,0.0
1659376165930469512,0.25832274556159973,2.498537302017212,0.0
1659376165978693008,0.2578411400318146,2.4995694160461426,0.0
1659376165978785514,0.25862929224967957,2.4977316856384277,0.0
1659376166027311086,0.2594481408596039,2.495633125305176,0.0
1659376166084621906,0.260419100522995,2.4929158687591553,0.0
1659376166131915807,0.26191088557243347,2.488290786743164,0.0
1659376166179182291,0.2630915343761444,2.4842584133148193,0.0
1659376166226730585,0.26521480083465576,2.4760234355926514,0.0
1659376166270863533,0.2663465142250061,2.4709856510162354,0.0
1659376166314381599,0.2674066424369812,2.4657771587371826,0.0
1659376166359519481,0.2688884735107422,2.457479953765869,0.0
1659376166406848192,0.26968318223953247,2.452352523803711,0.0
1659376166406937122,0.27084457874298096,2.4436469078063965,0.0
1659376166454852581,0.27146822214126587,2.438138961791992,0.0
1659376166497498512,0.2724882662296295,2.4272525310516357,0.0
1659376166556736469,0.27291324734687805,2.4215734004974365,0.0
1659376166602140665,0.2734038531780243,2.412424087524414,0.0
1659376166647249460,0.2735848128795624,2.4067068099975586,0.0
1659376166694285392,0.2737084925174713,2.3990893363952637,0.0
1659376166742173433,0.27371126413345337,2.393596887588501,0.0
1659376166786258220,0.2735312283039093,2.3844869136810303,0.0
1659376166834558486,0.27329888939857483,2.378847360610962,0.0
1659376166879438638,0.2726508677005768,2.3678815364837646,0.0
1659376166923277616,0.2722119390964508,2.3619496822357178,0.0
1659376166966531991,0.2714774012565613,2.353705644607544,0.0
1659376167010837316,0.2708357870578766,2.3475377559661865,0.0
1659376167054294109,0.2697531282901764,2.3383629322052,0.0
1659376167098626613,0.26893526315689087,2.332139492034912,0.0
1659376167142720937,0.2676798105239868,2.323293447494507,0.0
1659376167193049907,0.26672863960266113,2.3169608116149902,0.0
1659376167238461971,0.2653804421424866,2.3084614276885986,0.0
1659376167288441896,0.26430246233940125,2.302020788192749,0.0
1659376167288558483,0.26251545548439026,2.292029857635498,0.0
