%time,field.x,field.y,field.z
16266000000,-2.0000208568052034,-0.49999055882140475,-0.0010013929435414605
16298000000,-2.0000208600220644,-0.49999053988844927,-0.001001392943570066
16333000000,-2.0000208633364203,-0.499990520381724,-0.0010013929435995113
16365000000,-2.0000208665533092,-0.49999050144868323,-0.00100139294362811
16399000000,-2.0000208697702124,-0.4999904825156006,-0.0010013929436567016
16432000000,-2.0000208730846114,-0.4999904630087444,-0.0010013929436861468
16464000000,-2.000020876301542,-0.4999904440755766,-0.0010013929437147455
16499000000,-2.0000208795184853,-0.49999042514236697,-0.0010013929437433476
16533000000,-2.0000208828329264,-0.49999040563537983,-0.0010013929437727928
16566000000,-2.000020886049897,-0.49999038670208507,-0.001001392943801388
16599000000,-2.000020889266881,-0.4999903677687483,-0.0010013929438299832
16633000000,-2.000020892581363,-0.4999903482616303,-0.0010013929438594492
16665000000,-2.0000208957983747,-0.4999903293282084,-0.0010013929438880374
16699000000,-2.000020899015399,-0.4999903103947445,-0.0010013929439166326
16733000000,-2.000020902329925,-0.49999029088749564,-0.0010013929439460882
16766000000,-2.0000209055469784,-0.49999027195394663,-0.0010013929439746903
16798000000,-2.0000209087640455,-0.49999025302035577,-0.0010013929440032786
16833000000,-2.000020912078613,-0.4999902335129759,-0.001001392944032748
16866000000,-2.000020915295707,-0.4999902145792999,-0.0010013929440613467
16904000000,-2.000020918512814,-0.4999901956455817,-0.001001392944089928
16944000000,-2.0000209218274234,-0.49999017613807073,-0.001001392944119394
16980000000,-2.0000209250445575,-0.49999015720426754,-0.001001392944148003
17018000000,-2.000020928261705,-0.4999901382704225,-0.0010013929441765983
17053000000,-2.000020931576356,-0.49999011876278066,-0.0010013929442060608
17094000000,-2.000020934793531,-0.4999900998288504,-0.001001392944234663
17129000000,-2.000020938010721,-0.49999008089487823,-0.0010013929442632581
17160000000,-2.000020941325415,-0.4999900613871056,-0.0010013929442927241
17187000000,-2.000020944542632,-0.4999900424530483,-0.0010013929443213124
17221000000,-2.0000209477598623,-0.499990023518949,-0.001001392944349925
17265000000,-2.0000209510745983,-0.4999900040110454,-0.001001392944379377
17303000000,-2.0000209542918554,-0.4999899850768611,-0.0010013929444079826
17304000000,-2.000020957509126,-0.4999899661426348,-0.0010013929444365778
17333000000,-2.0000209608239037,-0.4999899466346001,-0.0010013929444660438
17366000000,-2.0000209640412017,-0.49998992770028855,-0.0010013929444946564
17398000000,-2.0000209672585125,-0.49998990876593513,-0.001001392944523255
17432000000,-2.000020970573333,-0.49998988925776944,-0.001001392944552721
17468000000,-2.000020973790673,-0.49998987032333086,-0.0010013929445813266
17499000000,-2.000020977008026,-0.4999898513888504,-0.0010013929446099253
17533000000,-2.000020980322889,-0.4999898318805537,-0.0010013929446393809
17568000000,-2.0000209835402694,-0.49998981294598815,-0.00100139294466799
17600000000,-2.0000209867576633,-0.4999897940113805,-0.0010013929446965886
17645000000,-2.0000209900725676,-0.49998977450295295,-0.0010013929447260615
17671000000,-2.0000209932899886,-0.4999897555682601,-0.0010013929447546671
17699000000,-2.000020996507423,-0.49998973663352536,-0.0010013929447832727
17733000000,-2.000020999822369,-0.499989717124967,-0.0010013929448127491
17770000000,-2.0000210030398304,-0.49998969819014705,-0.0010013929448413478
17801000000,-2.000021006257307,-0.49998967925528526,-0.00100139294486995
17833000000,-2.000021009572296,-0.49998965974659587,-0.0010013929448994263
17867000000,-2.0000210127897997,-0.4999896408116489,-0.0010013929449280354
17898000000,-2.0000210160073166,-0.4999896218766601,-0.0010013929449566236
17933000000,-2.000021019322348,-0.4999896023678399,-0.001001392944986093
17966000000,-2.000021022539892,-0.4999895834327658,-0.0010013929450147022
17999000000,-2.000021025757449,-0.49998956449764975,-0.0010013929450433147
18033000000,-2.0000210290725224,-0.49998954498869846,-0.0010013929450727772
18066000000,-2.000021032290107,-0.49998952605349717,-0.0010013929451014071
18106000000,-2.0000210355077046,-0.49998950711825424,-0.0010013929451299988
18148000000,-2.00002103882282,-0.499989487609172,-0.0010013929451594683
18167000000,-2.000021042040446,-0.4999894686738439,-0.0010013929451880808
18209000000,-2.000021045258086,-0.4999894497384737,-0.001001392945216676
18241000000,-2.000021048573244,-0.4999894302292605,-0.001001392945246156
18266000000,-2.000021051790911,-0.4999894112938051,-0.001001392945274758
18300000000,-2.0000210550085913,-0.49998939235830775,-0.0010013929453033775
18333000000,-2.000021058323791,-0.4999893728489636,-0.001001392945332847
18366000000,-2.0000210615414984,-0.4999893539133813,-0.001001392945361449
18398000000,-2.000021064759219,-0.4999893349777568,-0.0010013929453900547
18433000000,-2.0000210680744606,-0.49998931546828174,-0.001001392945419538
18466000000,-2.0000210712922084,-0.49998929653257207,-0.0010013929454481471
18499000000,-2.000021074509971,-0.49998927759682044,-0.0010013929454767527
18533000000,-2.0000210778252554,-0.4999892580872144,-0.0010013929455062291
18566000000,-2.000021081043046,-0.4999892391513778,-0.0010013929455348451
18599000000,-2.0000210842608492,-0.4999892202154992,-0.0010013929455634542
18633000000,-2.000021087576176,-0.49998920070576225,-0.0010013929455929202
18666000000,-2.0000210907940064,-0.49998918176979845,-0.0010013929456215466
18699000000,-2.00002109401185,-0.4999891628337929,-0.0010013929456501348
18733000000,-2.000021097327218,-0.49998914332392497,-0.0010013929456796147
18766000000,-2.000021100545089,-0.4999891243878341,-0.0010013929457082342
18799000000,-2.000021103762973,-0.4999891054517012,-0.0010013929457368537
18833000000,-2.0000211070783833,-0.49998908594170227,-0.001001392945766344
18867000000,-2.0000211102962964,-0.49998906700548434,-0.0010013929457949426
18899000000,-2.0000211135142227,-0.4999890480692245,-0.0010013929458235517
18933000000,-2.000021116829676,-0.49998902855909455,-0.001001392945853035
18966000000,-2.0000211200476294,-0.4999890096227495,-0.0010013929458816476
18999000000,-2.0000211232655962,-0.49998899068636254,-0.0010013929459102497
19036000000,-2.000021126581091,-0.49998897117610175,-0.001001392945939733
19066000000,-2.0000211297990855,-0.4999889522396295,-0.0010013929459683525
19101000000,-2.000021133017093,-0.49998893330311545,-0.001001392945996965
19133000000,-2.00002113633263,-0.4999889137927236,-0.0010013929460264553
19166000000,-2.000021139550664,-0.49998889485612436,-0.001001392946055061
19199000000,-2.0000211427687127,-0.49998887591948316,-0.001001392946083677
19233000000,-2.0000211460842925,-0.4999888564089605,-0.0010013929461131672
19266000000,-2.0000211493023694,-0.499988837472234,-0.0010013929461417832
19299000000,-2.0000211525204596,-0.49998881853546556,-0.0010013929461703992
19332000000,-2.000021155836081,-0.49998879902481197,-0.0010013929461998826
19366000000,-2.000021159054198,-0.49998878008795844,-0.0010013929462284882
19401000000,-2.0000211622723283,-0.4999887611510629,-0.0010013929462571146
19439000000,-2.000021165587992,-0.4999887416402783,-0.001001392946286591
19466000000,-2.0000211688061498,-0.4999887227032976,-0.0010013929463152105
19499000000,-2.0000211720243204,-0.499988703766275,-0.0010013929463438334
19537000000,-2.000021175340026,-0.4999886842553596,-0.0010013929463733202
19566000000,-2.000021178558225,-0.49998866531825187,-0.0010013929464019328
19599000000,-2.000021181776438,-0.4999886463811022,-0.0010013929464305522
19633000000,-2.0000211850921867,-0.4999886268700556,-0.001001392946460039
19666000000,-2.000021188310427,-0.49998860793282074,-0.001001392946488662
19699000000,-2.0000211915286803,-0.49998858899554416,-0.0010013929465172641
19735000000,-2.000021194844471,-0.4999885694843665,-0.001001392946546751
19766000000,-2.000021198062752,-0.4999885505470045,-0.0010013929465753878
19804000000,-2.000021201281046,-0.49998853160960055,-0.0010013929466040072
19834000000,-2.000021204596878,-0.49998851209829204,-0.001001392946633494
19866000000,-2.000021207815199,-0.499988493160803,-0.0010013929466621135
19894000000,-2.0000212110335336,-0.4999884742232721,-0.0010013929466907295
19934000000,-2.000021214349409,-0.49998845471183256,-0.0010013929467202198
19971000000,-2.0000212175677725,-0.49998843577421626,-0.0010013929467488393
20004000000,-2.000021220786149,-0.4999884168365581,-0.0010013929467774692
20040000000,-2.000021224102066,-0.4999883973249878,-0.0010013929468069456
20077000000,-2.00002122732047,-0.4999883783872444,-0.001001392946835572
20120000000,-2.0000212305388874,-0.4999883594494591,-0.001001392946864195
20144000000,-2.000021233854846,-0.49998833993775765,-0.0010013929468936887
20170000000,-2.00002123707329,-0.4999883209998874,-0.0010013929469223116
20204000000,-2.0000212402917477,-0.49998830206197514,-0.0010013929469509311
20236000000,-2.0000212436077485,-0.49998828255014277,-0.0010013929469804214
20273000000,-2.000021246826234,-0.4999882636121452,-0.001001392947009034
20299000000,-2.0000212500447336,-0.49998824467410574,-0.0010013929470376742
20333000000,-2.0000212533607775,-0.49998822516214236,-0.001001392947067161
20366000000,-2.0000212565793043,-0.49998820622401763,-0.001001392947095784
20406000000,-2.000021259797845,-0.499988187285851,-0.001001392947124407
20433000000,-2.0000212631139305,-0.49998816777375676,-0.0010013929471538972
20466000000,-2.0000212663324977,-0.49998814883550496,-0.0010013929471825167
20505000000,-2.0000212695510786,-0.49998812989721125,-0.0010013929472111466
20540000000,-2.0000212728672055,-0.499988110384986,-0.0010013929472406369
20568000000,-2.000021276085813,-0.4999880914466069,-0.0010013929472692702
20600000000,-2.0000212793044345,-0.49998807250818594,-0.0010013929472979
20633000000,-2.000021282620605,-0.49998805299582966,-0.0010013929473273904
20666000000,-2.0000212858392548,-0.49998803405732367,-0.0010013929473560203
20700000000,-2.000021289057918,-0.4999880151187757,-0.0010013929473846397
20736000000,-2.00002129237413,-0.4999879956062884,-0.00100139294741413
20768000000,-2.0000212955928207,-0.4999879766676554,-0.0010013929474427634
20802000000,-2.0000212988115242,-0.4999879577289803,-0.0010013929474713967
20833000000,-2.0000213021277786,-0.49998793821636206,-0.0010013929475008766
20861000000,-2.0000213053465097,-0.49998791927760194,-0.00100139294752951
20899000000,-2.000021308565254,-0.49998790033879975,-0.0010013929475581572
20934000000,-2.00002131188155,-0.49998788082605033,-0.0010013929475876475
20967000000,-2.0000213151003217,-0.499987861887163,-0.001001392947616267
21004000000,-2.0000213183191082,-0.4999878429482336,-0.0010013929476449003
21033000000,-2.000021321635447,-0.49998782343535353,-0.0010013929476743975
21064000000,-2.000021324854261,-0.499987804496339,-0.0010013929477030378
21099000000,-2.000021328073088,-0.49998778555728257,-0.0010013929477316746
21133000000,-2.000021331389469,-0.4999877660442714,-0.001001392947761158
21166000000,-2.0000213346083227,-0.4999877471051298,-0.0010013929477897913
21199000000,-2.00002133782719,-0.49998772816594617,-0.0010013929478184143
21233000000,-2.000021341143613,-0.49998770865280406,-0.0010013929478479254
21266000000,-2.0000213443625077,-0.49998768971353513,-0.0010013929478765587
21299000000,-2.0000213475814155,-0.49998767077422457,-0.001001392947905192
21333000000,-2.0000213508978804,-0.4999876512609513,-0.0010013929479346893
21366000000,-2.0000213541168175,-0.49998763232155546,-0.0010013929479633227
21399000000,-2.0000213573357675,-0.49998761338211767,-0.0010013929479919421
21434000000,-2.0000213606522754,-0.49998759386871344,-0.0010013929480214637
21466000000,-2.0000213638712525,-0.49998757492919055,-0.0010013929480500831
21499000000,-2.000021367090243,-0.49998755598962547,-0.0010013929480787165
21533000000,-2.000021370406792,-0.4999875364760905,-0.0010013929481082241
21566000000,-2.00002137362581,-0.4999875175364404,-0.0010013929481368332
21599000000,-2.000021376844841,-0.49998749859674807,-0.0010013929481655116
21634000000,-2.0000213801614324,-0.499987479083082,-0.0010013929481950123
21666000000,-2.0000213833804903,-0.4999874601433048,-0.0010013929482236353
21700000000,-2.000021386599563,-0.49998744120348554,-0.001001392948252279
21739000000,-2.0000213899161974,-0.4999874216896886,-0.0010013929482817555
21766000000,-2.000021393135298,-0.49998740274978404,-0.0010013929483104027
21799000000,-2.0000213963544113,-0.4999873838098377,-0.0010013929483390256
21833000000,-2.0000213996710876,-0.49998736429590973,-0.0010013929483685333
21867000000,-2.0000214028902286,-0.49998734535587797,-0.0010013929483971805
21899000000,-2.000021406109383,-0.49998732641580446,-0.0010013929484258104
21933000000,-2.000021409426101,-0.49998730690174537,-0.0010013929484553319
21967000000,-2.000021412645282,-0.4999872879615867,-0.0010013929484839548
21996000000,-2.000021415864477,-0.49998726902138596,-0.001001392948512602
22034000000,-2.000021419181237,-0.4999872495071959,-0.0010013929485421132
22066000000,-2.00002142240046,-0.49998723056691,-0.0010013929485707534
22099000000,-2.000021425619697,-0.4999872116265824,-0.0010013929485993833
22135000000,-2.0000214289365,-0.49998719211226145,-0.001001392948628884
22166000000,-2.0000214321557643,-0.4999871731718484,-0.0010013929486575243
22202000000,-2.0000214353750416,-0.4999871542313934,-0.0010013929486861715
22233000000,-2.0000214386918866,-0.49998713471694134,-0.0010013929487156792
22275000000,-2.000021441911191,-0.4999871157764012,-0.0010013929487443195
22304000000,-2.0000214451305087,-0.49998709683581916,-0.0010013929487729459
22337000000,-2.0000214484473955,-0.49998707732123615,-0.0010013929488024605
22365000000,-2.0000214516667407,-0.4999870583805688,-0.0010013929488311112
22399000000,-2.0000214548860993,-0.4999870394398596,-0.001001392948859734
22434000000,-2.000021458203029,-0.4999870199251455,-0.0010013929488892626
22465000000,-2.000021461422416,-0.499987000984351,-0.0010013929489178994
22499000000,-2.0000214646418164,-0.4999869820435146,-0.0010013929489465431
22533000000,-2.0000214679587884,-0.49998696252866964,-0.0010013929489760438
22567000000,-2.000021471178216,-0.49998694358774803,-0.0010013929490046876
22599000000,-2.0000214743976565,-0.4999869246467845,-0.0010013929490333313
22641000000,-2.0000214777146703,-0.49998690513180855,-0.001001392949062839
22679000000,-2.000021480934138,-0.49998688619076,-0.0010013929490914862
22709000000,-2.0000214841536197,-0.4999868672496694,-0.0010013929491201334
22735000000,-2.000021487470675,-0.49998684773456237,-0.001001392949149648
22766000000,-2.0000214906901843,-0.4999868287933865,-0.0010013929491782814
22799000000,-2.000021493909708,-0.4999868098521686,-0.001001392949206932
22833000000,-2.000021497226807,-0.4999867903369306,-0.0010013929492364501
22866000000,-2.0000215004463575,-0.4999867713956277,-0.0010013929492650973
22898000000,-2.0000215036659217,-0.49998675245428265,-0.0010013929492937307
22933000000,-2.000021506983062,-0.49998673293891366,-0.0010013929493232314
22965000000,-2.0000215102026533,-0.49998671399748346,-0.001001392949351882
22999000000,-2.000021513422258,-0.49998669505601145,-0.0010013929493805362
23032000000,-2.00002151673944,-0.49998667554051157,-0.001001392949410044
23069000000,-2.0000215199590716,-0.4999866565989543,-0.001001392949438705
23102000000,-2.0000215231787166,-0.49998663765735524,-0.0010013929494673418
23137000000,-2.000021526495942,-0.49998661814172424,-0.001001392949496853
23172000000,-2.0000215297156156,-0.4999865992000398,-0.0010013929495255106
23210000000,-2.000021532935303,-0.4999865802583134,-0.0010013929495541612
23246000000,-2.00002153625257,-0.4999865607425514,-0.0010013929495836758
23268000000,-2.0000215394722844,-0.49998654180073976,-0.0010013929496123126
23305000000,-2.0000215426920125,-0.4999865228588863,-0.0010013929496409668
23331000000,-2.0000215460093216,-0.4999865033429935,-0.001001392949670478
23366000000,-2.0000215492290763,-0.49998648440105486,-0.0010013929496991286
23399000000,-2.0000215524488447,-0.4999864654590741,-0.0010013929497277758
23433000000,-2.0000215557661956,-0.49998644594305025,-0.0010013929497573112
23468000000,-2.000021558985991,-0.4999864270009845,-0.001001392949785955
23499000000,-2.0000215622058013,-0.4999864080588766,-0.0010013929498145849
23533000000,-2.000021565523195,-0.49998638854272154,-0.0010013929498441203
23566000000,-2.000021568743033,-0.49998636960052856,-0.0010013929498727606
23596000000,-2.000021571962884,-0.49998635065829355,-0.0010013929499014078
23633000000,-2.00002157528032,-0.4999863311420075,-0.0010013929499309362
23668000000,-2.000021578500198,-0.49998631219968737,-0.0010013929499595765
23699000000,-2.0000215817200893,-0.49998629325732513,-0.0010013929499882376
23733000000,-2.000021585037567,-0.4999862737409081,-0.001001392950017766
23768000000,-2.0000215882574857,-0.4999862547984608,-0.0010013929500464133
23799000000,-2.0000215914774175,-0.4999862358559716,-0.001001392950075078
23833000000,-2.000021594794937,-0.49998621633942364,-0.0010013929501045751
23865000000,-2.000021598014898,-0.4999861973968492,-0.0010013929501332501
23899000000,-2.000021601234872,-0.49998617845423277,-0.0010013929501618973
23933000000,-2.0000216045524346,-0.49998615893755377,-0.0010013929501914084
23966000000,-2.0000216077724358,-0.49998613999485225,-0.0010013929502200487
24000000000,-2.0000216109924507,-0.49998612105210855,-0.0010013929502487064
24034000000,-2.0000216143100555,-0.4999861015352985,-0.0010013929502782383
24066000000,-2.000021617530097,-0.4999860825924698,-0.001001392950306896
24099000000,-2.000021620750152,-0.499986063649599,-0.00100139295033555
24136000000,-2.0000216240677986,-0.49998604413265796,-0.0010013929503650855
24166000000,-2.000021627287881,-0.4999860251897021,-0.0010013929503937362
24199000000,-2.000021630507977,-0.49998600624670414,-0.0010013929504223903
24233000000,-2.000021633825667,-0.49998598672963207,-0.0010013929504519119
24266000000,-2.000021637045791,-0.499985967786549,-0.001001392950480559
24299000000,-2.0000216402659285,-0.49998594884342423,-0.0010013929505092133
24334000000,-2.0000216435836604,-0.49998592932622116,-0.0010013929505387383
24368000000,-2.0000216468038254,-0.49998591038301093,-0.0010013929505673959
24404000000,-2.0000216500240033,-0.4999858914397587,-0.0010013929505960605
24434000000,-2.0000216533417774,-0.4999858719224245,-0.001001392950625589
24466000000,-2.000021656561983,-0.49998585297908704,-0.001001392950654257
24498000000,-2.0000216597822016,-0.4999858340357078,-0.0010013929506829077
24532000000,-2.0000216631000165,-0.49998581451824275,-0.0010013929507124326
24568000000,-2.0000216663202637,-0.49998579557477824,-0.0010013929507410903
24602000000,-2.0000216695405246,-0.49998577663127164,-0.0010013929507697514
24633000000,-2.0000216728583826,-0.4999857571136756,-0.0010013929507992833
24666000000,-2.0000216760786707,-0.499985738170084,-0.0010013929508279305
24702000000,-2.000021679298972,-0.49998571922645024,-0.001001392950856595
24741000000,-2.000021682616872,-0.4999856997087232,-0.001001392950886127
24763000000,-2.0000216858372,-0.4999856807650044,-0.0010013929509147743
24799000000,-2.0000216890575424,-0.49998566182124343,-0.0010013929509434492
24836000000,-2.0000216923754843,-0.4999856423033854,-0.0010013929509729777
24867000000,-2.000021695595853,-0.49998562335953944,-0.0010013929510016284
24903000000,-2.000021698816236,-0.49998560441565126,-0.0010013929510302964
24940000000,-2.000021702134221,-0.4999855848976622,-0.001001392951059825
24975000000,-2.000021705354632,-0.49998556595368887,-0.0010013929510884895
25013000000,-2.0000217085750567,-0.49998554700967374,-0.001001392951117147
25042000000,-2.0000217118930834,-0.4999855274915536,-0.0010013929511466652
25074000000,-2.000021715113535,-0.499985508547453,-0.0010013929511753505
25110000000,-2.000021718334,-0.49998548960331074,-0.0010013929512040151
25139000000,-2.000021721652069,-0.4999854700850595,-0.00100139295123354
25171000000,-2.000021724872561,-0.499985451140832,-0.0010013929512622012
25204000000,-2.000021728093067,-0.4999854321965624,-0.0010013929512908727
25247000000,-2.0000217314111777,-0.49998541267818014,-0.0010013929513204047
25286000000,-2.000021734631711,-0.49998539373382545,-0.0010013929513490658
25316000000,-2.0000217378522587,-0.4999853747894288,-0.0010013929513777442
25349000000,-2.0000217411704124,-0.49998535527091553,-0.0010013929514072588
25378000000,-2.0000217443909873,-0.4999853363264336,-0.0010013929514359268
25417000000,-2.000021747611576,-0.4999853173819097,-0.0010013929514645983
25451000000,-2.0000217509297715,-0.4999852978632655,-0.0010013929514941303
25483000000,-2.000021754150387,-0.49998527891865663,-0.001001392951522788
25511000000,-2.000021757371016,-0.4999852599740056,-0.0010013929515514594
25542000000,-2.0000217606892536,-0.49998524045523024,-0.0010013929515809983
25580000000,-2.0000217639099094,-0.49998522151049396,-0.0010013929516096733
25618000000,-2.000021767130579,-0.4999852025657157,-0.0010013929516383378
25646000000,-2.0000217704488588,-0.4999851830468095,-0.0010013929516678871
25685000000,-2.000021773669557,-0.49998516410194616,-0.0010013929516965343
25714000000,-2.000021776890269,-0.4999851451570409,-0.0010013929517251954
25746000000,-2.0000217802085913,-0.49998512563800346,-0.0010013929517547412
25780000000,-2.0000217834293297,-0.49998510669301294,-0.0010013929517834128
25812000000,-2.0000217866500813,-0.4999850877479805,-0.001001392951812067
25842000000,-2.000021789968446,-0.49998506822881217,-0.0010013929518416023
25872000000,-2.0000217931892252,-0.49998504928369425,-0.0010013929518702738
25907000000,-2.0000217964100178,-0.4999850303385344,-0.0010013929518989523
25940000000,-2.000021799728424,-0.499985010819235,-0.0010013929519284946
25980000000,-2.000021802949244,-0.49998499187399015,-0.0010013929519571627
26000000000,-2.000021806170078,-0.49998497292870325,-0.0010013929519858307
26036000000,-2.0000218094885276,-0.4999849534092728,-0.0010013929520153626
26072000000,-2.0000218127093894,-0.4999849344639008,-0.001001392952044041
26109000000,-2.0000218159302645,-0.49998491551848684,-0.0010013929520726952
26141000000,-2.0000218192487558,-0.4999848959989254,-0.0010013929521022445
26173000000,-2.000021822469658,-0.49998487705342615,-0.001001392952130909
26207000000,-2.0000218256905735,-0.4999848581078848,-0.001001392952159591
26240000000,-2.000021829009107,-0.49998483858819226,-0.0010013929521891438
26270000000,-2.00002183223005,-0.4999848196425658,-0.0010013929522178118
26301000000,-2.000021835451006,-0.4999848006968975,-0.001001392952246473
26333000000,-2.0000218387695816,-0.49998478117707396,-0.0010013929522760118
26371000000,-2.0000218419905664,-0.49998476223132016,-0.0010013929523046937
26400000000,-2.000021845211565,-0.49998474328552456,-0.0010013929523333687
26433000000,-2.0000218485301833,-0.49998472376557007,-0.001001392952362911
26466000000,-2.000021851751209,-0.4999847048196893,-0.0010013929523915721
26499000000,-2.0000218549722475,-0.4999846858737665,-0.001001392952420254
26537000000,-2.0000218582909075,-0.49998466635368083,-0.0010013929524498068
26566000000,-2.0000218615119736,-0.4999846474076729,-0.0010013929524784748
26608000000,-2.000021864733053,-0.499984628461623,-0.0010013929525071567
26641000000,-2.0000218680517547,-0.49998460894140634,-0.0010013929525367095
26671000000,-2.0000218712728612,-0.4999845899952711,-0.0010013929525653845
26700000000,-2.000021874493982,-0.499984571049094,-0.0010013929525940594
26738000000,-2.000021877812727,-0.4999845515287464,-0.0010013929526235983
26772000000,-2.0001040674442434,-0.4999869055590634,-0.001001316483174551
26805000000,-2.0003197684228047,-0.49999674325539806,-0.0010012778947314296
26838000000,-2.000619613674272,-0.5000193194101856,-0.0010014102409066292
26875000000,-2.0009142680078957,-0.5000514023577638,-0.0010014197905756118
26904000000,-2.001207813126147,-0.5000932087330847,-0.0010014357202649676
26937000000,-2.0015087420572195,-0.5001464112919316,-0.0010014577112904474
26973000000,-2.0017990260905973,-0.5002078242308423,-0.0010014827249246426
27009000000,-2.0020872244340864,-0.5002787787670192,-0.001001514027055811
27045000000,-2.002381638073059,-0.5003618142951313,-0.0010015489523275585
27072000000,-2.0026646277806086,-0.5004519638732058,-0.001001586827920363
27100000000,-2.002944599437023,-0.5005514376950969,-0.001001632387189557
27133000000,-2.0032295865941494,-0.5006635746101809,-0.0010016889444426358
27166000000,-2.003502571376353,-0.5007816778836228,-0.001001747980866205
27208000000,-2.0037714819538954,-0.5009086885393088,-0.0010018011067342118
27246000000,-2.004043798266423,-0.5010487541132411,-0.0010018611376943314
27289000000,-2.0043031383648144,-0.5011932734511235,-0.0010019179563366155
27326000000,-2.0045573880592604,-0.5013455614932929,-0.0010019915940766531
27359000000,-2.0048134640091337,-0.5015106198443425,-0.0010020907033094044
27388000000,-2.0050558409853787,-0.5016787820324669,-0.0010022655661265228
27421000000,-2.0053061938922805,-0.5018471313377736,-0.0010023429603112886
27447000000,-2.0056147045641812,-0.501984090336614,-0.0010011212015254359
27479000000,-2.0059393800890586,-0.5021011821731176,-0.001000723912223167
27519000000,-2.006247291899812,-0.5022573267562769,-0.0010012398172125209
27553000000,-2.006481215512099,-0.5024668445888654,-0.0010018000583173342
27583000000,-2.006687003325036,-0.5026801222008997,-0.0010017183990881744
27611000000,-2.006885047365511,-0.5028995190665199,-0.0010017038512020009
27656000000,-2.0070811061943363,-0.503132076358128,-0.001001675183936096
27692000000,-2.0072635031403596,-0.5033637591082856,-0.0010016409566620949
27724000000,-2.0074380173939317,-0.5036011512414751,-0.0010016019636648402
27753000000,-2.0076095322375767,-0.5038516143897993,-0.0010015611556892616
27788000000,-2.007767799600788,-0.5041001731244416,-0.0010015290321138022
27817000000,-2.0079178247048857,-0.5043538657900642,-0.0010015032459454974
27849000000,-2.0080636043989375,-0.5046203410309567,-0.0010014779344525368
27891000000,-2.008196404719967,-0.5048836472748397,-0.0010014572358364102
27929000000,-2.008320496581237,-0.5051512776340794,-0.0010014381048087453
27959000000,-2.0084390878553067,-0.5054312448365766,-0.0010014222640482191
27986000000,-2.0085450650387733,-0.5057067865055777,-0.0010014113348685572
28018000000,-2.008641928797893,-0.5059857831425528,-0.0010014043734534774
28049000000,-2.008732076672046,-0.5062765315795477,-0.0010014010663239037
28095000000,-2.0088101001521044,-0.50656161708846,-0.0010014014959261984
28130000000,-2.008878702018783,-0.5068492352093148,-0.0010014054471623839
28166000000,-2.0089394413359747,-0.5071478872994383,-0.001001413365679521
28197000000,-2.00898866949177,-0.507439680610447,-0.0010014250276999086
28236000000,-2.0090282540507367,-0.507733045814013,-0.0010014409911762757
28236000000,-2.009058896200911,-0.5080366009554397,-0.0010014625506021071
28266000000,-2.0090787506022196,-0.5083321514969288,-0.0010014887632156938
28299000000,-2.0090888588700806,-0.5086282879080819,-0.0010015160559750796
28334000000,-2.0090890761600297,-0.5089338681383974,-0.0010015539207268893
28366000000,-2.0090793494421635,-0.5092309144994426,-0.0010015825965698985
28399000000,-2.009059822332,-0.5095274647589869,-0.0010016275748897692
28433000000,-2.0090294727400653,-0.5098323046609182,-0.0010016832407593636
28467000000,-2.00899010805029,-0.5101272391699012,-0.0010017416271536524
28512000000,-2.0089410520880175,-0.5104206957078855,-0.001001793492392846
28545000000,-2.0088804502597797,-0.5107210548879318,-0.0010018519296562597
28580000000,-2.0088119332897607,-0.5110101697806069,-0.0010019079264043315
28614000000,-2.0087345312959832,-0.5112965721655861,-0.001001980215061725
28648000000,-2.008645284240219,-0.5115884168635794,-0.001002078456227188
28688000000,-2.0085488540134793,-0.5118692910969092,-0.001002187375944777
28719000000,-2.0084511269490495,-0.5121701874378904,-0.0010022490189138047
28745000000,-2.008386360428083,-0.5125357916330738,-0.0010010711426285714
28781000000,-2.0083227508731234,-0.5129244129348197,-0.0010010773137803242
28817000000,-2.0082015219943075,-0.5132995409011555,-0.0010013373293361952
28852000000,-2.0080370003534345,-0.5136098618788024,-0.0010013583327239672
28878000000,-2.007888178267721,-0.5138658032756832,-0.0010017293911732707
28914000000,-2.0077311924795986,-0.5141163732301751,-0.0010017019984295515
28941000000,-2.0075610111499236,-0.5143686219504823,-0.0010016717239872096
28968000000,-2.0073879458248753,-0.5146074673249028,-0.0010016365036403206
29008000000,-2.0072072274297885,-0.5148402962001961,-0.0010015973069126202
29033000000,-2.0070131099529838,-0.5150738151959718,-0.0010015568622853445
29066000000,-2.00681720190719,-0.5152940671110371,-0.001001525134196598
29102000000,-2.006614099451661,-0.5155077919611316,-0.0010014997566224655
29138000000,-2.006397536845768,-0.5157209244323897,-0.001001473644974632
29170000000,-2.00618047435709,-0.5159207022132881,-0.0010014534821326526
29207000000,-2.0059568687730724,-0.5161132822264716,-0.0010014346075146105
29249000000,-2.005719886660922,-0.5163039407381994,-0.0010014195090541564
29282000000,-2.0054837143694457,-0.5164812510693407,-0.0010014093467354893
29311000000,-2.0052417259605453,-0.5166507362183439,-0.001001403189660171
29343000000,-2.004986593302361,-0.5168169714923498,-0.0010014007465239394
29386000000,-2.004733595808056,-0.5169699914466712,-0.0010014020980943297
29419000000,-2.004475586523792,-0.5171146375048776,-0.0010014070414187844
29451000000,-2.004204811263366,-0.5172547334901639,-0.0010014160822371387
29479000000,-2.0039374903865457,-0.5173818766569034,-0.0010014289521292248
29516000000,-2.003666022334418,-0.5175001689175989,-0.001001446267060363
29552000000,-2.0033823065856646,-0.5176126409743058,-0.001001469391550415
29584000000,-2.003103345081834,-0.517712543462365,-0.0010014980301891116
29616000000,-2.0028211578136403,-0.5178032343477532,-0.0010015264178761772
29656000000,-2.0025273739377454,-0.5178869185704901,-0.0010015641859986851
29690000000,-2.0022395821809864,-0.5179585662550977,-0.0010016024917358299
29722000000,-2.001949510122356,-0.5180206951888069,-0.0010016497796730937
29755000000,-2.001648573541887,-0.5180746825474035,-0.0010017072387898188
29794000000,-2.001354867335391,-0.5181172806568126,-0.00100175970305948
29825000000,-2.0010600875997584,-0.5181501662637772,-0.0010018087255997225
29856000000,-2.000755701389771,-0.5181736950455942,-0.001001864693358067
29878000000,-2.000460115666803,-0.5181865183502462,-0.0010019201681500528
29913000000,-2.0001651218713112,-0.5181898439231594,-0.0010019801803990008
29948000000,-1.9998542809489195,-0.5181837636525017,-0.001001990923731405
29982000000,-1.999558416326477,-0.5181675741306289,-0.0010021483060327074
30020000000,-1.9992270440654423,-0.5181525108121195,-0.0010020973292415962
30046000000,-1.99882496724065,-0.5181711009445747,-0.0010012702516269505
30084000000,-1.998396906087537,-0.5181738058881408,-0.0010015252578438778
30106000000,-1.9979902211472038,-0.5181122030574976,-0.0010014466867601067
30142000000,-1.9976215363180876,-0.518033709072845,-0.0010014011745782987
30179000000,-1.997328512261981,-0.5179592101533563,-0.0010017114053984463
30213000000,-1.997044440727221,-0.5178767364095348,-0.0010017082948624231
30254000000,-1.9967551027468589,-0.5177821369693251,-0.0010016737823286999
30290000000,-1.9964778805454908,-0.5176810933746272,-0.0010016373795171084
30313000000,-1.9962043458539525,-0.5175710360930714,-0.0010015974368455492
30348000000,-1.995926472387347,-0.517448275297586,-0.0010015566218825704
30378000000,-1.9956608707956145,-0.5173201545213363,-0.001001524643883027
30414000000,-1.9953995766965653,-0.5171833224343588,-0.0010014984855532469
30450000000,-1.995135164690806,-0.5170333774241097,-0.0010014715980016832
30485000000,-1.994883462202341,-0.5168792906381933,-0.0010014513839787936
30516000000,-1.9946368914208539,-0.516716934887528,-0.0010014324155347872
30552000000,-1.994388502929298,-0.5165411812714648,-0.00100141768437495
30589000000,-1.99415317888539,-0.5163625480911191,-0.0010014079340190662
30628000000,-1.9939237897758308,-0.516176174270158,-0.0010014022431091736
30658000000,-1.993693925437274,-0.5159762634157281,-0.001001400344161435
30686000000,-1.993477361489506,-0.5157747856652838,-0.0010014022918233521
30716000000,-1.99326748130626,-0.5155661917645927,-0.0010014079246320057
30749000000,-1.9930584812882775,-0.515344069321999,-0.001001417776965989
30771000000,-1.992862891607992,-0.5151217217404471,-0.0010014315512926059
30807000000,-1.9926746825471044,-0.5148929599848501,-0.0010014499086527066
30845000000,-1.992488718404233,-0.5146508215652525,-0.0010014742763274666
30889000000,-1.9923161502791886,-0.5144098117146637,-0.0010015035885214962
30926000000,-1.9921515553888887,-0.5141631800540054,-0.0010015339497318407
30957000000,-1.9919905276776564,-0.5139034649936289,-0.0010015723818873543
30991000000,-1.991842723011669,-0.5136462172183232,-0.0010016130221285648
31027000000,-1.9917034436380492,-0.513384155268438,-0.0010016621451553569
31050000000,-1.991569008560239,-0.5131093893075435,-0.001001721471755198
31086000000,-1.9914475135456962,-0.5128384588929914,-0.0010017747732553942
31121000000,-1.9913350645624701,-0.5125638261714953,-0.0010018261155638926
31153000000,-1.9912289760143826,-0.5122773764253387,-0.0010018854326073502
31178000000,-1.991135469970928,-0.5119965502015585,-0.0010019426405919393
31218000000,-1.9910509820346989,-0.5117137450676262,-0.0010020140997594636
31250000000,-1.9909741982970728,-0.5114210964019236,-0.0010021211143015386
31283000000,-1.990910539817535,-0.5111381115918562,-0.0010022906925211857
31314000000,-1.9908347494083816,-0.5108741787155214,-0.0010022836850427375
31342000000,-1.9907178535098764,-0.510655010257462,-0.0010008528849271107
31377000000,-1.9906214628485568,-0.5104740034241085,-0.0010011589229535767
31408000000,-1.990592429225138,-0.5102494156255695,-0.001001141312778269
31445000000,-1.9905750840690108,-0.5099526184489622,-0.001001758678104727
31482000000,-1.9905675540271406,-0.5096574481993142,-0.0010017470817031277
31517000000,-1.990569870274963,-0.5093611571191726,-0.0010017151896354708
31553000000,-1.9905824319695964,-0.509057016518566,-0.0010016812607980922
31582000000,-1.9906045129158654,-0.5087626756015668,-0.0010016430548211268
31622000000,-1.9906362738735228,-0.508469433940183,-0.0010016018051404244
31658000000,-1.9906790902029208,-0.5081685666281265,-0.0010015600427054523
31690000000,-1.9907303975962878,-0.50787805914701,-0.001001527281454237
31730000000,-1.9907912625477544,-0.5075893363677618,-0.0010014983401812304
31765000000,-1.9908639079147632,-0.5072940517721207,-0.001001471743387345
31766000000,-1.9909439903482038,-0.507009879775247,-0.001001450568249792
31799000000,-1.9910334283527902,-0.5067284047887156,-0.0010014315288861507
31837000000,-1.9911352753736378,-0.5064415437188196,-0.0010014167745716306
31866000000,-1.991243440107906,-0.5061664807064491,-0.0010014070616587468
31899000000,-1.991360669013481,-0.5058950320298592,-0.0010014014729512848
31934000000,-1.991490804376107,-0.5056194528134046,-0.0010013997573291335
31966000000,-1.9916260566586184,-0.5053562556408087,-0.0010014019421275867
32003000000,-1.9917699742817385,-0.5050975641786183,-0.0010014079123859092
32035000000,-1.9919271573368194,-0.5048360508131846,-0.0010014182142818323
32066000000,-1.9920881949474736,-0.5045873907268562,-0.001001432538686068
32101000000,-1.9922574104661168,-0.504344098940786,-0.0010014515765722036
32133000000,-1.992440114457816,-0.5040993416362856,-0.0010014768024973753
32167000000,-1.9926253649693286,-0.5038677842120313,-0.00100150547114735
32199000000,-1.9928181895912986,-0.5036423802526507,-0.0010015381452309624
32233000000,-1.9930245866017768,-0.5034168609252634,-0.0010015767605518061
32269000000,-1.9932321967659596,-0.5032047413818684,-0.0010016188831510273
32301000000,-1.993446768588193,-0.5029995108262769,-0.001001669281924019
32338000000,-1.993674903605618,-0.5027954823430997,-0.0010017297448443735
32367000000,-1.9939028586522491,-0.5026049534508734,-0.001001783578947351
32399000000,-1.9941368430050193,-0.5024221217500913,-0.0010018366668826696
32433000000,-1.9943839489108839,-0.5022422009037136,-0.0010018985841945896
32467000000,-1.9946288904702505,-0.5020757264188976,-0.001001959331897527
32504000000,-1.994878373314602,-0.5019175271897451,-0.001002038836154396
32539000000,-1.9951395403186531,-0.5017638632627897,-0.0010021606421651875
32566000000,-1.995395185282136,-0.5016238597610563,-0.0010023778708213235
32595000000,-1.995630187739069,-0.5014605198326044,-0.001002259247018942
32635000000,-1.9958254460266385,-0.5012542833963789,-0.0010007744517147033
32670000000,-1.995996166679866,-0.5010696355621775,-0.001000879000394226
32706000000,-1.9962232255516916,-0.500948781494616,-0.0010013569093819015
32746000000,-1.9965115156804911,-0.500848787604391,-0.0010017493895726239
32774000000,-1.9967939601386575,-0.500761331891078,-0.0010017258290007866
32807000000,-1.9970786953209274,-0.5006834649389841,-0.0010017030779735092
32841000000,-1.997374275466279,-0.5006132291721319,-0.0010016722521070526
32869000000,-1.9976629795296634,-0.5005547736530614,-0.0010016356143327243
32903000000,-1.997953385950361,-0.5005058874184082,-0.0010015922558959459
32941000000,-1.9982541299116412,-0.5004655514007266,-0.001001554291145533
32969000000,-1.9985472288753567,-0.5004361797294372,-0.0010015243895836988
33011000000,-1.998829882697373,-0.5004170769591912,-0.0010015026446220654
33054000000,-1.9991214660678067,-0.5004067573651534,-0.0010014766425404421
33066000000,-1.999354057687417,-0.5004054862040972,-0.0010014503709400852
33099000000,-1.999502727920891,-0.5004078893859076,-0.0010013220153651976
33138000000,-1.9995348681846976,-0.5004087323254985,-0.0010014975645778051
33166000000,-1.9995344782880444,-0.500408741955618,-0.0010014689815672079
33199000000,-1.999534064151259,-0.5004087243572861,-0.0010014683992712013
33233000000,-1.9995336333552696,-0.5004087065933639,-0.00100146821369905
33265000000,-1.9991310592089468,-0.5004090767943088,-0.0010011973303985094
33298000000,-1.9979460562397042,-0.5004104776303784,-0.0010012655536178333
33337000000,-1.9959102318467847,-0.5004130651990337,-0.001001369596594165
33366000000,-1.9931567668420975,-0.5004168942201029,-0.0010015027298073756
33399000000,-1.9896685785643304,-0.5004218018495112,-0.0010016115470022381
33442000000,-1.985369946409987,-0.5004250266100763,-0.0010017716191007345
33477000000,-1.980617832509361,-0.5004164800679755,-0.0010019373038837112
33512000000,-1.9754428346985788,-0.5003759141532637,-0.0010007201482469252
33549000000,-1.969871174734749,-0.5002726818761467,-0.0010009446907235202
33571000000,-1.9642093611377993,-0.5001007245715926,-0.001001053746101977
33601000000,-1.9581916583025152,-0.4998469286506193,-0.0010011504102696023
33633000000,-1.9516148735589802,-0.49951620364317223,-0.0010012741776456446
33667000000,-1.9453252326878343,-0.4991685959587205,-0.0010017129935892786
33701000000,-1.9390392663282061,-0.4987806501871039,-0.0010008585373874682
33732000000,-1.932123025904626,-0.49834777313144485,-0.0010014469590833401
33766000000,-1.9250477749262886,-0.49792478150520586,-0.0010013435017096478
33802000000,-1.9177336183859377,-0.49753322176442405,-0.001001520667092349
33833000000,-1.9101940612558086,-0.4971845999102268,-0.0010015858354203398
33866000000,-1.903130090327124,-0.49691671101594664,-0.0010017268712104975
33906000000,-1.8961905542899666,-0.49673637172389634,-0.0010018242077868486
33933000000,-1.8890413829581705,-0.49664007673140925,-0.0010019751168017128
33965000000,-1.8819662611134282,-0.49662512191567354,-0.0010009496522326786
34000000000,-1.8748490420346768,-0.4966689083865266,-0.0010009185085446438
34034000000,-1.8673836973698645,-0.49678185870779634,-0.0010009922925002142
34066000000,-1.8603474211350213,-0.4969614852116136,-0.0010014056462714915
34099000000,-1.8534465086350853,-0.49720480939332296,-0.001001573606353317
34132000000,-1.8463388863133061,-0.4975238397081888,-0.0010015789376880586
34166000000,-1.8394885439253794,-0.49789024175208896,-0.001001795769431775
34199000000,-1.8326076092090737,-0.49830345343256044,-0.0010011471659222872
34234000000,-1.8254997751784119,-0.49877659473328934,-0.0010011496856265172
34269000000,-1.8189150381962371,-0.4992498871994899,-0.0010015119939192907
34305000000,-1.812317570518676,-0.4997389762767331,-0.001001222993446467
34333000000,-1.8050145669261737,-0.5003039711917088,-0.0010016684600917813
34365000000,-1.797730770607875,-0.500902233972929,-0.0010017313874005548
34402000000,-1.7904522288255447,-0.5015370300184102,-0.0010017962372746159
34440000000,-1.782963902540033,-0.5022294950116207,-0.0010016592564961874
34466000000,-1.775700669289263,-0.5029359779971522,-0.0010017402736899814
34499000000,-1.7684420564922667,-0.5036729994864954,-0.0010016424266653598
34533000000,-1.7609661383263244,-0.5044644504198716,-0.0010015880830613229
34565000000,-1.7541296649359066,-0.5052164890551917,-0.0010020604086739826
34599000000,-1.7473939457713148,-0.5059763371263807,-0.001001576966531189
34634000000,-1.740370190754989,-0.5067955967584279,-0.00100166393078897
34672000000,-1.7336053393079578,-0.507607107102132,-0.0010018195739103126
34702000000,-1.7266661644898933,-0.5084634210522493,-0.0010011650796660013
34733000000,-1.7194659118149793,-0.5094037448167348,-0.0010012128108642451
34767000000,-1.7124957800815057,-0.5103573580531758,-0.0010012812780714336
34803000000,-1.7053718014763668,-0.5113539062930231,-0.0010016618953753026
34833000000,-1.697958701953581,-0.5123972370153369,-0.0010017231356324735
34868000000,-1.6910266392637707,-0.5133829021819448,-0.001000988925966187
34898000000,-1.6841490595502089,-0.514386521848506,-0.0010021570412446258
34933000000,-1.6771385683882671,-0.5154189138280859,-0.0010015024882987326
34967000000,-1.6703886382250577,-0.5164137527215652,-0.001001622233883788
35004000000,-1.6633645061494884,-0.5174463763806154,-0.001001510053362853
35033000000,-1.6559688952142297,-0.5185285583804216,-0.0010015414370210945
35066000000,-1.6488007015412172,-0.5195694051610814,-0.0010015510055602674
35099000000,-1.6416297502668056,-0.5205970544688392,-0.0010015915176990325
35133000000,-1.6342398553074227,-0.5216419975404418,-0.0010016987356529679
35168000000,-1.6270773944260128,-0.5226410501584782,-0.0010017565092905467
35207000000,-1.6198806135720072,-0.5236427235275672,-0.0010012001720672882
35233000000,-1.6124599630848229,-0.5246892750388403,-0.0010015769164134422
35266000000,-1.6052610048175358,-0.5257157095519752,-0.001001652948377913
35299000000,-1.598062854347969,-0.5267509477940936,-0.001001705790875107
35332000000,-1.590648649469679,-0.5278264941088237,-0.0010017663235232996
35364000000,-1.5834579158893662,-0.5288770844268027,-0.001001725986182981
35399000000,-1.5762722373318425,-0.5299340967597097,-0.001001741615849601
35433000000,-1.5688694230069382,-0.5310299627991888,-0.0010015768736539102
35466000000,-1.5616832560767264,-0.5321002687313154,-0.0010016036885897965
35499000000,-1.5548163850592371,-0.5331285257278927,-0.0010014796213173478
35530000000,-1.5478556163039139,-0.5341714406465087,-0.0010015485947396235
35567000000,-1.5411300851122764,-0.5351801413020612,-0.0010015746535881956
35607000000,-1.5344045784740012,-0.536185493953502,-0.0010016167599497874
35635000000,-1.5274762457039253,-0.5372173352866447,-0.0010018252028887592
35666000000,-1.5206212575547573,-0.5382433060349515,-0.0010011477565116007
35700000000,-1.51373727470147,-0.5392976419342324,-0.001001203054019885
35733000000,-1.506547344748313,-0.5404200835053826,-0.0010012854316639626
35765000000,-1.4994178436421508,-0.5415391579074361,-0.0010016730317090015
35799000000,-1.49225208376827,-0.5426561857330123,-0.0010016749589630489
35837000000,-1.4848655575930207,-0.5437990264974611,-0.0010017830704343103
35874000000,-1.4776885585008068,-0.5449004906583474,-0.0010019695985065656
35904000000,-1.4705329220170937,-0.5459849906811521,-0.001001756078806676
35934000000,-1.4631554383671574,-0.5470886144739401,-0.0010016088735063308
35966000000,-1.4559918884644,-0.5481460156935335,-0.0010015511035860632
35999000000,-1.4488062310505478,-0.5492007256532037,-0.0010015657648154153
36033000000,-1.441396885862249,-0.5502959360444994,-0.001001582308703744
36067000000,-1.4342089055810108,-0.5513650156997151,-0.001001637218990152
36099000000,-1.4270234499221381,-0.5524387828756565,-0.0010018160033485463
36133000000,-1.4196528097317083,-0.5535471005184612,-0.0010011159682915619
36170000000,-1.4127246564150413,-0.5545974557064106,-0.001001963065734749
36201000000,-1.405952670885145,-0.5556373211487154,-0.0010015706627468854
36233000000,-1.39897753691032,-0.5567285630313993,-0.0010016710762646534
36266000000,-1.3919719490655997,-0.5578452779997719,-0.001001630357178828
36300000000,-1.384786323770505,-0.5590076070943898,-0.0010018736701600701
36335000000,-1.3773885530540544,-0.5602197365893102,-0.0010017629080371591
36365000000,-1.3702190276210766,-0.5614084151926476,-0.0010016634356854598
36405000000,-1.3630460405618434,-0.5626101622754903,-0.0010016447898091134
36431000000,-1.3556572051386697,-0.5638613540898086,-0.001001562714514119
36479000000,-1.3484847616881699,-0.5650895954827205,-0.0010015441155886047
36501000000,-1.341313577294651,-0.5663320716755511,-0.0010015612556296093
36533000000,-1.3339270496323095,-0.5676269982004413,-0.0010016066025992643
36570000000,-1.3267441877391475,-0.5689067050101948,-0.0010016949142905157
36597000000,-1.319575930057443,-0.5702121289945686,-0.0010018799419611972
36633000000,-1.3122388653117338,-0.5715814919330006,-0.0010012010996813328
36673000000,-1.304900959006063,-0.572994773883493,-0.0010011966353037846
36710000000,-1.29757749361709,-0.5744769248316827,-0.0010015688904641794
36740000000,-1.2901503512112145,-0.5760766954916796,-0.0010018297376192774
36766000000,-1.2828771492389568,-0.5777333532775348,-0.0010013628959417951
36799000000,-1.2755000023550338,-0.5794705980437481,-0.0010021251231296067
36833000000,-1.268099071978027,-0.581243200518715,-0.0010017459016855058
36866000000,-1.2610351209463806,-0.5829473241911642,-0.0010015876213727466
36899000000,-1.2539549931933234,-0.5846749556191684,-0.0010015095236658583
36938000000,-1.246650463454539,-0.5864986606509359,-0.0010015097336997306
36975000000,-1.239569252868688,-0.5883072960212169,-0.0010015288700913408
37010000000,-1.2324825255211407,-0.5901635116062107,-0.001001595951095391
37043000000,-1.225194234734463,-0.5921295519747778,-0.0010016994199002587
37080000000,-1.2181451877495697,-0.5940831665775707,-0.0010018970255523604
37109000000,-1.2111181818484096,-0.5960776428900065,-0.0010019365953637671
37142000000,-1.2039320971456176,-0.5981696088367423,-0.001001378106505555
37166000000,-1.1969155449107907,-0.6002698528513198,-0.001001814804267323
37202000000,-1.1899094906949914,-0.602428280031333,-0.0010019070533651038
37241000000,-1.1827225415083038,-0.6047073769701768,-0.0010014127114477828
37267000000,-1.1756652313235114,-0.607000619359955,-0.0010012812241753967
37299000000,-1.1685408503958714,-0.6093575329552691,-0.0010013923912073133
37333000000,-1.161334644738676,-0.6118320201341234,-0.0010015158534705422
37369000000,-1.154390216338512,-0.6143210750107222,-0.0010014855686887349
37406000000,-1.1474633118334676,-0.6169154537724404,-0.0010014783387972369
37438000000,-1.1403657128741027,-0.6197029051163634,-0.0010015169331969477
37477000000,-1.1337042150510668,-0.6224290340418086,-0.0010015914202966963
37503000000,-1.1272406430922652,-0.6251641153169796,-0.0010017027862433518
37534000000,-1.1206693644738992,-0.62806120853835,-0.0010018590942609193
37566000000,-1.1141538007950107,-0.6310545016752063,-0.0010021123201737828
37607000000,-1.1074957690162996,-0.6342360304100754,-0.001002038690793683
37636000000,-1.1006816364316068,-0.6376042920637481,-0.0010021835301257422
37666000000,-1.0941911401856064,-0.640880733785219,-0.0010018123238060977
37700000000,-1.0879939333050663,-0.6441926006627069,-0.001001493801420096
37734000000,-1.0817217639985781,-0.6476723461178662,-0.0010016512561452674
37766000000,-1.0756923246781376,-0.651143059423021,-0.001001537473504708
37801000000,-1.069721526204987,-0.6547143737577708,-0.0010014980956126948
37834000000,-1.063632319863717,-0.658498506027248,-0.001001469267114554
37868000000,-1.0579440489108174,-0.6621526166393261,-0.0010014821665538763
37899000000,-1.052469029590294,-0.6657613976186489,-0.001001550027570186
37933000000,-1.0469331841243141,-0.6695387792677754,-0.001001596497666582
37966000000,-1.0416193966261018,-0.6732922152483073,-0.0010017095645617653
37999000000,-1.036136200787546,-0.6772955367454931,-0.001001815717740332
38035000000,-1.0301890370051061,-0.6817453081018201,-0.0010019029639514038
38070000000,-1.0243758596746262,-0.6861679543699395,-0.0010020398430746133
38103000000,-1.0186039590682645,-0.6906329053492829,-0.0010012780346113186
38133000000,-1.012665026466154,-0.6953083601461274,-0.0010018087849598158
38166000000,-1.0069416144493708,-0.6998945459980414,-0.0010017762963846003
38200000000,-1.0013890254871987,-0.7044173630841707,-0.0010011947156635496
38230000000,-0.9957954741959819,-0.7090547787360535,-0.0010018786569657677
38267000000,-0.9907014385220437,-0.7133516494413652,-0.0010018133138826393
38299000000,-0.9857780151691563,-0.7175631966745252,-0.0010013344954480433
38332000000,-0.9807599749057211,-0.721946283212355,-0.0010015040948638462
38367000000,-0.9757284701780878,-0.7264404659912624,-0.001001222797480581
38399000000,-0.9704106783559291,-0.7313003801169677,-0.0010016362638851917
38437000000,-0.964872882499538,-0.7364695408556512,-0.0010017403108744348
38470000000,-0.9595549383066094,-0.7415307374994476,-0.0010018335361233546
38504000000,-0.954286226842697,-0.7466335191574193,-0.0010019963991650428
38533000000,-0.9489226989138888,-0.7519189124050533,-0.001001153261020335
38566000000,-0.9437953159635647,-0.7570495542982316,-0.00100216791254348
38599000000,-0.93868536689361,-0.7622037357832285,-0.0010015777674504955
38633000000,-0.933416487958569,-0.7675494552423179,-0.0010015809923339704
38666000000,-0.9283070493319729,-0.7727749100446544,-0.0010016195565683284
38699000000,-0.9232252128511353,-0.7780326841800224,-0.0010016518832279865
38730000000,-0.9180229736485513,-0.7834791186504193,-0.0010018057032431665
38766000000,-0.9129703932667419,-0.7888420354697068,-0.0010019179679054135
38799000000,-0.9079256521995315,-0.7943070357838363,-0.0010019936945691206
38833000000,-0.9028408912212409,-0.7999828466160092,-0.001001683192258778
38867000000,-0.8979911375452907,-0.805567844659752,-0.0010018094677347426
38896000000,-0.8932271878949275,-0.8112243804907666,-0.0010019073562396938
38933000000,-0.8884136110148553,-0.8171202335765247,-0.0010020280002218732
38966000000,-0.8837736875295809,-0.822970253045137,-0.0010022245257740661
38999000000,-0.8792452275789022,-0.8287800593389619,-0.0010011882253713328
39033000000,-0.8746511392506172,-0.8347521649320863,-0.0010015533746756781
39066000000,-0.8702363925205134,-0.8405515566676268,-0.0010014629060353317
39099000000,-0.8658405343549044,-0.8463637733276913,-0.00100146805552484
39137000000,-0.8613296749061354,-0.8523674773348481,-0.0010014873466317187
39172000000,-0.8570327355605795,-0.8581422870336863,-0.0010015200483460308
39199000000,-0.8527352486479898,-0.8640297695319927,-0.0010016752583383963
39233000000,-0.8483314577782618,-0.8701855356840065,-0.0010018072661958678
39274000000,-0.8442201579898071,-0.8760327126997265,-0.00100171794888523
39300000000,-0.8401532010213041,-0.8818765153695878,-0.0010013939364636563
39333000000,-0.8359681823828135,-0.8879657651459661,-0.001001497514720829
39366000000,-0.8318764255613171,-0.8939803953836928,-0.001001942318674811
39399000000,-0.8278442057239268,-0.8999613715603594,-0.001001000269718437
39433000000,-0.8237123248538901,-0.9061587001221487,-0.001000894291188964
39466000000,-0.8196993459352517,-0.9122431768681848,-0.0010015551714465318
39499000000,-0.8157085223021208,-0.9183474844239695,-0.0010014841222165567
39533000000,-0.8116219326299018,-0.9246544541717366,-0.0010014358174967736
39566000000,-0.8078626179821292,-0.93050190689146,-0.0010014683424771804
39601000000,-0.8041727542215806,-0.9362578561235773,-0.0010014293626435522
39633000000,-0.8003766222424787,-0.9421933503117369,-0.0010014828086737926
39666000000,-0.7968223355051284,-0.9477687447106939,-0.0010015815824510575
39699000000,-0.7934011191598344,-0.9531633312505537,-0.0010016623989892205
39733000000,-0.7898975086758931,-0.9586979831132159,-0.0010017857887488872
39767000000,-0.7863984101970993,-0.9642443009750448,-0.0010021651449848637
39799000000,-0.7827848622776465,-0.9700328066022242,-0.0010013376795767852
39840000000,-0.7790714624722931,-0.9760846461766111,-0.0010016347104540857
39874000000,-0.7754591289335353,-0.9820623430725888,-0.0010011839397769742
39899000000,-0.7718035002494137,-0.9881638821260217,-0.0010007232552208221
39933000000,-0.767964295296133,-0.9945730910473491,-0.0010015864542388536
39966000000,-0.764327058123169,-1.000657835365931,-0.001001584869787256
40002000000,-0.7608109287705088,-1.0065749651097755,-0.0010015188387263244
40033000000,-0.7572198961216708,-1.0126078173547217,-0.0010014057143838372
40066000000,-0.7538290460346245,-1.0183120639579377,-0.0010014530846591228
40100000000,-0.7505773128231306,-1.0238157045705654,-0.001001411977341566
40132000000,-0.7472512340070341,-1.02943825442309,-0.0010014792699171889
40165000000,-0.7438284719092213,-1.0352190358733457,-0.0010016057043273525
40199000000,-0.7402143379555816,-1.0413123071778094,-0.0010017662043774501
40228000000,-0.7363925734884547,-1.0476899152659556,-0.0010018126420797413
40266000000,-0.7326246049600139,-1.053915402776378,-0.0010017286170415154
40298000000,-0.7288590608285381,-1.0601141406989825,-0.0010018048186304258
40333000000,-0.7249726501641801,-1.0664926956009297,-0.0010020449054547152
40366000000,-0.7211851922018157,-1.0726834984719544,-0.0010020633680012624
40397000000,-0.7173984494099422,-1.0788309460375654,-0.0010017300381133139
40433000000,-0.7134726919589567,-1.0851584504046063,-0.0010015556709813828
40466000000,-0.7098036823458338,-1.0910290101087217,-0.0010010752765064676
40501000000,-0.7061826688851693,-1.0967678540801855,-0.0010014342278479617
40533000000,-0.7024278090882163,-1.1026731889952797,-0.0010014032223313145
40565000000,-0.698762857461641,-1.108393153374509,-0.001001405851510994
40599000000,-0.6949054947999739,-1.1143708766080258,-0.0010014595371753109
40633000000,-0.6908448102546861,-1.120638618908945,-0.0010015328167839628
40670000000,-0.687119700281337,-1.1263614520855152,-0.0010011809320939376
40699000000,-0.683450974060958,-1.1319504706624075,-0.001001664819893635
40733000000,-0.6795867880622574,-1.1378156074872077,-0.0010019737605780413
40767000000,-0.6758136335346587,-1.1435314144125979,-0.0010013651383777855
40800000000,-0.6720131252210182,-1.1492844124461017,-0.0010014789499739087
40834000000,-0.6680037192839323,-1.155329387364249,-0.0010017030668732115
40866000000,-0.6641585652975114,-1.161088503526893,-0.0010027328890826852
40899000000,-0.6603450744520623,-1.166793733963178,-0.0010006264845530133
40934000000,-0.6562692029787016,-1.1728601714799376,-0.0010008280329127754
40966000000,-0.6524969866880401,-1.1784586808724362,-0.0010022568298332264
40999000000,-0.6492256996880535,-1.183329580849635,-0.0010022012332441092
41033000000,-0.6464221313607863,-1.1875362503058318,-0.0010021119100059803
41066000000,-0.6438104755612633,-1.1914914257411042,-0.0010013414685794177
41100000000,-0.640867601069014,-1.195959177866437,-0.0010011128877890144
41133000000,-0.637407606372933,-1.2012133495198711,-0.0010013035200933558
41168000000,-0.6336534766750319,-1.2069302906488892,-0.0010015174138268274
41203000000,-0.629686285379377,-1.2130105505094144,-0.0010016789821156308
41233000000,-0.6256009613346875,-1.2193057292756453,-0.0010018066561056464
41264000000,-0.6216572418117788,-1.2254157776608308,-0.0010018138173159136
41303000000,-0.6178252293738521,-1.2313752727089005,-0.0010007192848673213
41335000000,-0.6138525066278505,-1.237526117821313,-0.0010013811956523927
41366000000,-0.6099881223313587,-1.2434627413613446,-0.001000969937407118
41399000000,-0.6062211999140353,-1.2492000540332429,-0.0010019123995408247
41433000000,-0.6023722967361255,-1.2550119825915746,-0.0010010757610080662
41466000000,-0.5984873382178367,-1.2608095410639906,-0.0010011911600878096
41499000000,-0.5944429601211885,-1.2667331183983186,-0.0010014793606663158
41533000000,-0.5902173537071072,-1.2727959223496697,-0.0010014252535189942
41568000000,-0.5862839381475781,-1.2783294060434247,-0.0010014359065460589
41599000000,-0.582249586967042,-1.2839271637036622,-0.001001061697110523
41633000000,-0.5778698297060929,-1.2899426580792672,-0.001001518642880412
41673000000,-0.5737531238463868,-1.2955394163689464,-0.0010011359908245997
41707000000,-0.5697061476501626,-1.3009926369198723,-0.0010017466682830344
41745000000,-0.5655257773254003,-1.30658254802194,-0.0010012529655989803
41779000000,-0.5614636723266833,-1.31197418692491,-0.0010016600927041826
41807000000,-0.5573701965726339,-1.3173609073666839,-0.0010016721748382224
41841000000,-0.5531289729434908,-1.3228929775862672,-0.0010017222912964314
41870000000,-0.5491635011698951,-1.3280249150261716,-0.0010014100066432635
41899000000,-0.5452942134403026,-1.3329980157402586,-0.00100197846343332
41937000000,-0.5412934976931685,-1.3380955683401794,-0.0010017272147483797
41965000000,-0.5375621558237229,-1.342818993218804,-0.0010021078080156703
41999000000,-0.5339577321415765,-1.3473586552994032,-0.0010015091200682898
42033000000,-0.5302428813146982,-1.3520019063595283,-0.001001556907101693
42066000000,-0.5268585815413127,-1.3562022828742932,-0.0010012004608056374
42099000000,-0.5235973208965077,-1.3602210906879497,-0.0010015126326438327
42133000000,-0.5202205726418381,-1.36434834509387,-0.0010015297726172663
42166000000,-0.5167347368345288,-1.3685770708103102,-0.0010012790963930852
42199000000,-0.5129830343162357,-1.3731096616380358,-0.0010016894074265197
42233000000,-0.5090389209097484,-1.3778465036067293,-0.0010017653190215747
42267000000,-0.5052824117631554,-1.3823206923287255,-0.0010018082646180704
42303000000,-0.5015893966955773,-1.386674717212416,-0.001001354291097406
42340000000,-0.49776366033161007,-1.391141763544518,-0.0010015284261343793
42363000000,-0.4942900611974789,-1.395157139672458,-0.0010017153077028287
42400000000,-0.4913068966801222,-1.3985615735208183,-0.0010016241311803162
42433000000,-0.48875748082911374,-1.4014307504869405,-0.0010015780978196685
42472000000,-0.48680388024007876,-1.4036049452140742,-0.001001562641618655
42503000000,-0.4853730007617054,-1.4051840943074574,-0.0010015654577168152
42533000000,-0.48445515714054393,-1.4061920020312133,-0.0010015530412594842
42566000000,-0.4841082442699854,-1.406571899922747,-0.0010014713084270377
42598000000,-0.4840945721039356,-1.4065867439628905,-0.0010016100463071803
42634000000,-0.48409272484591254,-1.4065887564611577,-0.0010016132661880318
42666000000,-0.4840909585528734,-1.406590674472406,-0.0010016159987218595
42699000000,-0.48408921749543754,-1.406592564071987,-0.0010016186115556387
42733000000,-0.4840874484894382,-1.4065944827173154,-0.001001621200247018
42766000000,-0.484085754086407,-1.406596318616859,-0.0010016236569097593
42799000000,-0.4838828873726239,-1.406819017316504,-0.0010014056384415118
42841000000,-0.4832633579088006,-1.4074995228866445,-0.001001472522899078
42875000000,-0.48226832643711887,-1.4085905329507502,-0.0010015236411143706
42903000000,-0.4808966521859975,-1.4100858964419056,-0.0010015961673967774
42933000000,-0.47911236550290504,-1.4120094107451813,-0.0010016991392984287
42966000000,-0.4770557009599603,-1.4141799551991123,-0.0010018471618698718
42999000000,-0.47471415629294805,-1.4165678216431805,-0.0010007721788705681
43035000000,-0.47195585776297333,-1.4192420055587696,-0.0010008282284314357
43066000000,-0.4688755477081513,-1.4220488962820927,-0.0010009272768535353
