%time,field.x,field.y,field.z
1659367006608365297,-1.2178298234939575,4.495543479919434,0.0
1659367006660196304,-1.2178298234939575,4.495543479919434,0.0
1659367006715564966,-1.2178298234939575,4.495543479919434,0.0
1659367006779510974,-1.2178298234939575,4.495543479919434,0.0
1659367006795997381,-1.2178298234939575,4.495543479919434,0.0
1659367006849921226,-1.2178298234939575,4.495543479919434,0.0
1659367006905700922,-1.2178298234939575,4.495543479919434,0.0
1659367006942641735,-1.2178298234939575,4.495543479919434,0.0
1659367006970584392,-1.2178298234939575,4.495543479919434,0.0
1659367007020930767,-1.2178298234939575,4.495543479919434,0.0
1659367007054620981,-1.2178298234939575,4.495543479919434,0.0
1659367007111709833,-1.2178298234939575,4.495543479919434,0.0
1659367007136664390,-1.2178298234939575,4.495543479919434,0.0
1659367007185644626,-1.2178298234939575,4.495543479919434,0.0
1659367007236359357,-1.2178298234939575,4.495543479919434,0.0
1659367007286966800,-1.2178298234939575,4.495543479919434,0.0
1659367007329804897,-1.2178298234939575,4.495543479919434,0.0
1659367007374253988,-1.2178298234939575,4.495543479919434,0.0
1659367007417672872,-1.2178298234939575,4.495543479919434,0.0
1659367007462215900,-1.2178298234939575,4.495543479919434,0.0
1659367007519346714,-1.2178298234939575,4.495543479919434,0.0
1659367007563139915,-1.2178298234939575,4.495543479919434,0.0
1659367007610749483,-1.2178298234939575,4.495543479919434,0.0
1659367007660651922,-1.2178298234939575,4.495543479919434,0.0
1659367007706136226,-1.2178298234939575,4.495543479919434,0.0
1659367007751605033,-1.2178298234939575,4.495543479919434,0.0
1659367007798989295,-1.2178298234939575,4.495543479919434,0.0
1659367007842421054,-1.2178298234939575,4.495543479919434,0.0
1659367007887256860,-1.2178298234939575,4.495543479919434,0.0
1659367007930497169,-1.2178298234939575,4.495543479919434,0.0
1659367007974350452,-1.2178298234939575,4.495543479919434,0.0
1659367008018906831,-1.2178298234939575,4.495543479919434,0.0
1659367008064741611,-1.2178298234939575,4.495543479919434,0.0
1659367008110573530,-1.2178298234939575,4.495543479919434,0.0
1659367008155136108,-1.2178298234939575,4.495543479919434,0.0
1659367008198706626,-1.2178298234939575,4.495543479919434,0.0
1659367008242248296,-1.2178298234939575,4.495543479919434,0.0
1659367008286600351,-1.2178298234939575,4.495543479919434,0.0
1659367008330174684,-1.2178298234939575,4.495543479919434,0.0
1659367008376300096,-1.2178298234939575,4.495543479919434,0.0
1659367008376471281,-1.2178298234939575,4.495543479919434,0.0
1659367008423301219,-1.2178298234939575,4.495543479919434,0.0
1659367008483024597,-1.2178298234939575,4.495543479919434,0.0
1659367008543792963,-1.2178298234939575,4.495543479919434,0.0
1659367008586572885,-1.2178298234939575,4.495543479919434,0.0
1659367008636067390,-1.2178298234939575,4.495543479919434,0.0
1659367008683278560,-1.2178298234939575,4.495543479919434,0.0
1659367008730435848,-1.2178298234939575,4.495543479919434,0.0
1659367008774290323,-1.2178298234939575,4.495543479919434,0.0
1659367008822404861,-1.2178298234939575,4.495543479919434,0.0
1659367008866262435,-1.2180759906768799,4.494199275970459,0.0
1659367008910358190,-1.21858811378479,4.491385459899902,0.0
1659367008954359292,-1.2198606729507446,4.484156608581543,0.0
1659367008998317003,-1.2206940650939941,4.479214668273926,0.0
1659367009042505264,-1.2226911783218384,4.466845989227295,0.0
1659367009090982198,-1.2236295938491821,4.46076774597168,0.0
1659367009135025739,-1.2256194353103638,4.447526931762695,0.0
1659367009178341388,-1.226546049118042,4.441267490386963,0.0
1659367009232772111,-1.227557897567749,4.434688091278076,0.0
1659367009278199195,-1.2290380001068115,4.425825595855713,0.0
1659367009322639703,-1.230146050453186,4.41951847076416,0.0
1659367009366204500,-1.2319669723510742,4.4091477394104,0.0
1659367009415063142,-1.233082890510559,4.402790546417236,0.0
1659367009459944725,-1.2350393533706665,4.392315864562988,0.0
1659367009506317615,-1.236198902130127,4.386817932128906,0.0
1659367009550397634,-1.2380045652389526,4.379286289215088,0.0
1659367009644937753,-1.2393677234649658,4.374148845672607,0.0
1659367009645063400,-1.2417069673538208,4.365683078765869,0.0
1659367009690202713,-1.2432597875595093,4.360151290893555,0.0
1659367009693668365,-1.2463116645812988,4.349625110626221,0.0
1659367009743510484,-1.2480971813201904,4.343581199645996,0.0
1659367009790258407,-1.25086510181427,4.334317207336426,0.0
1659367009834250450,-1.2527450323104858,4.328248500823975,0.0
1659367009878548145,-1.255875825881958,4.318780422210693,0.0
1659367009922632694,-1.258103847503662,4.312346935272217,0.0
1659367009970405817,-1.260359525680542,4.305869102478027,0.0
1659367010014378786,-1.2628633975982666,4.298593521118164,0.0
1659367010059102535,-1.265095829963684,4.292000770568848,0.0
1659367010059177398,-1.268253207206726,4.282567977905273,0.0
1659367010102410554,-1.2700051069259644,4.277308940887451,0.0
1659367010145757675,-1.2731598615646362,4.267343044281006,0.0
1659367010202525615,-1.2749112844467163,4.261420726776123,0.0
1659367010248334407,-1.277502179145813,4.252685070037842,0.0
1659367010294342517,-1.2792999744415283,4.246776580810547,0.0
1659367010338076591,-1.2822386026382446,4.237405776977539,0.0
1659367010383309364,-1.28416907787323,4.231406211853027,0.0
1659367010426203966,-1.2861895561218262,4.225329875946045,0.0
1659367010474405527,-1.2889777421951294,4.217590808868408,0.0
1659367010523487329,-1.2911399602890015,4.211860179901123,0.0
1659367010523689508,-1.2950506210327148,4.2014055252075195,0.0
1659367010571189641,-1.2971630096435547,4.195845127105713,0.0
1659367010608910799,-1.3012876510620117,4.185309886932373,0.0
1659367010665784597,-1.3036500215530396,4.179330825805664,0.0
1659367010714877605,-1.3068485260009766,4.171341896057129,0.0
1659367010759139299,-1.308782696723938,4.1666364669799805,0.0
1659367010820561647,-1.3117138147354126,4.159824371337891,0.0
1659367010895041942,-1.3135137557983398,4.155860424041748,0.0
1659367010895163059,-1.317084789276123,4.1483378410339355,0.0
1659367010938172340,-1.3192945718765259,4.1437554359436035,0.0
1659367010947440862,-1.3227229118347168,4.13627815246582,0.0
1659367010997851848,-1.3246928453445435,4.131807804107666,0.0
1659367011044839382,-1.3283448219299316,4.123876094818115,0.0
1659367011095699310,-1.3302865028381348,4.119894981384277,0.0
1659367011138395547,-1.3338100910186768,4.112969398498535,0.0
1659367011182191371,-1.3360719680786133,4.108639717102051,0.0
1659367011228398084,-1.341866135597229,4.097731590270996,0.0
1659367011274257183,-1.3446406126022339,4.092556476593018,0.0
1659367011328409910,-1.3504700660705566,4.081609725952148,0.0
1659367011379349231,-1.3529510498046875,4.076937675476074,0.0
1659367011422874450,-1.3567997217178345,4.069839954376221,0.0
1659367011467288494,-1.3590786457061768,4.065749645233154,0.0
1659367011510649204,-1.3624379634857178,4.059915065765381,0.0
1659367011554214954,-1.3645939826965332,4.056308746337891,0.0
1659367011598928928,-1.3680342435836792,4.050698757171631,0.0
1659367011643567562,-1.3701839447021484,4.047236919403076,0.0
1659367011687396049,-1.3757915496826172,4.038146018981934,0.0
1659367011735169172,-1.3785380125045776,4.033684253692627,0.0
1659367011778212308,-1.382852554321289,4.02679967880249,0.0
1659367011822894811,-1.3853198289871216,4.022939682006836,0.0
1659367011866438865,-1.3886445760726929,4.017855644226074,0.0
1659367011910198450,-1.3909118175506592,4.014500141143799,0.0
1659367011957540750,-1.3952358961105347,4.008320331573486,0.0
1659367012002587795,-1.397555947303772,4.005094051361084,0.0
1659367012046455144,-1.4012185335159302,4.000121593475342,0.0
1659367012091403484,-1.4033585786819458,3.9972972869873047,0.0
1659367012134489536,-1.408245325088501,3.991126298904419,0.0
1659367012178481101,-1.410566806793213,3.988316535949707,0.0
1659367012224615573,-1.4155923128128052,3.9825234413146973,0.0
1659367012276128053,-1.4180986881256104,3.97977352142334,0.0
1659367012322440385,-1.4233187437057495,3.9742941856384277,0.0
1659367012370949745,-1.4264280796051025,3.971175193786621,0.0
1659367012414444446,-1.4313124418258667,3.9664318561553955,0.0
1659367012467680931,-1.4344379901885986,3.9635117053985596,0.0
1659367012518072605,-1.4411906003952026,3.9576222896575928,0.0
1659367012604069471,-1.4440897703170776,3.9552500247955322,0.0
1659367012650892972,-1.4458345174789429,3.9538655281066895,0.0
1659367012651015281,-1.445514440536499,3.954113483428955,0.0
1659367012694208621,-1.4426934719085693,3.9562158584594727,0.0
1659367012727798461,-1.4405113458633423,3.9577767848968506,0.0
1659367012778540611,-1.4346660375595093,3.9617390632629395,0.0
1659367012827316284,-1.4316074848175049,3.963674306869507,0.0
1659367012884521484,-1.4276394844055176,3.9660637378692627,0.0
1659367012930493116,-1.4219976663589478,3.969301462173462,0.0
1659367012975507259,-1.417303204536438,3.971900463104248,0.0
1659367013018274545,-1.4092649221420288,3.976137161254883,0.0
1659367013065414905,-1.4046465158462524,3.9784460067749023,0.0
1659367013110310077,-1.3966221809387207,3.9822585582733154,0.0
1659367013154234170,-1.3919646739959717,3.984367609024048,0.0
1659367013198403120,-1.3840235471725464,3.9878127574920654,0.0
1659367013243586540,-1.3789253234863281,3.9899230003356934,0.0
1659367013243748188,-1.3704659938812256,3.9932403564453125,0.0
1659367013289021253,-1.3652929067611694,3.995159864425659,0.0
1659367013343204975,-1.3529534339904785,3.999438762664795,0.0
1659367013393298864,-1.3474379777908325,4.001220703125,0.0
1659367013450163364,-1.3415169715881348,4.003063201904297,0.0
1659367013495100259,-1.3336135149002075,4.005433559417725,0.0
1659367013538448572,-1.3278067111968994,4.007129192352295,0.0
1659367013582417249,-1.3176853656768799,4.0099382400512695,0.0
1659367013626152276,-1.311905026435852,4.011444568634033,0.0
1659367013670651197,-1.3058886528015137,4.012947082519531,0.0
1659367013714413881,-1.2971919775009155,4.014995574951172,0.0
1659367013759115457,-1.2915832996368408,4.016242504119873,0.0
1659367013759221315,-1.282135248184204,4.018173694610596,0.0
1659367013805872678,-1.2766622304916382,4.019199371337891,0.0
1659367013846250772,-1.2653422355651855,4.021174430847168,0.0
1659367013897644519,-1.259569525718689,4.022102355957031,0.0
1659367013948247194,-1.2485994100570679,4.0237016677856445,0.0
1659367013998449563,-1.2432289123535156,4.024406433105469,0.0
1659367014056234121,-1.2349605560302734,4.025394439697266,0.0
1659367014100278615,-1.2300779819488525,4.025915145874023,0.0
1659367014146961212,-1.2218331098556519,4.026639461517334,0.0
1659367014194319009,-1.2163790464401245,4.027017116546631,0.0
1659367014238201379,-1.2031587362289429,4.027690410614014,0.0
1659367014282616853,-1.1974419355392456,4.02788782119751,0.0
1659367014327158927,-1.1912930011749268,4.0280280113220215,0.0
1659367014374569177,-1.183725357055664,4.0280842781066895,0.0
1659367014422296285,-1.1777774095535278,4.028052806854248,0.0
1659367014422410249,-1.168363332748413,4.027883052825928,0.0
1659367014467794418,-1.162746787071228,4.0277180671691895,0.0
1659367014519120693,-1.1516199111938477,4.02725076675415,0.0
1659367014569873332,-1.1457821130752563,4.026926517486572,0.0
1659367014614274263,-1.1357049942016602,4.026261806488037,0.0
1659367014658627748,-1.1296712160110474,4.025829792022705,0.0
1659367014702243089,-1.1184922456741333,4.024962425231934,0.0
1659367014748222112,-1.1125408411026,4.024451732635498,0.0
1659367014794036149,-1.1029912233352661,4.023543357849121,0.0
1659367014838776111,-1.0971261262893677,4.022927761077881,0.0
1659367014882055997,-1.0839993953704834,4.021427154541016,0.0
1659367014928390026,-1.0777949094772339,4.020659923553467,0.0
1659367014979989051,-1.07121741771698,4.0198163986206055,0.0
1659367015029045343,-1.0625808238983154,4.018712043762207,0.0
1659367015077298402,-1.05632746219635,4.017927169799805,0.0
1659367015123684167,-1.0458142757415771,4.016533374786377,0.0
1659367015166184186,-1.0398763418197632,4.015682697296143,0.0
1659367015209811925,-1.0334417819976807,4.014729022979736,0.0
1659367015209903955,-1.0255608558654785,4.013521671295166,0.0
1659367015255200862,-1.0194123983383179,4.012539386749268,0.0
1659367015278510093,-1.0083303451538086,4.010674476623535,0.0
1659367015330159187,-1.0021717548370361,4.009599208831787,0.0
1659367015374875068,-0.9899423122406006,4.007389068603516,0.0
1659367015426319837,-0.9838471412658691,4.006247520446777,0.0
1659367015469970226,-0.9740365147590637,4.004322528839111,0.0
1659367015515833616,-0.9680392146110535,4.003077507019043,0.0
1659367015565958976,-0.956585168838501,4.000600337982178,0.0
1659367015617503881,-0.9507288336753845,3.9993014335632324,0.0
1659367015662400245,-0.941243052482605,3.9971835613250732,0.0
1659367015706142187,-0.9350932240486145,3.995805263519287,0.0
1659367015750903844,-0.9240389466285706,3.993279457092285,0.0
1659367015796687841,-0.9179759621620178,3.9918622970581055,0.0
1659367015842166423,-0.9082471132278442,3.9895591735839844,0.0
1659367015886321783,-0.9023410677909851,3.988138198852539,0.0
1659367015930305957,-0.8896244764328003,3.9849467277526855,0.0
1659367015974010705,-0.8837742209434509,3.983407974243164,0.0
1659367016018423080,-0.8728049993515015,3.9804368019104004,0.0
1659367016061959743,-0.8664566874504089,3.978703022003174,0.0
1659367016109464168,-0.8600598573684692,3.976954698562622,0.0
1659367016155861139,-0.8507902026176453,3.9743895530700684,0.0
1659367016202519655,-0.8446968793869019,3.9726834297180176,0.0
1659367016251697301,-0.8328263759613037,3.9692697525024414,0.0
1659367016298368930,-0.826805830001831,3.967493772506714,0.0
1659367016342433929,-0.8151454329490662,3.963993549346924,0.0
1659367016386255502,-0.8093358874320984,3.962218761444092,0.0
1659367016430099964,-0.7999014258384705,3.959315299987793,0.0
1659367016482013702,-0.7938065528869629,3.957435131072998,0.0
1659367016526380777,-0.7829110622406006,3.9540302753448486,0.0
1659367016574538469,-0.7766872644424438,3.9520535469055176,0.0
1659367016574668169,-0.7661190032958984,3.948704957962036,0.0
1659367016625157356,-0.7600820064544678,3.9468092918395996,0.0
1659367016674557209,-0.748676061630249,3.943171739578247,0.0
1659367016725586891,-0.7425398826599121,3.9411706924438477,0.0
1659367016770427703,-0.7332171201705933,3.9380836486816406,0.0
1659367016814502954,-0.7268823385238647,3.935957670211792,0.0
1659367016859032154,-0.7142550945281982,3.9317386150360107,0.0
1659367016902374505,-0.7078397870063782,3.9296140670776367,0.0
1659367016946391344,-0.6975541114807129,3.9262142181396484,0.0
1659367016990236520,-0.6911876797676086,3.924103021621704,0.0
1659367017038462400,-0.681297242641449,3.9208788871765137,0.0
1659367017085941791,-0.6745399832725525,3.9187424182891846,0.0
1659367017134220361,-0.667705774307251,3.916597366333008,0.0
1659367017180196046,-0.6576147675514221,3.9134185314178467,0.0
1659367017228724241,-0.6511914730072021,3.9114010334014893,0.0
1659367017228902816,-0.6402388215065002,3.9080095291137695,0.0
1659367017281694173,-0.6339714527130127,3.9060873985290527,0.0
1659367017327783107,-0.6190600395202637,3.9015331268310547,0.0
1659367017377712488,-0.6127614974975586,3.8996264934539795,0.0
1659367017434505939,-0.5983752012252808,3.895259380340576,0.0
1659367017479999780,-0.5972862243652344,3.894925594329834,0.0
1659367017522096395,-0.5905133485794067,3.892838954925537,0.0
1659367017570330142,-0.5798080563545227,3.8895905017852783,0.0
1659367017618464708,-0.5734993815422058,3.8877177238464355,0.0
1659367017662361383,-0.5610117316246033,3.8839800357818604,0.0
1659367017706259489,-0.5546170473098755,3.8820416927337646,0.0
1659367017750362634,-0.5420398116111755,3.8782503604888916,0.0
1659367017794191122,-0.5356614589691162,3.87634539604187,0.0
1659367017854102134,-0.5257680416107178,3.873385429382324,0.0
1659367017953159332,-0.5195164084434509,3.8714985847473145,0.0
1659367017953421592,-0.509556233882904,3.8684966564178467,0.0
1659367017958494901,-0.5032031536102295,3.866595506668091,0.0
1659367017994421005,-0.4964352548122406,3.864579916000366,0.0
1659367018012180328,-0.4876772165298462,3.8619751930236816,0.0
1659367018067874193,-0.4810331463813782,3.859987258911133,0.0
1659367018109795331,-0.47049063444137573,3.8568124771118164,0.0
1659367018153752565,-0.46426087617874146,3.854940891265869,0.0
1659367018197757482,-0.45237571001052856,3.8513095378875732,0.0
1659367018241595029,-0.44609543681144714,3.8493435382843018,0.0
1659367018290153264,-0.4365704655647278,3.8463056087493896,0.0
1659367018333885669,-0.43033501505851746,3.844282388687134,0.0
1659367018382037878,-0.41861844062805176,3.840453624725342,0.0
1659367018430384874,-0.41255858540534973,3.838463544845581,0.0
1659367018474750041,-0.4033648669719696,3.8353896141052246,0.0
1659367018518155574,-0.39735400676727295,3.8333330154418945,0.0
1659367018566673040,-0.38609886169433594,3.8294811248779297,0.0
1659367018613622665,-0.37986892461776733,3.8273611068725586,0.0
1659367018658143758,-0.3694855272769928,3.823854446411133,0.0
1659367018702465057,-0.3633648157119751,3.8218066692352295,0.0
1659367018750119686,-0.35207098722457886,3.8179898262023926,0.0
1659367018795717716,-0.3458964228630066,3.815864324569702,0.0
1659367018795808792,-0.3355512320995331,3.812246561050415,0.0
1659367018840682744,-0.32943838834762573,3.8100976943969727,0.0
1659367018897568225,-0.31581351161003113,3.8052773475646973,0.0
1659367018948405981,-0.30952152609825134,3.803027868270874,0.0
1659367018994249582,-0.2997684180736542,3.799557685852051,0.0
1659367019038239717,-0.29351603984832764,3.7973477840423584,0.0
1659367019084491491,-0.28011566400527954,3.7925760746002197,0.0
1659367019130327463,-0.2739987373352051,3.790363311767578,0.0
1659367019175321102,-0.2627197802066803,3.7862744331359863,0.0
1659367019226964950,-0.2567417621612549,3.7841241359710693,0.0
1659367019270140171,-0.24699366092681885,3.780639886856079,0.0
1659367019314802408,-0.24096204340457916,3.778489112854004,0.0
1659367019359968185,-0.22904826700687408,3.77414608001709,0.0
1659367019410519599,-0.22291219234466553,3.771838903427124,0.0
1659367019455143451,-0.21389545500278473,3.7684195041656494,0.0
1659367019498220682,-0.20800071954727173,3.7661898136138916,0.0
1659367019542814731,-0.1970631182193756,3.7620537281036377,0.0
1659367019586278676,-0.1908850371837616,3.7597146034240723,0.0
1659367019630990028,-0.18055859208106995,3.755751609802246,0.0
1659367019674253225,-0.1740517020225525,3.7532098293304443,0.0
1659367019720702409,-0.15994377434253693,3.7476577758789062,0.0
1659367019766470432,-0.15396691858768463,3.7452895641326904,0.0
1659367019821402788,-0.14759394526481628,3.742753028869629,0.0
1659367019866067886,-0.13848941028118134,3.739140033721924,0.0
1659367019911013603,-0.13239294290542603,3.7367303371429443,0.0
1659367019955305576,-0.12181645631790161,3.732503652572632,0.0
1659367019998315334,-0.1158362478017807,3.7300758361816406,0.0
1659367020045196533,-0.105711430311203,3.725947380065918,0.0
1659367020092445135,-0.09968602657318115,3.723496437072754,0.0
1659367020143048048,-0.09340497851371765,3.7209348678588867,0.0
1659367020143239974,-0.08579996973276138,3.717799425125122,0.0
1659367020190777301,-0.07974883913993835,3.715277910232544,0.0
1659367020207824468,-0.06925823539495468,3.7109076976776123,0.0
1659367020257212162,-0.06272849440574646,3.708218812942505,0.0
1659367020308541297,-0.050152961164712906,3.702995538711548,0.0
1659367020358153820,-0.04393123462796211,3.700357437133789,0.0
1659367020414212703,-0.03752701357007027,3.6976308822631836,0.0
1659367020458237171,-0.029326599091291428,3.694148063659668,0.0
1659367020502343416,-0.023318517953157425,3.691589593887329,0.0
1659367020546197414,-0.01315905712544918,3.687216281890869,0.0
1659367020596755266,-0.006869875360280275,3.684478521347046,0.0
1659367020642040252,0.005685008596628904,3.678887128829956,0.0
1659367020686632156,0.011995846405625343,3.676011562347412,0.0
1659367020731618642,0.025156011804938316,3.6699166297912598,0.0
1659367020775491237,0.030876316130161285,3.6672115325927734,0.0
1659367020832421064,0.036788102239370346,3.6643786430358887,0.0
1659367020878198385,0.044744547456502914,3.660541296005249,0.0
1659367020926780939,0.0504642128944397,3.657776117324829,0.0
1659367020926892280,0.05944628641009331,3.6534435749053955,0.0
1659367020976314783,0.06502930819988251,3.650744676589966,0.0
1659367021027960300,0.07649488002061844,3.6451525688171387,0.0
1659367021077226638,0.08258932083845139,3.642174243927002,0.0
1659367021122582435,0.0908190906047821,3.638204574584961,0.0
1659367021167526245,0.09685418009757996,3.635336399078369,0.0
1659367021210147380,0.1052728071808815,3.6313509941101074,0.0
1659367021254314422,0.1109883114695549,3.628635883331299,0.0
1659367021302419900,0.1249462366104126,3.6219773292541504,0.0
1659367021352812051,0.1308792531490326,3.6191301345825195,0.0
1659367021402516126,0.1392819732427597,3.6150529384613037,0.0
1659367021450313568,0.14525724947452545,3.61211895942688,0.0
1659367021498097896,0.15785591304302216,3.6057920455932617,0.0
1659367021546199321,0.16328337788581848,3.6030080318450928,0.0
1659367021598669767,0.1693485528230667,3.5998592376708984,0.0
1659367021642370462,0.17656639218330383,3.596074342727661,0.0
1659367021686118602,0.18189597129821777,3.593266487121582,0.0
1659367021730248212,0.19126325845718384,3.588348388671875,0.0
1659367021780064582,0.1967121660709381,3.585495710372925,0.0
1659367021826375484,0.20561233162879944,3.580723285675049,0.0
1659367021870726346,0.2107742577791214,3.577871322631836,0.0
1659367021870843887,0.218646839261055,3.5734362602233887,0.0
1659367021914569139,0.22394277155399323,3.5704095363616943,0.0
1659367021943142890,0.23182494938373566,3.565838098526001,0.0
1659367021993087768,0.23714886605739594,3.5627081394195557,0.0
1659367022038375616,0.24564704298973083,3.5576364994049072,0.0
1659367022089347839,0.25098469853401184,3.5543816089630127,0.0
1659367022138079166,0.26286065578460693,3.547070026397705,0.0
1659367022186342716,0.2682282626628876,3.543767213821411,0.0
1659367022231429100,0.2739318013191223,3.5402376651763916,0.0
1659367022278260231,0.2812967598438263,3.5356411933898926,0.0
1659367022322316646,0.28648677468299866,3.532388210296631,0.0
1659367022366114616,0.295477032661438,3.5267152786254883,0.0
1659367022411142587,0.30096423625946045,3.523221969604492,0.0
1659367022454217910,0.3116362690925598,3.5163731575012207,0.0
1659367022503451108,0.3169092833995819,3.512967824935913,0.0
1659367022546070098,0.32583555579185486,3.507148265838623,0.0
1659367022590256690,0.33103135228157043,3.5037171840667725,0.0
1659367022634418487,0.33926016092300415,3.498173952102661,0.0
1659367022679529666,0.344349205493927,3.4946751594543457,0.0
1659367022722622156,0.35302141308784485,3.488615036010742,0.0
1659367022766183137,0.35798007249832153,3.4851062297821045,0.0
1659367022811956405,0.36802518367767334,3.477918863296509,0.0
1659367022863471031,0.3730674386024475,3.4742658138275146,0.0
1659367022863943099,0.38102877140045166,3.4683873653411865,0.0
1659367022913185834,0.38585779070854187,3.4647440910339355,0.0
1659367022947611331,0.39312371611595154,3.4592039585113525,0.0
1659367022997482776,0.397979199886322,3.455470085144043,0.0
1659367023075434207,0.40552690625190735,3.4495906829833984,0.0
1659367023075528860,0.41078299283981323,3.4454238414764404,0.0
1659367023128605127,0.42162129282951355,3.436687707901001,0.0
1659367023177544116,0.4264330565929413,3.4327759742736816,0.0
1659367023233939647,0.4316587746143341,3.4284908771514893,0.0
1659367023278396129,0.43851932883262634,3.422767162322998,0.0
1659367023323950529,0.443253755569458,3.41876220703125,0.0
1659367023365770339,0.4519707262516022,3.4113919734954834,0.0
1659367023413789033,0.45685243606567383,3.4072868824005127,0.0
1659367023457792520,0.4672882854938507,3.3983824253082275,0.0
1659367023506574869,0.4722117781639099,3.394092559814453,0.0
1659367023549712896,0.4817173182964325,3.385814666748047,0.0
1659367023595539808,0.4866415858268738,3.3815643787384033,0.0
1659367023641785144,0.49456092715263367,3.3747410774230957,0.0
1659367023686026096,0.4996887743473053,3.370300531387329,0.0
1659367023733301401,0.5047845840454102,3.365861654281616,0.0
1659367023777720689,0.5112671256065369,3.360163450241089,0.0
1659367023822758436,0.5163520574569702,3.355635643005371,0.0
1659367023822861909,0.5242887139320374,3.348487615585327,0.0
1659367023868642568,0.5292370915412903,3.3439972400665283,0.0
1659367023922570466,0.5390241146087646,3.3349344730377197,0.0
1659367023974729061,0.5438904166221619,3.3303184509277344,0.0
1659367024032869815,0.5487048029899597,3.325721263885498,0.0
1659367024078340768,0.5553914904594421,3.319309949874878,0.0
1659367024122628688,0.5600179433822632,3.3148460388183594,0.0
1659367024166588306,0.5674490332603455,3.307530164718628,0.0
1659367024214263916,0.5715640187263489,3.3033766746520996,0.0
1659367024262767553,0.5759223103523254,3.2989299297332764,0.0
1659367024262843608,0.5816885828971863,3.29299259185791,0.0
1659367024313346862,0.58619225025177,3.288299083709717,0.0
1659367024329694747,0.5927540063858032,3.2813363075256348,0.0
1659367024378558635,0.5972086191177368,3.276526927947998,0.0
1659367024434795379,0.6065763235092163,3.266195297241211,0.0
1659367024487167835,0.6109943389892578,3.261215925216675,0.0
1659367024545119762,0.6154963970184326,3.256108283996582,0.0
1659367024590565443,0.6224400401115417,3.2482266426086426,0.0
1659367024638853311,0.6269386410713196,3.2431159019470215,0.0
1659367024686332941,0.6351511478424072,3.2337212562561035,0.0
1659367024730144262,0.6397390365600586,3.2284531593322754,0.0
1659367024778548479,0.6458779573440552,3.2214818000793457,0.0
1659367024826634645,0.6503454446792603,3.2164788246154785,0.0
1659367024826751708,0.6569684743881226,3.209125280380249,0.0
1659367024874937057,0.6616906523704529,3.203908681869507,0.0
1659367024925142526,0.6717780828475952,3.192828893661499,0.0
1659367024974807977,0.676246166229248,3.1879630088806152,0.0
1659367025032777547,0.6808909773826599,3.182915687561035,0.0
1659367025078256845,0.6866253018379211,3.1766695976257324,0.0
1659367025122437953,0.6908662915229797,3.172041893005371,0.0
1659367025170421838,0.6981873512268066,3.1640915870666504,0.0
1659367025214473009,0.7022991180419922,3.1596546173095703,0.0
1659367025261774301,0.7066053152084351,3.1549837589263916,0.0
1659367025261889934,0.7121259570121765,3.1489195823669434,0.0
1659367025313620567,0.7157796621322632,3.144852638244629,0.0
1659367025329180479,0.721051812171936,3.138871669769287,0.0
1659367025379154205,0.7230545282363892,3.136554718017578,0.0
1659367025430647611,0.7250775098800659,3.134188413619995,0.0
1659367025480506896,0.7254217863082886,3.1337835788726807,0.0
1659367025531337022,0.725618302822113,3.133552074432373,0.0
1659367025578174114,0.7256346940994263,3.133532762527466,0.0
1659367025623521566,0.7256510853767395,3.1335134506225586,0.0
1659367025666101455,0.7256510853767395,3.1335134506225586,0.0
1659367025716037273,0.7256510853767395,3.1335134506225586,0.0
1659367025716112136,0.7256510853767395,3.1335134506225586,0.0
1659367025770994663,0.7256510853767395,3.1335134506225586,0.0
1659367025837918281,0.7256510853767395,3.1335134506225586,0.0
1659367025883809804,0.7256510853767395,3.1335134506225586,0.0
1659367025936182022,0.7256510853767395,3.1335134506225586,0.0
1659367025936607122,0.7256510853767395,3.1335134506225586,0.0
1659367025985509395,0.7256510853767395,3.1335134506225586,0.0
1659367026035232543,0.7256510853767395,3.1335134506225586,0.0
1659367026087586879,0.7256510853767395,3.1335134506225586,0.0
1659367026129684686,0.7251607179641724,3.1340932846069336,0.0
1659367026178119421,0.7237422466278076,3.135777711868286,0.0
1659367026222398757,0.7189593315124512,3.1414783000946045,0.0
1659367026270282506,0.7158337235450745,3.1452324390411377,0.0
1659367026317927598,0.711613655090332,3.1503806114196777,0.0
1659367026363017797,0.7117724418640137,3.1501834392547607,0.0
1659367026411684751,0.7125381231307983,3.149207830429077,0.0
1659367026464199066,0.7118605971336365,3.1500916481018066,0.0
1659367026521620035,0.7111468315124512,3.15104341506958,0.0
1659367026570097923,0.7118149399757385,3.150120973587036,0.0
1659367026614626407,0.7131676077842712,3.1481945514678955,0.0
1659367026658427715,0.7167393565177917,3.1429407596588135,0.0
1659367026703430175,0.7194675803184509,3.1387975215911865,0.0
1659367026750894308,0.7241286039352417,3.1315033435821533,0.0
1659367026794395685,0.7269047498703003,3.12703013420105,0.0
1659367026838463068,0.7296983003616333,3.122389554977417,0.0
1659367026838594198,0.7334690093994141,3.115828037261963,0.0
1659367026884726047,0.736261248588562,3.110748767852783,0.0
1659367026908590793,0.7403615117073059,3.103010416030884,0.0
1659367026963975906,0.7428438067436218,3.098167657852173,0.0
1659367027010568857,0.746950626373291,3.0897512435913086,0.0
1659367027054555654,0.7494111061096191,3.0844194889068604,0.0
1659367027104320764,0.7539453506469727,3.0741922855377197,0.0
1659367027151782035,0.7562495470046997,3.068791151046753,0.0
1659367027203423023,0.7609180808067322,3.0571646690368652,0.0
1659367027258825540,0.7630758881568909,3.051459312438965,0.0
1659367027302563667,0.7659592628479004,3.0436203479766846,0.0
1659367027346148252,0.7680156230926514,3.0378775596618652,0.0
1659367027390502214,0.7710130214691162,3.0291390419006348,0.0
1659367027436151981,0.7729655504226685,3.0231733322143555,0.0
1659367027482398033,0.7759184241294861,3.01375412940979,0.0
1659367027526346921,0.7777106165885925,3.0078177452087402,0.0
1659367027576531171,0.7795134782791138,3.0016732215881348,0.0
1659367027624557018,0.7817049026489258,2.9939284324645996,0.0
1659367027671964168,0.7833588123321533,2.987846851348877,0.0
1659367027672366380,0.7857511043548584,2.9787402153015137,0.0
1659367027720958232,0.7873355746269226,2.9725358486175537,0.0
1659367027754890203,0.7897894978523254,2.9624788761138916,0.0
1659367027805838823,0.7912514805793762,2.9561665058135986,0.0
1659367027850389242,0.7932862639427185,2.9469215869903564,0.0
1659367027894248008,0.7945900559425354,2.9406778812408447,0.0
1659367027942853450,0.7958757877349854,2.9343013763427734,0.0
1659367027990437269,0.7975654006004333,2.925450563430786,0.0
1659367028034269332,0.79869544506073,2.919147491455078,0.0
1659367028078183889,0.8004144430160522,2.909067392349243,0.0
1659367028126446247,0.8014305233955383,2.9028475284576416,0.0
1659367028174182653,0.8033363223075867,2.890131711959839,0.0
1659367028222285985,0.8041793704032898,2.8838860988616943,0.0
1659367028266314744,0.8052991628646851,2.875072956085205,0.0
1659367028318116188,0.8060511946678162,2.8687901496887207,0.0
1659367028318267822,0.8069451451301575,2.8607401847839355,0.0
1659367028365227460,0.8075444102287292,2.8548479080200195,0.0
1659367028393732786,0.8084353804588318,2.8447628021240234,0.0
1659367028444916248,0.8089289665222168,2.838200569152832,0.0
1659367028499569416,0.8093801736831665,2.8317112922668457,0.0
1659367028545416116,0.8099445700645447,2.8229212760925293,0.0
1659367028590268135,0.8103170990943909,2.816401720046997,0.0
1659367028634417057,0.8108283877372742,2.8057329654693604,0.0
1659367028678004741,0.811073362827301,2.7994606494903564,0.0
1659367028726268053,0.8113890290260315,2.7877206802368164,0.0
1659367028774781227,0.8114758729934692,2.781646728515625,0.0
1659367028818876266,0.8115094304084778,2.7719781398773193,0.0
1659367028862277984,0.8114521503448486,2.7654483318328857,0.0
1659367028990756750,0.8113055229187012,2.7560086250305176,0.0
1659367028990914106,0.8111851215362549,2.749631404876709,0.0
1659367029027898550,0.8110314011573792,2.7430524826049805,0.0
1659367029028018474,0.81075119972229,2.7337169647216797,0.0
1659367029047840595,0.8105199933052063,2.727266788482666,0.0
1659367029075516700,0.8101402521133423,2.717782974243164,0.0
1659367029128223419,0.8098775744438171,2.7117648124694824,0.0
1659367029178195953,0.8093814253807068,2.702134132385254,0.0
1659367029222250461,0.8090094923973083,2.696096420288086,0.0
1659367029266289472,0.8083481788635254,2.6867802143096924,0.0
1659367029310791492,0.8078811168670654,2.6808252334594727,0.0
1659367029359440088,0.8071305751800537,2.6714396476745605,0.0
1659367029466437101,0.8065997958183289,2.664778709411621,0.0
1659367029466581583,0.8054139614105225,2.651137113571167,0.0
1659367029509908676,0.8048312664031982,2.645141363143921,0.0
1659367029514744520,0.803849458694458,2.63559889793396,0.0
1659367029571565151,0.8032023310661316,2.629533529281616,0.0
1659367029615376710,0.8021926283836365,2.620274066925049,0.0
1659367029658160209,0.8014475703239441,2.6137101650238037,0.0
1659367029702448129,0.8001706004142761,2.60333514213562,0.0
1659367029752629995,0.7993574738502502,2.5971875190734863,0.0
1659367029798596382,0.7977569699287415,2.585603952407837,0.0
1659367029842348814,0.7968937754631042,2.579488754272461,0.0
1659367029887072801,0.7954837679862976,2.569795608520508,0.0
1659367029930339813,0.794540286064148,2.5635643005371094,0.0
1659367029974166631,0.7927436828613281,2.5522146224975586,0.0
1659367030018225193,0.7916575074195862,2.545698404312134,0.0
1659367030066535234,0.7900798320770264,2.5364930629730225,0.0
1659367030110162258,0.7889351844787598,2.529884099960327,0.0
1659367030154293775,0.7869197726249695,2.518545389175415,0.0
1659367030198190927,0.7856582999229431,2.51170015335083,0.0
1659367030246611595,0.7838791012763977,2.5022737979888916,0.0
1659367030290600538,0.7827122211456299,2.496183395385742,0.0
1659367030334298849,0.7801501154899597,2.483170509338379,0.0
1659367030378120899,0.7787705659866333,2.4764256477355957,0.0
1659367030422469139,0.7767016887664795,2.466385841369629,0.0
1659367030466157913,0.7753056883811951,2.459566831588745,0.0
1659367030510390758,0.7735550999641418,2.451037645339966,0.0
1659367030558071851,0.772182047367096,2.444394826889038,0.0
1659367030602924346,0.7700074911117554,2.4341442584991455,0.0
1659367030646128892,0.7685602903366089,2.4275689125061035,0.0
1659367030696909427,0.7659094333648682,2.415842294692993,0.0
1659367030742041587,0.7643761038780212,2.409130811691284,0.0
1659367030786309957,0.7609202265739441,2.3946290016174316,0.0
1659367030830660343,0.7592490911483765,2.3879504203796387,0.0
1659367030874561786,0.7558329701423645,2.37424635887146,0.0
1659367030927574634,0.7541566491127014,2.367438554763794,0.0
1659367030978933334,0.750625729560852,2.353215456008911,0.0
1659367031033599853,0.7490047812461853,2.346759080886841,0.0
1659367031084601163,0.7456413507461548,2.3337466716766357,0.0
1659367031139105081,0.743926465511322,2.327340841293335,0.0
1659367031196246385,0.7401321530342102,2.313762903213501,0.0
1659367031246368408,0.7382411956787109,2.3073012828826904,0.0
1659367031304081678,0.7340703010559082,2.293358087539673,0.0
1659367031357565164,0.7321262359619141,2.2869386672973633,0.0
1659367031414119958,0.7280814051628113,2.2738037109375,0.0
1659367031469742536,0.7262451648712158,2.2679336071014404,0.0
1659367031517052173,0.7233508229255676,2.2586817741394043,0.0
1659367031561879873,0.7213358879089355,2.2522311210632324,0.0
1659367031606305599,0.7184358835220337,2.2430872917175293,0.0
1659367031650204181,0.7163522243499756,2.2366585731506348,0.0
1659367031694881200,0.713466227054596,2.227935791015625,0.0
1659367031738360881,0.7113951444625854,2.2217962741851807,0.0
1659367031786799192,0.7085002660751343,2.213343620300293,0.0
1659367031831110715,0.7063243389129639,2.20705246925354,0.0
1659367031875317096,0.7041158676147461,2.200719118118286,0.0
1659367031875449419,0.7008693218231201,2.191531181335449,0.0
1659367031931814432,0.6987516283988953,2.1855952739715576,0.0
1659367031953950643,0.6952040791511536,2.1757893562316895,0.0
1659367032002495288,0.6928701996803284,2.169447183609009,0.0
1659367032054175138,0.6887573003768921,2.1584737300872803,0.0
1659367032104847192,0.6864538788795471,2.15244460105896,0.0
1659367032154227733,0.6830574870109558,2.1436901092529297,0.0
1659367032198583126,0.6807863116264343,2.137892723083496,0.0
1659367032242145538,0.6782602667808533,2.13148832321167,0.0
1659367032286562919,0.6750921010971069,2.123514413833618,0.0
1659367032337268590,0.6727850437164307,2.1177310943603516,0.0
1659367032337407350,0.6686676144599915,2.107574462890625,0.0
1659367032384206533,0.6663713455200195,2.1020326614379883,0.0
1659367032437383413,0.6638227701187134,2.0959653854370117,0.0
1659367032482306241,0.6605517268180847,2.0881974697113037,0.0
1659367032528458833,0.657982349395752,2.0820565223693848,0.0
1659367032574750185,0.6539403796195984,2.0724711418151855,0.0
1659367032618636369,0.651517927646637,2.0668177604675293,0.0
1659367032663259744,0.6488662958145142,2.0606844425201416,0.0
1659367032663502931,0.6451295018196106,2.052069664001465,0.0
1659367032714504003,0.6425766348838806,2.046196937561035,0.0
1659367032738237142,0.6380962133407593,2.0360565185546875,0.0
1659367032787616729,0.635363757610321,2.0299863815307617,0.0
1659367032845831871,0.6294511556625366,2.01718807220459,0.0
1659367032894275903,0.6267657279968262,2.011542558670044,0.0
1659367032951944112,0.623852550983429,2.0055007934570312,0.0
1659367032993817329,0.6200368404388428,1.997646450996399,0.0
1659367033038069009,0.6172855496406555,1.9920045137405396,0.0
1659367033081896305,0.612346351146698,1.982023000717163,0.0
1659367033125972270,0.6093246340751648,1.9760348796844482,0.0
1659367033170082807,0.6046819686889648,1.9669809341430664,0.0
1659367033214436054,0.6018354296684265,1.9615002870559692,0.0
1659367033257941722,0.59584641456604,1.9500367641448975,0.0
1659367033301785230,0.5928957462310791,1.9444105625152588,0.0
1659367033345651865,0.5883044004440308,1.9357867240905762,0.0
1659367033389987230,0.5851942300796509,1.930073618888855,0.0
1659367033434446573,0.5792593359947205,1.9193569421768188,0.0
1659367033481859922,0.5762512683868408,1.9140212535858154,0.0
1659367033525612831,0.5693706274032593,1.9020071029663086,0.0
1659367033571067094,0.5660637617111206,1.896288275718689,0.0
1659367033622135400,0.5597800016403198,1.8855664730072021,0.0
1659367033676432132,0.5565158128738403,1.8800866603851318,0.0
1659367033726999759,0.5515564680099487,1.8718458414077759,0.0
1659367033770274639,0.5479918122291565,1.8659560680389404,0.0
1659367033815811872,0.5410577654838562,1.8544725179672241,0.0
1659367033863514184,0.5377026200294495,1.8488997220993042,0.0
1659367033906285524,0.5323123931884766,1.8400616645812988,0.0
1659367033950549602,0.5286438465118408,1.834146499633789,0.0
1659367033994081735,0.5220348238945007,1.823443055152893,0.0
1659367034038456201,0.5184646248817444,1.8176158666610718,0.0
1659367034086191415,0.5132339000701904,1.8090659379959106,0.0
1659367034137553691,0.5096889138221741,1.8032827377319336,0.0
1659367034182375431,0.503022313117981,1.7925554513931274,0.0
1659367034226676940,0.4994400143623352,1.7868549823760986,0.0
1659367034272876739,0.4943501651287079,1.7788136005401611,0.0
1659367034318278074,0.4904977083206177,1.7727749347686768,0.0
1659367034362476587,0.48492103815078735,1.7640833854675293,0.0
1659367034406716346,0.4812212288379669,1.7583376169204712,0.0
1659367034450167655,0.4744420349597931,1.7479521036148071,0.0
1659367034498278617,0.47067081928253174,1.7422833442687988,0.0
1659367034542339324,0.46558311581611633,1.7347546815872192,0.0
1659367034587958335,0.4619310796260834,1.7294024229049683,0.0
1659367034634243488,0.4555550813674927,1.7199950218200684,0.0
1659367034678930997,0.45164012908935547,1.7141484022140503,0.0
1659367034726838111,0.4444500803947449,1.7033973932266235,0.0
1659367034770411252,0.44041338562965393,1.6973885297775269,0.0
1659367034814679145,0.4323938488960266,1.685426115989685,0.0
1659367034864217758,0.4287319779396057,1.6799582242965698,0.0
1659367034916226148,0.42127445340156555,1.6688379049301147,0.0
1659367034965532064,0.4173043668270111,1.662906289100647,0.0
1659367035010314464,0.4119226932525635,1.6547825336456299,0.0
1659367035058148384,0.4082031846046448,1.649109959602356,0.0
1659367035102421522,0.40260615944862366,1.6405220031738281,0.0
1659367035146116971,0.39883238077163696,1.634643316268921,0.0
1659367035195903778,0.393578439950943,1.6263463497161865,0.0
1659367035242576599,0.3898298442363739,1.620391607284546,0.0
1659367035286144971,0.38309547305107117,1.60958731174469,0.0
1659367035330458402,0.3794572651386261,1.6036831140518188,0.0
1659367035374580144,0.3745408058166504,1.595593810081482,0.0
1659367035418622493,0.37092265486717224,1.5895295143127441,0.0
1659367035462129116,0.3651764690876007,1.5797834396362305,0.0
1659367035510771512,0.3617030084133148,1.573868751525879,0.0
1659367035554137945,0.35510414838790894,1.562451720237732,0.0
1659367035599199056,0.3516840636730194,1.5563894510269165,0.0
1659367035646193742,0.34701088070869446,1.5478962659835815,0.0
1659367035690336465,0.3437578082084656,1.5418576002120972,0.0
1659367035742755174,0.33876585960388184,1.5325294733047485,0.0
1659367035786654949,0.3357680141925812,1.5269283056259155,0.0
1659367035786777496,0.33120638132095337,1.5183459520339966,0.0
1659367035839477777,0.327985018491745,1.5122044086456299,0.0
1659367035889562606,0.3219035267829895,1.5005321502685547,0.0
1659367035945135593,0.3186486065387726,1.4942653179168701,0.0
1659367035990425348,0.3144454061985016,1.4861522912979126,0.0
1659367036034197092,0.3112425208091736,1.4799726009368896,0.0
1659367036082558631,0.30586814880371094,1.4695303440093994,0.0
1659367036130506038,0.3028584420681,1.4636212587356567,0.0
1659367036179358005,0.2966001331806183,1.4511581659317017,0.0
1659367036224663734,0.29361438751220703,1.4450955390930176,0.0
1659367036270401477,0.290814608335495,1.4393364191055298,0.0
1659367036314234972,0.2867715358734131,1.430833101272583,0.0
1659367036362509012,0.2842685878276825,1.4254094362258911,0.0
1659367036410557270,0.2804517149925232,1.4169130325317383,0.0
1659367036458443880,0.27810007333755493,1.41156005859375,0.0
1659367036502714157,0.2729431390762329,1.3996161222457886,0.0
1659367036546411991,0.2703828513622284,1.3936363458633423,0.0
1659367036590166568,0.2669302523136139,1.385478138923645,0.0
1659367036639144182,0.2642756998538971,1.3790985345840454,0.0
1659367036686592578,0.26168063282966614,1.3728039264678955,0.0
1659367036732547283,0.25808605551719666,1.3640468120574951,0.0
1659367036778430938,0.2556357979774475,1.358048439025879,0.0
1659367036778673887,0.2513144314289093,1.3472917079925537,0.0
1659367036828496932,0.2488301694393158,1.3410069942474365,0.0
1659367036856383800,0.24511075019836426,1.3314547538757324,0.0
1659367036911066055,0.24263916909694672,1.3250020742416382,0.0
1659367036954318046,0.23951773345470428,1.31671142578125,0.0
1659367036998657703,0.23711265623569489,1.3101797103881836,0.0
1659367037045627117,0.23375198245048523,1.3009520769119263,0.0
1659367037090190410,0.23133137822151184,1.2943181991577148,0.0
1659367037134274721,0.2282169908285141,1.2859169244766235,0.0
1659367037178208589,0.2257530391216278,1.2793800830841064,0.0
1659367037223458290,0.22193272411823273,1.2692431211471558,0.0
1659367037266471624,0.2195613980293274,1.2628878355026245,0.0
1659367037310522317,0.21505647897720337,1.2508180141448975,0.0
1659367037358477115,0.21270054578781128,1.2445651292800903,0.0
1659367037402132749,0.20952296257019043,1.2361875772476196,0.0
1659367037447458028,0.2073189914226532,1.2303913831710815,0.0
1659367037490365266,0.20420950651168823,1.222123384475708,0.0
1659367037534681320,0.20225583016872406,1.2168550491333008,0.0
1659367037578161478,0.20042362809181213,1.2118655443191528,0.0
1659367037622324466,0.19970276951789856,1.2098922729492188,0.0
1659367037670369386,0.1992773413658142,1.2087273597717285,0.0
1659367037715388298,0.19917315244674683,1.2084420919418335,0.0
1659367037761357784,0.1991644650697708,1.208418369293213,0.0
1659367037806532144,0.1991644650697708,1.208418369293213,0.0
1659367037852084636,0.1991557776927948,1.2083946466445923,0.0
1659367037894604444,0.1991557776927948,1.2083946466445923,0.0
1659367037938572883,0.1991644650697708,1.208418369293213,0.0
1659367037982339143,0.1991470754146576,1.2083708047866821,0.0
1659367038025987625,0.1991557627916336,1.2083945274353027,0.0
1659367038071892261,0.19916445016860962,1.2084182500839233,0.0
1659367038118191719,0.1991557627916336,1.2083945274353027,0.0
1659367038164793968,0.1991557627916336,1.2083945274353027,0.0
1659367038214193820,0.1991557627916336,1.2083945274353027,0.0
1659367038262433290,0.1991557627916336,1.2083945274353027,0.0
1659367038310171604,0.19916445016860962,1.2084182500839233,0.0
1659367038354339838,0.1991557627916336,1.2083945274353027,0.0
1659367038398270130,0.1991470754146576,1.2083708047866821,0.0
1659367038446336984,0.1991557627916336,1.2083945274353027,0.0
1659367038490368843,0.1991470754146576,1.2083708047866821,0.0
1659367038534454822,0.1991470754146576,1.2083708047866821,0.0
1659367038581485509,0.19852125644683838,1.2066593170166016,0.0
1659367038626443862,0.19765444099903107,1.2042813301086426,0.0
1659367038676043272,0.1958005428314209,1.1991651058197021,0.0
1659367038722857475,0.19429491460323334,1.1950263977050781,0.0
1659367038723012685,0.1918349415063858,1.1883800029754639,0.0
1659367038779849767,0.1900756061077118,1.183741569519043,0.0
1659367038805683374,0.18740421533584595,1.1769047975540161,0.0
1659367038862446546,0.18565630912780762,1.1725608110427856,0.0
1659367038914387941,0.1829296201467514,1.166019320487976,0.0
1659367038954203128,0.18112565577030182,1.161835789680481,0.0
1659367039004083871,0.17733289301395416,1.1533286571502686,0.0
1659367039053721904,0.17490635812282562,1.148037075996399,0.0
1659367039099234342,0.17144110798835754,1.1406325101852417,0.0
1659367039148421287,0.16876588761806488,1.135038137435913,0.0
1659367039196133852,0.1642635315656662,1.1259136199951172,0.0
1659367039246387243,0.16160859167575836,1.1207044124603271,0.0
1659367039297558307,0.1561974585056305,1.1103953123092651,0.0
1659367039348230600,0.1532309651374817,1.1049209833145142,0.0
1659367039394231081,0.14913137257099152,1.0976147651672363,0.0
1659367039438075542,0.14615756273269653,1.0924928188323975,0.0
1659367039438166379,0.1414985954761505,1.0847210884094238,0.0
1659367039482667684,0.13817031681537628,1.0793395042419434,0.0
1659367039512060403,0.13321903347969055,1.0715399980545044,0.0
1659367039568431377,0.12979766726493835,1.0662773847579956,0.0
1659367039619257688,0.12319117039442062,1.0564453601837158,0.0
1659367039675042390,0.1196061298251152,1.0512927770614624,0.0
1659367039718798875,0.11464279890060425,1.0442936420440674,0.0
1659367039763842582,0.11093088984489441,1.039137840270996,0.0
1659367039808604717,0.1048685684800148,1.0308717489242554,0.0
1659367039853870868,0.10106010735034943,1.0257868766784668,0.0
1659367039898455142,0.09366602450609207,1.0160832405090332,0.0
1659367039962452650,0.08979082852602005,1.0110490322113037,0.0
1659367040087196826,0.08465424925088882,1.0044306516647339,0.0
1659367040087427854,0.08077594637870789,0.9994950294494629,0.0
1659367040129962921,0.07407567650079727,0.9912093281745911,0.0
1659367040130146741,0.0701373890042305,0.9864850640296936,0.0
1659367040165364742,0.062435198575258255,0.9774856567382812,0.0
1659367040221722841,0.05832596868276596,0.972807765007019,0.0
1659367040266409635,0.05216357111930847,0.9659930467605591,0.0
1659367040314274072,0.04803607985377312,0.961570680141449,0.0
1659367040358201026,0.040098872035741806,0.953331470489502,0.0
1659367040412852048,0.0357646681368351,0.9489676356315613,0.0
1659367040458223342,0.029524177312850952,0.9428596496582031,0.0
1659367040506060123,0.02502700313925743,0.9385900497436523,0.0
1659367040557894229,0.018079670146107674,0.9321601390838623,0.0
1659367040602541923,0.013462125323712826,0.9279832243919373,0.0
1659367040646137714,0.004554621409624815,0.9201748967170715,0.0
1659367040690121889,-0.00038676109397783875,0.9159835577011108,0.0
1659367040738226890,-0.0069779520854353905,0.9105297327041626,0.0
1659367040781961917,-0.011896985583007336,0.9065494537353516,0.0
1659367040833401441,-0.021398473531007767,0.8990189433097839,0.0
1659367040882387161,-0.026615776121616364,0.8949667811393738,0.0
1659367040928321361,-0.033626992255449295,0.8896352052688599,0.0
1659367040977739095,-0.03886089473962784,0.8857302069664001,0.0
1659367041022749185,-0.047305114567279816,0.8794829845428467,0.0
1659367041065870761,-0.0525260753929615,0.8756455183029175,0.0
1659367041109827280,-0.06240539252758026,0.8685309886932373,0.0
1659367041159755945,-0.0675024539232254,0.8649548888206482,0.0
1659367041205832958,-0.07504691928625107,0.8597556948661804,0.0
1659367041249741077,-0.08030615001916885,0.856191873550415,0.0
1659367041293931245,-0.08914756029844284,0.8503812551498413,0.0
1659367041344716548,-0.0945717990398407,0.8469303846359253,0.0
1659367041390000104,-0.10194500535726547,0.8423472046852112,0.0
1659367041434554100,-0.1075005903840065,0.8389636278152466,0.0
1659367041434678792,-0.11618092656135559,0.8337528109550476,0.0
1659367041487288236,-0.12194879353046417,0.8303293585777283,0.0
1659367041531865596,-0.13006459176540375,0.8256059288978577,0.0
1659367041573644399,-0.13589836657047272,0.8222960233688354,0.0
1659367041617730617,-0.1440400928258896,0.8177717328071594,0.0
1659367041665630817,-0.1496608704328537,0.814703643321991,0.0
1659367041713667869,-0.15812283754348755,0.8101852536201477,0.0
1659367041760929346,-0.16404764354228973,0.8070955872535706,0.0
1659367041805988311,-0.1720990538597107,0.8029940724372864,0.0
1659367041851115226,-0.17790155112743378,0.8001104593276978,0.0
1659367041893786430,-0.186654195189476,0.7958269119262695,0.0
1659367041939154863,-0.19246652722358704,0.7930209040641785,0.0
1659367041939364194,-0.20075300335884094,0.7891112565994263,0.0
1659367041991859674,-0.20657362043857574,0.7864416837692261,0.0
1659367042020783901,-0.215162456035614,0.7826457619667053,0.0
1659367042075407266,-0.2211458534002304,0.7800939083099365,0.0
1659367042131560564,-0.2324257344007492,0.7753804922103882,0.0
1659367042189088821,-0.23864927887916565,0.7728122472763062,0.0
1659367042234276294,-0.24732592701911926,0.7692883014678955,0.0
1659367042278735399,-0.2534179091453552,0.7668672204017639,0.0
1659367042325749158,-0.26406073570251465,0.762739896774292,0.0
1659367042373937368,-0.27009591460227966,0.760452151298523,0.0
1659367042417865991,-0.2818603217601776,0.7561429142951965,0.0
1659367042462477684,-0.28816479444503784,0.7539286017417908,0.0
1659367042506217241,-0.296283483505249,0.7511520981788635,0.0
1659367042553926706,-0.30252397060394287,0.7490633130073547,0.0
1659367042597758054,-0.31256866455078125,0.7457409501075745,0.0
1659367042646010637,-0.3189881443977356,0.7436290383338928,0.0
1659367042689869165,-0.3312567472457886,0.7396975159645081,0.0
1659367042737268209,-0.33737292885780334,0.7378005981445312,0.0
1659367042782013177,-0.34633612632751465,0.7350870370864868,0.0
1659367042836559057,-0.35284218192100525,0.7331676483154297,0.0
1659367042882588148,-0.36307385563850403,0.7302831411361694,0.0
1659367042926309108,-0.36972251534461975,0.7284966111183167,0.0
1659367042974633693,-0.3819076120853424,0.7252713441848755,0.0
1659367043020512342,-0.3884202539920807,0.7235642671585083,0.0
1659367043066413879,-0.39776530861854553,0.721184253692627,0.0
1659367043110165357,-0.40405890345573425,0.7196431756019592,0.0
1659367043154657602,-0.41391104459762573,0.7173115611076355,0.0
1659367043198102712,-0.42022383213043213,0.7158511281013489,0.0
1659367043246275424,-0.4325222074985504,0.713089108467102,0.0
1659367043293482542,-0.4392247498035431,0.7116314768791199,0.0
1659367043338842153,-0.4485531747341156,0.7096232771873474,0.0
1659367043381588697,-0.45503756403923035,0.7082346677780151,0.0
1659367043426924943,-0.46561792492866516,0.7060297727584839,0.0
1659367043470685482,-0.4720711410045624,0.7047402858734131,0.0
1659367043513729095,-0.4840574264526367,0.7024681568145752,0.0
1659367043558612823,-0.4904584586620331,0.7013106942176819,0.0
1659367043606229543,-0.49994903802871704,0.699600875377655,0.0
1659367043651993513,-0.5064740777015686,0.6984180212020874,0.0
1659367043701848506,-0.516319215297699,0.6966780424118042,0.0
1659367043749888658,-0.5227325558662415,0.6955908536911011,0.0
1659367043795787096,-0.53093022108078,0.6942795515060425,0.0
1659367043837526321,-0.5359615087509155,0.6935257911682129,0.0
1659367043881790876,-0.5430566072463989,0.692542314529419,0.0
1659367043925739765,-0.5483284592628479,0.6918646097183228,0.0
1659367043973727464,-0.5563426613807678,0.6908829212188721,0.0
1659367044018223047,-0.562476396560669,0.6901631355285645,0.0
1659367044065889358,-0.5736990571022034,0.6889452338218689,0.0
1659367044114835500,-0.5802229642868042,0.6883028149604797,0.0
1659367044114919900,-0.5892736315727234,0.6874961256980896,0.0
1659367044164285898,-0.5956065654754639,0.6869918704032898,0.0
1659367044213859558,-0.6063647866249084,0.6862707734107971,0.0
1659367044270651102,-0.6117993593215942,0.6859907507896423,0.0
1659367044315524816,-0.6200951337814331,0.6856716871261597,0.0
1659367044358348131,-0.6261928081512451,0.6855071783065796,0.0
1659367044402407407,-0.6361130475997925,0.6853313446044922,0.0
1659367044445598125,-0.6425669193267822,0.6852659583091736,0.0
1659367044494081497,-0.6554499268531799,0.6852144598960876,0.0
1659367044538108825,-0.6623091101646423,0.6852275729179382,0.0
1659367044585966825,-0.6718762516975403,0.6853038668632507,0.0
1659367044630324125,-0.6788107752799988,0.685395359992981,0.0
1659367044674038410,-0.688275933265686,0.685535192489624,0.0
1659367044718856811,-0.695108950138092,0.685642421245575,0.0
1659367044769745111,-0.7051040530204773,0.6858711838722229,0.0
1659367044820349693,-0.7120863199234009,0.6860916018486023,0.0
1659367044865726232,-0.7256952524185181,0.6865639090538025,0.0
1659367044909548044,-0.7323222756385803,0.6868048906326294,0.0
1659367044958498954,-0.7415277361869812,0.6871790885925293,0.0
1659367045001794338,-0.7479241490364075,0.6874827146530151,0.0
1659367045045777320,-0.7572228312492371,0.6880220174789429,0.0
1659367045089761972,-0.7633081674575806,0.6884428262710571,0.0
1659367045135482549,-0.7719622254371643,0.6891337037086487,0.0
1659367045178664445,-0.7781635522842407,0.6896923184394836,0.0
1659367045179166555,-0.7864239811897278,0.6905210018157959,0.0
1659367045230463981,-0.7924357056617737,0.6911938190460205,0.0
1659367045254209756,-0.8006992936134338,0.6922212243080139,0.0
1659367045308714866,-0.8064664006233215,0.6930150389671326,0.0
1659367045357808113,-0.8144739270210266,0.6942316293716431,0.0
1659367045402674674,-0.820292592048645,0.6951921582221985,0.0
1659367045453894138,-0.830459713935852,0.6970009803771973,0.0
1659367045498328208,-0.8367253541946411,0.6981943249702454,0.0
1659367045544842958,-0.8464274406433105,0.7001461982727051,0.0
1659367045590152740,-0.8528161644935608,0.7014979124069214,0.0
1659367045634685754,-0.8651030659675598,0.704194962978363,0.0
1659367045678328990,-0.8715265989303589,0.705625057220459,0.0
1659367045722977161,-0.8810266852378845,0.7077944278717041,0.0
1659367045766977071,-0.8875769972801208,0.7093505859375,0.0
1659367045810521364,-0.896206796169281,0.7114607691764832,0.0
1659367045858199834,-0.9025911092758179,0.713056743144989,0.0
1659367045903133392,-0.9127564430236816,0.7155999541282654,0.0
1659367045947912216,-0.9194632768630981,0.7172625064849854,0.0
1659367045994529962,-0.9316187500953674,0.7202980518341064,0.0
1659367046043445110,-0.9385355710983276,0.7220596671104431,0.0
1659367046086675643,-0.9478065371513367,0.7244229316711426,0.0
1659367046134492874,-0.9546326398849487,0.7261301875114441,0.0
1659367046178303956,-0.9657962322235107,0.7288538217544556,0.0
1659367046226413965,-0.9725608825683594,0.7304931879043579,0.0
1659367046270438432,-0.9856750965118408,0.7336576581001282,0.0
1659367046318100214,-0.9925708174705505,0.7352931499481201,0.0
1659367046366563558,-1.0019572973251343,0.737504243850708,0.0
1659367046410367727,-1.0087577104568481,0.7391025424003601,0.0
1659367046454797267,-1.018044352531433,0.7412958145141602,0.0
1659367046502503395,-1.0249135494232178,0.742933452129364,0.0
1659367046546493768,-1.0349386930465698,0.7453032732009888,0.0
1659367046591588497,-1.041865348815918,0.746917724609375,0.0
1659367046592457056,-1.0512099266052246,0.7490856647491455,0.0
1659367046641625642,-1.0578912496566772,0.7506378293037415,0.0
1659367046670317888,-1.0689446926116943,0.7532784342765808,0.0
1659367046727423906,-1.07597017288208,0.7550230026245117,0.0
1659367046779443740,-1.0884312391281128,0.7581923007965088,0.0
1659367046824849367,-1.0951488018035889,0.7599159479141235,0.0
1659367046875965595,-1.1095318794250488,0.7636398077011108,0.0
1659367046931936502,-1.116436243057251,0.7654497623443604,0.0
1659367046982455968,-1.1292353868484497,0.768828272819519,0.0
1659367047036343812,-1.1360820531845093,0.7706580758094788,0.0
1659367047086565017,-1.145412564277649,0.7731930017471313,0.0
1659367047130327463,-1.1522223949432373,0.7750620245933533,0.0
1659367047182568073,-1.1622341871261597,0.7777921557426453,0.0
1659367047226335048,-1.1691012382507324,0.7796438336372375,0.0
1659367047270452499,-1.1816812753677368,0.7830578088760376,0.0
1659367047315984964,-1.188685655593872,0.784983217716217,0.0
1659367047362181901,-1.198395013809204,0.7876679301261902,0.0
1659367047406299114,-1.2053699493408203,0.7896046042442322,0.0
1659367047450147867,-1.2159295082092285,0.7925383448600769,0.0
1659367047499194145,-1.2227342128753662,0.7944261431694031,0.0
1659367047542591810,-1.2359282970428467,0.7980891466140747,0.0
1659367047591187715,-1.2428550720214844,0.800010085105896,0.0
1659367047637987136,-1.252174735069275,0.8025844097137451,0.0
1659367047681727647,-1.2589597702026367,0.8044484257698059,0.0
1659367047725807905,-1.2693582773208618,0.8072999715805054,0.0
1659367047773722648,-1.2762900590896606,0.8092027902603149,0.0
1659367047817783117,-1.2884266376495361,0.8125110864639282,0.0
1659367047861902475,-1.2949748039245605,0.8142814636230469,0.0
1659367047905890464,-1.3048542737960815,0.8169193267822266,0.0
1659367047949815511,-1.3116368055343628,0.8186945915222168,0.0
1659367047996017217,-1.3244532346725464,0.8220067024230957,0.0
1659367048038659572,-1.3311939239501953,0.8237417936325073,0.0
1659367048082687377,-1.3410767316818237,0.8262665271759033,0.0
1659367048126583576,-1.3477534055709839,0.8279454708099365,0.0
1659367048170568943,-1.3578615188598633,0.8304035663604736,0.0
1659367048214298009,-1.3645145893096924,0.8319653868675232,0.0
1659367048262118816,-1.3766647577285767,0.8348074555397034,0.0
1659367048310337066,-1.383342981338501,0.8363728523254395,0.0
1659367048354487180,-1.3973151445388794,0.839536726474762,0.0
1659367048411903858,-1.4038680791854858,0.8409675359725952,0.0
1659367048454632282,-1.4132914543151855,0.8430158495903015,0.0
1659367048502604007,-1.4200682640075684,0.844489336013794,0.0
1659367048546818733,-1.4298934936523438,0.846595048904419,0.0
1659367048590297460,-1.4366812705993652,0.8480172753334045,0.0
1659367048634304761,-1.4497772455215454,0.8506806492805481,0.0
1659367048685059785,-1.4565038681030273,0.8520224690437317,0.0
1659367048734342336,-1.465638279914856,0.8538442850112915,0.0
1659367048781141281,-1.4723188877105713,0.855158269405365,0.0
1659367048826330661,-1.4826122522354126,0.8571197986602783,0.0
1659367048870318412,-1.4892078638076782,0.8583387732505798,0.0
1659367048918916702,-1.498274326324463,0.8599758148193359,0.0
1659367048966498136,-1.504828929901123,0.8611374497413635,0.0
1659367048966715812,-1.5146595239639282,0.8628131747245789,0.0
1659367049015525579,-1.5213067531585693,0.8638820052146912,0.0
1659367049043474197,-1.5299122333526611,0.8652065396308899,0.0
1659367049099787235,-1.5366488695144653,0.866193950176239,0.0
1659367049142438173,-1.5458970069885254,0.867497980594635,0.0
1659367049187196016,-1.5525903701782227,0.8684304356575012,0.0
1659367049231613159,-1.5619195699691772,0.8697025775909424,0.0
1659367049278115272,-1.5684441328048706,0.8705609440803528,0.0
1659367049322724103,-1.5774626731872559,0.8716707825660706,0.0
