%time,field.x,field.y,field.z
10936000000,-2.0000203208502376,-0.4999937137281264,-0.0010013929387799533
10968000000,-2.0000203240648498,-0.49999369480215883,-0.0010013929388085069
11004000000,-2.000020327376888,-0.49999367530263317,-0.0010013929388379209
11035000000,-2.0000203305915276,-0.4999936563765805,-0.001001392938866464
11069000000,-2.00002033380618,-0.49999363745048575,-0.0010013929388950037
11102000000,-2.0000203371182605,-0.49999361795082936,-0.0010013929389244246
11135000000,-2.00002034033294,-0.4999935990246497,-0.0010013929389529816
11168000000,-2.000020343547633,-0.4999935800984282,-0.0010013929389815247
11201000000,-2.0000203468597553,-0.49999356059864086,-0.0010013929390109422
11238000000,-2.0000203500744758,-0.4999935416723341,-0.0010013929390394957
11274000000,-2.0000203532892114,-0.4999935227459855,-0.0010013929390680354
11311000000,-2.0000203566013766,-0.4999935032460672,-0.0010013929390974424
11343000000,-2.000020359816139,-0.49999348431963325,-0.0010013929391260064
11380000000,-2.0000203630309143,-0.4999934653931576,-0.0010013929391545565
11411000000,-2.000020366343121,-0.4999934458931085,-0.0010013929391839635
11445000000,-2.0000203695579235,-0.49999342696654764,-0.0010013929392125066
11479000000,-2.0000203727727395,-0.4999934080399449,-0.0010013929392410706
11505000000,-2.000020376084988,-0.4999933885397649,-0.0010013929392704915
11539000000,-2.0000203792998312,-0.4999933696130771,-0.001001392939299045
11568000000,-2.0000203825146876,-0.49999335068634726,-0.0010013929393275951
11602000000,-2.0000203858269794,-0.49999333118603645,-0.001001392939357009
11644000000,-2.000020389041864,-0.4999933122592217,-0.0010013929393855557
11673000000,-2.0000203922567623,-0.4999932933323649,-0.0010013929394141127
11702000000,-2.000020395569096,-0.4999932738319232,-0.0010013929394435267
11739000000,-2.0000203987840215,-0.49999325490498137,-0.0010013929394720837
11768000000,-2.0000204019989605,-0.4999932359779975,-0.0010013929395006338
11802000000,-2.0000204053113357,-0.49999321647742484,-0.0010013929395300582
11835000000,-2.0000204085263014,-0.4999931975503559,-0.0010013929395586083
11873000000,-2.0000204117412808,-0.499993178623245,-0.0010013929395871687
11902000000,-2.000020415053698,-0.4999931591225415,-0.0010013929396165827
11936000000,-1.9995823441010467,-0.49999295073026423,-0.0010010689158796368
11968000000,-1.9982896012416718,-0.4999928465815037,-0.001001132047569929
12003000000,-1.996062261093255,-0.4999927432524346,-0.0010012286080525248
12049000000,-1.9930382059476697,-0.49999272421969215,-0.0010013573560076622
12079000000,-1.9891886021614782,-0.4999929175065013,-0.001001527326075162
12121000000,-1.984415637845011,-0.49999358940046656,-0.00100174378910824
12151000000,-1.9790986038352736,-0.4999947744896382,-0.0010019694255301581
12197000000,-1.9732532181978846,-0.4999963073250349,-0.0010021809271032536
12230000000,-1.9668744164980092,-0.4999990318533298,-0.001002335236879353
12258000000,-1.9605556874805359,-0.5000045739567026,-0.001001123447806375
12286000000,-1.9542244577639372,-0.5000049739390988,-0.0010005128865167336
12312000000,-1.947529347018066,-0.5000037854903812,-0.0010005120818734094
12336000000,-1.9406832940669412,-0.5000038250592823,-0.0010005878688688734
12373000000,-1.9334708255549045,-0.5000084777516137,-0.001001518529195989
12410000000,-1.925970456632789,-0.5000309347186259,-0.0010014337239278547
12448000000,-1.9186895130971031,-0.5000711600212256,-0.0010014005993924761
12472000000,-1.9114074753040684,-0.5001295681287117,-0.0010014045728546708
12511000000,-1.9039036182429963,-0.5002088131232539,-0.0010014457126022586
12538000000,-1.8966217349906807,-0.5003033508569746,-0.001001521031294434
12576000000,-1.8893387897336476,-0.500414217455701,-0.0010016378855312418
12606000000,-1.8818367002998098,-0.5005445109262178,-0.00100179578528653
12636000000,-1.874555834493898,-0.5006858353530605,-0.0010019181230500745
12669000000,-1.8672772587901543,-0.5008415217495539,-0.0010020311577041106
12703000000,-1.859784449582108,-0.501016726687118,-0.0010021541085787726
12735000000,-1.8525527901370926,-0.5012000821848288,-0.0010014810189979198
12768000000,-1.8453351549549375,-0.5014008241564074,-0.0010012826602925039
12799000000,-1.8378505121700004,-0.5016251367123626,-0.0010016041759035553
12835000000,-1.8305870446574977,-0.5018537530466627,-0.0010015119112590648
12868000000,-1.8233225225947847,-0.5020912836316541,-0.0010014409785590907
12902000000,-1.8158444659491215,-0.5023423016788905,-0.0010014043923200176
12935000000,-1.8085851099670138,-0.5025890376496382,-0.0010014055122127621
12968000000,-1.8013245848532002,-0.5028388665865885,-0.0010014438992656909
13010000000,-1.793842787605695,-0.503099532391672,-0.001001520703509496
13046000000,-1.786891534218629,-0.5033481905076811,-0.0010016441854820216
13068000000,-1.7800526889644843,-0.5036080304142457,-0.0010017568300522833
13102000000,-1.77274902797566,-0.5038953694454571,-0.0010020692183135317
13136000000,-1.765487847669182,-0.5041913003241846,-0.0010020187564158817
13168000000,-1.7582224951611558,-0.5044936168961492,-0.0010021056259153817
13203000000,-1.750756054097502,-0.5048099568378661,-0.0010020898152359459
13235000000,-1.7435498915733947,-0.5051225410639203,-0.0010013195513486235
13268000000,-1.7363110341743309,-0.5054448742842935,-0.001001665504282545
13301000000,-1.7288399210442664,-0.5057818229498328,-0.0010015000615220468
13335000000,-1.7215869522294145,-0.5061117770941067,-0.0010014488686017203
13368000000,-1.7143327461724616,-0.5064446534789566,-0.0010014095989244153
13401000000,-1.706857559802643,-0.5067907041234934,-0.001001402120010892
13435000000,-1.6995986881138319,-0.5071306255795972,-0.0010014350631480998
13468000000,-1.6923387150234988,-0.5074755565557111,-0.0010015022676210447
13502000000,-1.6848598719214898,-0.5078351958458523,-0.001001600653527942
13537000000,-1.6776000388832057,-0.5081875033487416,-0.0010017370943388275
13568000000,-1.6703404581573011,-0.5085429426033216,-0.0010018617388859695
13605000000,-1.66286447908443,-0.5089111144778229,-0.0010019529982493065
13638000000,-1.6556125894224851,-0.5092690344908815,-0.0010020323747600944
13668000000,-1.6483680314368832,-0.5096275200400231,-0.001002165006967544
13706000000,-1.6409400961958331,-0.5099991838821978,-0.0010012957692875878
13735000000,-1.6337128258967049,-0.5103676359771466,-0.0010016115061447436
13769000000,-1.626463806212617,-0.5107406276085373,-0.0010015053670999509
13802000000,-1.619310823852572,-0.5111127419029456,-0.0010013409608088074
13838000000,-1.6124976157470172,-0.5114757642623707,-0.00100141911407085
13876000000,-1.6056817498818639,-0.511839449620395,-0.0010013956473800094
13902000000,-1.598312035862276,-0.5122369626038598,-0.0010013984039895611
13935000000,-1.5910392500908286,-0.5126462709697647,-0.001001492136327383
13968000000,-1.5837662142209803,-0.5130740089131305,-0.0010015794789698038
14001000000,-1.5762726824412585,-0.5135340062973782,-0.0010017159678673976
14035000000,-1.569002786361682,-0.5139981620405877,-0.0010018344473138457
14068000000,-1.5617349984741846,-0.5144786176885366,-0.0010019468754997353
14102000000,-1.5542409314975163,-0.5149873233372008,-0.001001894308501658
14138000000,-1.5469897986033367,-0.5154881502724051,-0.0010018384894420855
14168000000,-1.5397657623853218,-0.5159934893914778,-0.0010017491242813661
14202000000,-1.5323273282618324,-0.5165268547084553,-0.0010012257934587064
14240000000,-1.5250775814593651,-0.51706118313874,-0.0010015615590067903
14275000000,-1.5178261497400045,-0.5176078950023529,-0.0010014733809221958
14302000000,-1.5103548053787392,-0.5181841162298964,-0.001001421395216761
14335000000,-1.5031052668074525,-0.518754913730198,-0.001001406357864578
14368000000,-1.4958553381700166,-0.5193361953481147,-0.0010014279553416452
14402000000,-1.488919997053589,-0.5199033971386562,-0.0010013620286503967
14441000000,-1.4822212958523782,-0.5204665336529946,-0.0010015457707517432
14469000000,-1.4754051819878267,-0.5210491316742389,-0.0010016693722874753
14502000000,-1.468704932994239,-0.5216320991399761,-0.0010013387283810786
14535000000,-1.4623711615884454,-0.5221920059483948,-0.0010018828762533676
14568000000,-1.456038494539157,-0.5227573232272945,-0.0010019745116213764
14603000000,-1.449522229074655,-0.5233448297921239,-0.0010018539995934675
14635000000,-1.44311707125705,-0.5239253572846376,-0.0010012066246193156
14668000000,-1.4365391375269698,-0.5245328635006299,-0.0010005108756766072
14702000000,-1.42962525370889,-0.5252079941949216,-0.0010012395705373683
14734000000,-1.4228542444172168,-0.5259129415843017,-0.001001143620958763
14773000000,-1.4159355922769405,-0.5266671829480712,-0.0010010913860787202
14802000000,-1.4085777309551828,-0.5274856127368829,-0.0010014703917478225
14837000000,-1.4013794645788493,-0.528279992876871,-0.0010013978572614296
14868000000,-1.3941781775630138,-0.5290610315130931,-0.0010014225746718605
14903000000,-1.3867579932439549,-0.5298506454031113,-0.001001486293466275
14934000000,-1.3795531004444883,-0.5306016434195207,-0.001001575245253867
14968000000,-1.3723454467258394,-0.5313374878036996,-0.0010016944680014649
15005000000,-1.3649102278550325,-0.5320832317339963,-0.0010018132715776881
15036000000,-1.3576900525497106,-0.5327973674303311,-0.00100187580183006
15074000000,-1.3504705355441644,-0.5335023313463615,-0.0010020552247799012
15102000000,-1.3430421208790364,-0.5342179156651516,-0.001002073568395212
15138000000,-1.3357978002716582,-0.5349105991286585,-0.001001870837501393
15170000000,-1.3285633082237274,-0.5356167037715701,-0.001001413677954116
15203000000,-1.3211031515463516,-0.5363623478112276,-0.001001554442327919
15239000000,-1.3142860167164954,-0.5370569902150752,-0.001002116471217139
15269000000,-1.3079166772358288,-0.5377095945603724,-0.0010014195291073447
15302000000,-1.300973195835479,-0.5384305185279638,-0.001001151052662845
15335000000,-1.2937712220847384,-0.5391950099856134,-0.0010014251506236978
15369000000,-1.2865387967196296,-0.539973556208968,-0.001001464313765129
15402000000,-1.2790870391140048,-0.5407867676601357,-0.0010015452996142218
15437000000,-1.2718608703160097,-0.5415835240430616,-0.0010016607371878539
15470000000,-1.2646351211414082,-0.5423850320885817,-0.0010017839037030386
15501000000,-1.2571916334861521,-0.5432156271669197,-0.0010019050138263368
15536000000,-1.2499656672879622,-0.5440270928017891,-0.001002029881099105
15573000000,-1.2427492529345037,-0.5448446178205342,-0.0010018118031101635
15615000000,-1.2353162472910668,-0.5456931368958436,-0.0010020301080317304
15652000000,-1.228072452300238,-0.546532727141841,-0.0010016162895848287
15683000000,-1.2208453501069703,-0.547398928417155,-0.0010015677693639216
15713000000,-1.2133934775912596,-0.548321102901669,-0.0010015047977349825
15745000000,-1.2061627973735423,-0.5492420258469142,-0.00100144093072084
15778000000,-1.1989342394546927,-0.5501884807335734,-0.0010014202899463025
15812000000,-1.191488877678589,-0.5511903613045053,-0.0010014321431442604
15834000000,-1.1842668760078785,-0.5521876004894849,-0.0010014811513693114
15868000000,-1.177046926268411,-0.553208588651741,-0.0010015613595322458
15902000000,-1.1696126095829016,-0.5542841995321723,-0.0010016841035632093
15935000000,-1.162400259741788,-0.5553503178710564,-0.001001792560314567
15969000000,-1.1551921369408833,-0.5564379734633651,-0.0010018987988154558
16003000000,-1.147774221558867,-0.5575797712504587,-0.0010019393069794873
16040000000,-1.140578089322578,-0.5587043838867715,-0.0010016662305195947
16069000000,-1.133408171457094,-0.5598257204313937,-0.0010019432165052217
16102000000,-1.1260343306339469,-0.5609787958503153,-0.0010018287385547067
16135000000,-1.119009772498371,-0.5620756505413105,-0.001001113033745421
16168000000,-1.1119396341509347,-0.5631683611991688,-0.0010010734660543842
16200000000,-1.1045764831892717,-0.5642855526740053,-0.0010014265736144473
16235000000,-1.0974363691568327,-0.5653413323384021,-0.001001392415444384
16272000000,-1.0902897266037743,-0.5663655585190973,-0.0010013961157616866
16302000000,-1.0829204705383486,-0.5673877147849531,-0.001001437266004511
16335000000,-1.0757357147643143,-0.5683623574463956,-0.0010015328534512778
16368000000,-1.0685406415476293,-0.5693355876831876,-0.0010016143068528188
16402000000,-1.0611262564055828,-0.5703357871625825,-0.0010017276320807046
16435000000,-1.0541717499328982,-0.5712743894237751,-0.0010010604340377378
16468000000,-1.0474024839855085,-0.5721907790542163,-0.0010019858395802807
16502000000,-1.0404525567239677,-0.5731302294219289,-0.0010015792745527198
16537000000,-1.0335967787214329,-0.5740545914855515,-0.0010017884290486542
16569000000,-1.0266742353342737,-0.5749878411603999,-0.0010012973276726789
16602000000,-1.0195711980152808,-0.5759484296833959,-0.0010011845750042513
16635000000,-1.012993751531406,-0.5768384888747672,-0.0010018399516657055
16668000000,-1.0064870319177173,-0.577712094890941,-0.0010010688817141088
16702000000,-0.9993371432252627,-0.5786672726597402,-0.0010010793954560934
16735000000,-0.9921471674347531,-0.5796268265931814,-0.0010013983480040081
16768000000,-0.9849551829278755,-0.5805824956860838,-0.0010014218787763735
16802000000,-0.9775433534757477,-0.5815630926245721,-0.001001480773679387
16835000000,-0.9703497262501082,-0.5825098470031181,-0.0010015727359497066
16868000000,-0.9631541693221856,-0.5834510372760212,-0.001001677227020499
16907000000,-0.9557411403742786,-0.584413742876885,-0.0010017741350766413
16933000000,-0.9485430727434923,-0.5853402285928916,-0.0010018633883049598
16968000000,-0.9413467304010692,-0.5862586111517343,-0.0010020443880676515
17002000000,-0.933940966411136,-0.5871957305040227,-0.001002026764425297
17035000000,-0.9268162990388168,-0.5880854643406586,-0.00100201234263525
17068000000,-0.9197400069336105,-0.5889524744164599,-0.0010012133777735285
17103000000,-0.9123961211989159,-0.5898347855036016,-0.0010013435765660259
17139000000,-0.9052205501553712,-0.5906725235465906,-0.0010014622378230476
17168000000,-0.898041218025121,-0.5914843891249154,-0.0010014065761205261
17202000000,-0.890640056097466,-0.5922938709091321,-0.0010013847856104284
17235000000,-0.8834501231761587,-0.5930545259145387,-0.001001395310659875
17268000000,-0.8762563741614571,-0.5937913859823253,-0.0010014407875315809
17302000000,-0.8688407252323724,-0.5945256872861909,-0.0010015193686217956
17335000000,-0.86208296659074,-0.5951736046649652,-0.0010011825884960676
17368000000,-0.8554436148190744,-0.5957980526069039,-0.0010016824284956767
17404000000,-0.8484648780568512,-0.596435375084484,-0.0010018637318673224
17435000000,-0.8415157539158246,-0.597047564612382,-0.0010022436253870025
17468000000,-0.8343920415280462,-0.5976458555195131,-0.0010019495832557582
17502000000,-0.8270332770786168,-0.5982331998901911,-0.0010016207655135605
17534000000,-0.8198710534791694,-0.5987859117518708,-0.0010012814860131357
17568000000,-0.8126705066515097,-0.5993254377519409,-0.001001640042805306
17602000000,-0.8052393908764958,-0.5998616445753092,-0.0010015169247473386
17635000000,-0.7980219567894545,-0.6003632073266935,-0.0010014432344955942
17668000000,-0.7908021282255218,-0.6008471155812701,-0.0010014003211319747
17702000000,-0.7833634125498027,-0.6013261054035094,-0.0010013859824393213
17735000000,-0.7761409784708208,-0.6017711062353661,-0.0010014090175111054
17772000000,-0.7689160492012909,-0.6021965291187555,-0.0010014680136704625
17810000000,-0.7614695843981322,-0.602614388138046,-0.001001560899754124
17836000000,-0.7542172743220824,-0.6030097400505028,-0.0010017086443751579
17869000000,-0.7469607958298945,-0.6034072481888667,-0.001001855998789828
17902000000,-0.7394858929784134,-0.6038187630556946,-0.0010019819835786967
17935000000,-0.7323469871724291,-0.6042124970052561,-0.0010012123200630121
17968000000,-0.7253170561968915,-0.6045965177038305,-0.0010022619131903852
18009000000,-0.7182746086018129,-0.6050028400977973,-0.0010025562789946554
18040000000,-0.7118080688038051,-0.605382661880006,-0.0010010294020354332
18067000000,-0.7054426755306816,-0.6057615448034409,-0.0010016034334460189
18102000000,-0.6986063940961602,-0.6061752183944663,-0.0010012062119478596
18135000000,-0.6914958299069996,-0.6066189452899295,-0.0010014492873192359
18168000000,-0.6842515695472247,-0.6070743239644613,-0.001001409640397903
18202000000,-0.6767865349545548,-0.6075435766404255,-0.001001404880962009
18235000000,-0.6695397753291814,-0.607999155001775,-0.0010014397232239666
18272000000,-0.6622917070763383,-0.6084548843876523,-0.0010015138223606612
18302000000,-0.6548226051955218,-0.6089246079453751,-0.0010016213016779997
18335000000,-0.6475719598967195,-0.6093807123845356,-0.0010017706891372324
18368000000,-0.6403215742481336,-0.6098369157339407,-0.0010019047717532113
18401000000,-0.6330164053450067,-0.6102961432693895,-0.001001136368238953
18435000000,-0.6261236016443064,-0.6107257679716359,-0.001001584434884576
18471000000,-0.6193342985997764,-0.6111454750290207,-0.0010016654101717981
18502000000,-0.6123657265912503,-0.6115872429854377,-0.0010012218096437722
18537000000,-0.6058035551450442,-0.6120051161267743,-0.0010022461733095699
18573000000,-0.5994638592105017,-0.6124027871746874,-0.0010015700912277686
18615000000,-0.592940054989287,-0.6128126699719386,-0.0010014738255914278
18641000000,-0.5866551051420782,-0.6132079391817497,-0.001001441335905611
18668000000,-0.5803696554394076,-0.6136032278298407,-0.001001405414372266
18702000000,-0.5738926366225415,-0.6140105744721593,-0.0010014008928282102
18735000000,-0.5676251898784449,-0.6144011039612995,-0.0010014206954930861
18774000000,-0.5613568839505535,-0.614783197744296,-0.0010014698677995176
18806000000,-0.554896880372599,-0.615168129076537,-0.0010015501567795966
18835000000,-0.5486198414771605,-0.6155359286412371,-0.0010016516255998142
18871000000,-0.5423408951805836,-0.6159007542775107,-0.0010017384256950368
18906000000,-0.5358706214944006,-0.6162734149889403,-0.0010018394558595212
18935000000,-0.529437005335227,-0.6166435426748037,-0.0010023202377075317
18968000000,-0.5228461447251525,-0.6170278546936597,-0.001002411211481792
19003000000,-0.5160512614548762,-0.6174200420558433,-0.0010005373885908463
19036000000,-0.5093291716006366,-0.6178380888267971,-0.0010005433522567546
19070000000,-0.5023867438934441,-0.6182973302501298,-0.0010012278707211206
19111000000,-0.49528262543812,-0.61877627587266,-0.001001421445573726
19145000000,-0.4884988653960572,-0.6192186580750371,-0.0010014449834000391
19171000000,-0.48171888120977957,-0.6196540811770151,-0.0010014139798454856
19202000000,-0.47440457286687576,-0.6201158099053001,-0.0010014036102186166
19237000000,-0.4671636725730351,-0.6205579876449407,-0.0010014213036346753
19283000000,-0.45992589523579663,-0.620990881906706,-0.0010014789218498327
19319000000,-0.4524668246069201,-0.6214275705617892,-0.0010015786722183465
19349000000,-0.44520218809576134,-0.6218521192700073,-0.001001728643287944
19375000000,-0.4379348415109608,-0.6222894861336125,-0.0010018832896994297
19405000000,-0.43045196108876765,-0.6227522558609929,-0.001002023095277551
19444000000,-0.423195221259673,-0.6232118515721142,-0.0010022007071873208
19479000000,-0.4159764532356026,-0.6236694776506778,-0.0010015014366400142
19515000000,-0.40854397578866164,-0.6241689432073231,-0.0010014016053239913
19536000000,-0.40128590059049285,-0.6246722198311518,-0.0010016404593608946
19568000000,-0.3940264947673133,-0.6251934672554372,-0.001001558356949938
19602000000,-0.3865302190520403,-0.6257580581049224,-0.0010015066134977796
19639000000,-0.3792516858286824,-0.6263424882190491,-0.0010014374049456091
19668000000,-0.3719749147484557,-0.6269625822569762,-0.0010014231287393364
19697000000,-0.3644796106522163,-0.6276388032820751,-0.001001442297530155
19734000000,-0.357418552008408,-0.6282973246642077,-0.0010014842760234545
19772000000,-0.35058106706190156,-0.6289306313501544,-0.0010015797689631699
19802000000,-0.34389624219525444,-0.6295791160591777,-0.001001692701970324
19834000000,-0.33753540099756496,-0.6302261340255517,-0.0010018317253042003
19851000000,-0.33117825802178463,-0.6309014992081801,-0.0010019430819278863
19902000000,-0.32463367249186537,-0.6316266698724481,-0.00100204918707094
19930000000,-0.3182427369392381,-0.6323632870255167,-0.0010013198250180336
19972000000,-0.31180972260749457,-0.6331281654078417,-0.0010005977093051413
20013000000,-0.3050617733405149,-0.6339782900274492,-0.0010013687845376353
20047000000,-0.2984061481836685,-0.6348744642708499,-0.0010012149204351208
20072000000,-0.2916519705185287,-0.6358349513850288,-0.0010015110958797417
20101000000,-0.28444074977686357,-0.636910811817068,-0.0010011309307948225
20136000000,-0.27723620897294093,-0.6380277507382515,-0.0010014345268299883
20168000000,-0.27002844332372283,-0.639177635439309,-0.0010014266854250949
20204000000,-0.2626063237279406,-0.6403956922881296,-0.0010014637434618417
20243000000,-0.25539231710624405,-0.6416187278752485,-0.0010015526939593684
20269000000,-0.24818329913057546,-0.6428877668100644,-0.0010016596372061787
20302000000,-0.24076371709815086,-0.644242946731796,-0.0010017877653337622
20337000000,-0.23387615250698846,-0.6455496574258704,-0.0010010017799127156
20367000000,-0.22718312850810668,-0.6468796265827051,-0.001002232124513596
20402000000,-0.2201627594286363,-0.6483152479126962,-0.001001089060118577
20435000000,-0.21323267459708897,-0.6497602921250567,-0.0010011899139459532
20470000000,-0.2061332062144515,-0.6512817887209528,-0.0010020498667940095
20502000000,-0.19882903535365673,-0.6529060747811134,-0.0010012144650691918
20535000000,-0.19172160540244634,-0.6545495345269067,-0.0010012186672992938
20568000000,-0.18459495463025996,-0.6562578446948909,-0.0010014996717790034
20602000000,-0.17725584224097438,-0.6580839812072224,-0.0010014653906846062
20643000000,-0.17014754470640683,-0.659923723663896,-0.0010014744248084718
20674000000,-0.16305536813259466,-0.6618294670412085,-0.0010015231746541703
20707000000,-0.15576578525697876,-0.6638618795881693,-0.0010016114567404817
20734000000,-0.14870251402129886,-0.6659058340423432,-0.0010017261436726203
20768000000,-0.14166064278034285,-0.6680208658218827,-0.0010018217363560525
20807000000,-0.1345630774955684,-0.6702329652234632,-0.0010009853541264845
20846000000,-0.1278457069034047,-0.6724086545913153,-0.0010022178639284458
20885000000,-0.12127015234515624,-0.6746159813826944,-0.0010016715745301448
20909000000,-0.11453598316129764,-0.6769516639616372,-0.0010017520280441762
20935000000,-0.10788456707637378,-0.6793322003218999,-0.0010017972131919212
20968000000,-0.101111896811496,-0.681816535612433,-0.0010018105026410075
21006000000,-0.09416495921447611,-0.6844208216175469,-0.0010011424566268197
21034000000,-0.08739987426664998,-0.6870296901153985,-0.0010011402856192168
21069000000,-0.08063473375104513,-0.6897273650045458,-0.0010011430088863044
21107000000,-0.0736350131803933,-0.69260801908434,-0.0010015652940629158
21145000000,-0.06723529247216019,-0.6953180109535048,-0.001001759657437283
21171000000,-0.06098565354849472,-0.6980386495833109,-0.0010017330096747067
21210000000,-0.054291764925085965,-0.7010288734343125,-0.0010015762238329805
21251000000,-0.04763934353213138,-0.7040509900361845,-0.0010018717832369559
21292000000,-0.04101416357865627,-0.7071018101956572,-0.0010016660204802477
21315000000,-0.034202328022714605,-0.7102811284148297,-0.0010018247480659895
21346000000,-0.02793968744715039,-0.7132505256421889,-0.0010022197589264793
21379000000,-0.022408947927805806,-0.7159362649864323,-0.0010021368750923743
21415000000,-0.01681230345651872,-0.7187380949415725,-0.0010010695425682649
21440000000,-0.010992772566425677,-0.7217333366748617,-0.001001614862666221
21476000000,-0.004947213130872408,-0.7248999359571504,-0.0010016685729176932
21513000000,0.000990616714749341,-0.7280336282841741,-0.001001131643553279
21549000000,0.006131919222004584,-0.7307403011300714,-0.0010013138031551433
21578000000,0.01072815077823038,-0.7331197702383012,-0.0010011245932162495
21609000000,0.015560627586685404,-0.735566893292732,-0.0010018275803577031
21635000000,0.020239413483554333,-0.7379184186283361,-0.0010018827560669755
21668000000,0.02482428999472378,-0.7402125284429615,-0.0010016173911014982
21702000000,0.029766512510642124,-0.742681248708125,-0.0010014992022822286
21739000000,0.03494528226629534,-0.7452743509529621,-0.001001572146842846
21771000000,0.04046220841214006,-0.7480437958672749,-0.0010016719866332256
21806000000,0.04639986754119106,-0.751010826738854,-0.0010016077483749296
21835000000,0.052298829826530724,-0.7539211053653777,-0.001000823283102529
21868000000,0.05831672918239045,-0.7568415494002149,-0.0010016183256260358
21901000000,0.06415458844366365,-0.7596372197058084,-0.0010021665558896248
21935000000,0.06907603583534482,-0.7619803416081793,-0.0010020935691086065
21968000000,0.07322821115293705,-0.763957438131809,-0.001002012629530074
22003000000,0.07742634033335913,-0.7659622074647972,-0.0010010899209035966
22035000000,0.08208607780890662,-0.768197402411334,-0.0010012314476881869
22068000000,0.08725195239906475,-0.7706992805719741,-0.0010016708479626268
22103000000,0.09297342070109581,-0.7735073919120922,-0.0010015735134746816
22141000000,0.09899171671052745,-0.7765395387999385,-0.0010018289422068088
22181000000,0.10516474384085793,-0.7797828822699215,-0.0010012834409443006
22204000000,0.11144674511062885,-0.7832419438425979,-0.0010013863935891404
22235000000,0.11738825856265699,-0.7866543562536985,-0.0010007821239652326
22268000000,0.12331092367814853,-0.790161448679912,-0.0010018133925950197
22302000000,0.12940065005302093,-0.7938732018478273,-0.0010019424093897084
22335000000,0.13513460833062757,-0.797475693952722,-0.0010020284333803267
22371000000,0.14071883716999692,-0.8010985829090482,-0.001002167190957727
22396000000,0.1460248338627,-0.8046473066111044,-0.0010021956621155438
22442000000,0.15051588373884395,-0.807767317605838,-0.0010022272284934998
22468000000,0.1543134698359409,-0.8105288031137716,-0.001002199584524053
22502000000,0.15748753313105368,-0.81296246663993,-0.0010021042842846169
22540000000,0.15987264055169859,-0.8149013428348605,-0.0010020240819247975
22569000000,0.16177319399783233,-0.816542899030683,-0.0010021077987955387
22602000000,0.1633556393980753,-0.8179837471776483,-0.0010021045726316784
22635000000,0.16454636015387694,-0.8191152111978947,-0.0010021135596946264
22671000000,0.1654129384584163,-0.8199655781331182,-0.0010021196750541438
22702000000,0.16597932436156845,-0.8205341803559276,-0.0010021240496559045
22735000000,0.16622023308541845,-0.8207792325242746,-0.0010021294543899016
22769000000,0.16623200598774718,-0.8207909840434917,-0.001001663435544177
22802000000,0.16623032866957416,-0.8207892446812205,-0.0010016568074320102
22836000000,0.16622870995346056,-0.820787573413436,-0.0010016568188908233
22872000000,0.16622707965164496,-0.8207858909062566,-0.0010016567035389876
22902000000,0.16622538839823184,-0.820784146317459,-0.0010016563622149595
22940000000,0.1662237365644466,-0.8207824430293319,-0.001001656175406384
22970000000,0.1662220752057555,-0.820780730506143,-0.001001656033931056
23003000000,0.1662203541437254,-0.820778957022092,-0.00100165590761319
23034000000,0.16621867519450417,-0.8207772274665315,-0.0010016557945801453
23068000000,0.1662169884170467,-0.8207754903423274,-0.0010016556890563959
23101000000,0.1662152428653991,-0.8207736931820435,-0.0010016555884534775
23135000000,0.16621354171589392,-0.8207719421887197,-0.0010016554998183332
23167000000,0.16621183419414262,-0.8207701850579223,-0.0010016554214976742
23203000000,0.1662100687190404,-0.8207683687045099,-0.0010016553533528233
23241000000,0.16620834955356867,-0.8207666003779538,-0.0010016553006331683
23271000000,0.16620662523032317,-0.8207648271045723,-0.0010016552613488806
23303000000,0.1662048436224317,-0.8207629952789713,-0.001001655233864647
23333000000,0.16620310984717582,-0.8207612129669979,-0.0010016552174136849
23368000000,0.16620137186254408,-0.8207594266398399,-0.0010016552073391707
23402000000,0.1661995770850476,-0.8207575822546828,-0.0010016551988802566
23435000000,0.16619783133519844,-0.8207557885455632,-0.0010016551878765656
23468000000,0.1661960821043593,-0.8207539915384914,-0.0010016551703629743
23501000000,0.16619427644719817,-0.8207521368431343,-0.0010016551433564037
23539000000,0.16591627076524224,-0.8204666158933448,-0.0010023152466466859
23568000000,0.1651215261007997,-0.81964251682939,-0.0010023197690726092
23602000000,0.1638043505127101,-0.8182518313888835,-0.001002308485066234
23635000000,0.16210904030487214,-0.8164136008618149,-0.001002296270928047
23670000000,0.16022138680080467,-0.8142943056563813,-0.0010020052990509995
23702000000,0.15828758684359098,-0.8120441576093737,-0.0010020004321308444
23735000000,0.15643769422748946,-0.8098096885617969,-0.001000916903532198
23768000000,0.15462835045468326,-0.8075378473433474,-0.0010009893517401378
23802000000,0.15269252923601345,-0.8050068440233825,-0.001001346183737789
23835000000,0.15068103656057097,-0.8022553806207191,-0.0010013241468207895
23873000000,0.14856097921247324,-0.799218148837546,-0.0010014031461631594
23908000000,0.14627151706474345,-0.7958121855998811,-0.0010008032142035314
23945000000,0.1438961805343987,-0.7921762820782595,-0.001000955671328175
23973000000,0.1412790902271658,-0.7880953636486039,-0.001001113146116707
24003000000,0.13829870977402026,-0.7833927392398984,-0.0010012843144377587
24032000000,0.1355978214779563,-0.7790683770557989,-0.0010012727588620957
24069000000,0.13331278726322573,-0.77532588700107,-0.001001361171262899
24105000000,0.1312481486983834,-0.7718974368831748,-0.001001399460263553
24144000000,0.12927219121648714,-0.7685992954982672,-0.0010014139876559462
24172000000,0.12730230008287638,-0.7652936816577983,-0.0010014127650278953
24204000000,0.12517529522837698,-0.7616935032082213,-0.0010014572821881972
24244000000,0.12309490327004557,-0.7581207247561124,-0.0010014425655281017
24282000000,0.12103707833439141,-0.7545341277855031,-0.0010014781122483427
24322000000,0.11894059042401085,-0.7508245464883783,-0.00100152757270704
24355000000,0.11707091914392773,-0.74747339009678,-0.0010015546226743548
24377000000,0.1152933980097068,-0.7442740264569653,-0.0010016646352974598
24428000000,0.11334644315223047,-0.7407517623611509,-0.0010021212361858052
24452000000,0.11141671650663346,-0.737195689518252,-0.0010018912203461246
24486000000,0.1096065382180579,-0.7337761392964904,-0.001001277252137587
24510000000,0.10787374822049256,-0.7304458013145037,-0.0010020310970973723
24551000000,0.1062207896108551,-0.7272279612419775,-0.001002012425102436
24583000000,0.10458722489209456,-0.7240110773427015,-0.0010023861468923083
24615000000,0.10293644433229546,-0.7207180763317099,-0.0010020589582123256
24650000000,0.10137859712149737,-0.717561078735785,-0.0010005688443471064
24681000000,0.09980491352328671,-0.7143347388047833,-0.00100065361947271
24704000000,0.0982698704062964,-0.7111445250587,-0.0010020046556600826
24743000000,0.09699270254237272,-0.7084451532866975,-0.001002031014768482
24768000000,0.09597109660017086,-0.7062522164742432,-0.0010020043251268256
24808000000,0.0951846854799691,-0.7045435932925713,-0.0010020092719310314
24845000000,0.09466583845425115,-0.7034088721407143,-0.0010020333304409587
24868000000,0.09436236625872685,-0.7027470017560496,-0.0010021194806875307
24902000000,0.09423341609456556,-0.7024746303116349,-0.0010022940309570502
24935000000,0.09420633586435535,-0.7024337612324929,-0.001001154324272769
24968000000,0.09427447139660991,-0.7025604535881323,-0.0010011668450913003
25002000000,0.09443607372995612,-0.7028811017496052,-0.0010012150106591296
25035000000,0.09466242923614633,-0.7033405654425073,-0.0010005731086442544
25079000000,0.09495762695741117,-0.7039426804694009,-0.0010005440145560776
25109000000,0.09537492928831309,-0.7048020183893191,-0.0010005604233213304
25146000000,0.09592931550360996,-0.7059565109506231,-0.001000583810778638
25174000000,0.0966627712930978,-0.7075066099485261,-0.0010006114145295376
25203000000,0.09756339563065636,-0.7094384512369631,-0.0010010841565809211
25235000000,0.09839323593972601,-0.7112251823887887,-0.001002085069394209
25268000000,0.09891043512689533,-0.7123263317454243,-0.001002399024225796
25302000000,0.09904099844793574,-0.7126044846698868,-0.0010024156318365757
25334000000,0.09912792301216465,-0.7127836124424671,-0.0010009361503939239
25375000000,0.09949746875751754,-0.7135280531851026,-0.0010006469007247283
25411000000,0.10018354357634918,-0.7148894883299003,-0.001000685465181221
25442000000,0.10117117601712951,-0.7168206914921912,-0.0010007409296982905
25472000000,0.10250558161574505,-0.7193899078675747,-0.0010008139848185528
25504000000,0.10423335696083384,-0.7226580374398989,-0.0010011711789387097
25543000000,0.1060116108518388,-0.7259270281249789,-0.0010013389787047154
25581000000,0.10783002311100058,-0.7291473617939738,-0.0010013713538926244
25621000000,0.10975701146562773,-0.7324353127493716,-0.001001391777201089
25653000000,0.1118844145459106,-0.7359329016440092,-0.0010012551223581925
25676000000,0.11444253266936345,-0.7400047724066662,-0.0010014624247239867
25703000000,0.11715617951144729,-0.7442041950394243,-0.0010015691758027655
25741000000,0.11955299316579193,-0.7478173956148163,-0.0010011275625749702
25780000000,0.12160494962481075,-0.7508146990090278,-0.0010010707665849758
25817000000,0.12366946682692437,-0.7537158558335062,-0.0010013101511048318
25844000000,0.12590421969804266,-0.7567784128942031,-0.0010018411934788404
25874000000,0.12823889521432583,-0.7599391965628868,-0.001001276222754456
25910000000,0.13049681488310214,-0.7629637376749364,-0.0010015674067793481
25944000000,0.13239388570006985,-0.7654615251926086,-0.0010015451711712677
25978000000,0.13398306656497413,-0.76750870430715,-0.001001546045369655
26008000000,0.13527615585263505,-0.7691320594684994,-0.0010015713527378803
26040000000,0.1361735487315268,-0.7702263141282776,-0.0010016156742868251
26071000000,0.13671121822633853,-0.7708627996930264,-0.001001713328928882
26103000000,0.1368764986752341,-0.7710576473420504,-0.0010018234880935055
26135000000,0.13663980100576426,-0.7708163326311245,-0.0010019238259984034
26167000000,0.13599434892091333,-0.7701819201925746,-0.001001250831896859
26208000000,0.13486245721945242,-0.7691460850037455,-0.0010011821891306727
26244000000,0.13372246021271528,-0.7681822068117605,-0.001001261473191066
26271000000,0.13285184950523024,-0.7674944425175262,-0.0010012480776979138
26301000000,0.13224343204435787,-0.7670359730623861,-0.0010012625269773187
26335000000,0.13201431795621016,-0.7668694325741978,-0.0010015652514329156
26368000000,0.13222419422390574,-0.7670233568525934,-0.0010014423823711364
26402000000,0.13282798557337802,-0.7674655830398097,-0.0010014438464892618
26435000000,0.1338165183321721,-0.7682039039715634,-0.0010008102236102288
26468000000,0.13523713295889184,-0.7693001690533403,-0.0010009637511369865
26502000000,0.1371256648275756,-0.7708275842219449,-0.0010010983035793723
26534000000,0.13937597378785999,-0.7727568260913129,-0.0010012360718275187
26569000000,0.1420253038073493,-0.7751852053906965,-0.0010014405071550672
26608000000,0.14513206989277702,-0.7782444559271109,-0.0010016069603920284
26640000000,0.14825032480283704,-0.7815322834236345,-0.001000891338410758
26669000000,0.1513182162346864,-0.7849312714363648,-0.001000858882463665
26701000000,0.1542703064939491,-0.7883079415940297,-0.0010009919258307624
26737000000,0.15686036061547853,-0.7913677299131953,-0.0010019650082937585
26771000000,0.1592810051193318,-0.7943539368714554,-0.0010009479642794847
26810000000,0.1614932605794561,-0.7972195212555503,-0.0010020806598359175
26848000000,0.16320107184003527,-0.7995637296561857,-0.0010021937071035235
26869000000,0.1644403184353887,-0.8013835537844088,-0.0010022092921212027
26902000000,0.16524909767414597,-0.8026649632244189,-0.0010022660406777753
26936000000,0.1656118162304865,-0.8032815965578506,-0.001002295420310318
26973000000,0.1656082251785948,-0.803240450254893,-0.0010022872036992668
27010000000,0.16530195756700303,-0.8025076686450617,-0.001002281565858642
27037000000,0.16493547534288308,-0.801523361726767,-0.0010021476622647171
27068000000,0.16462463228773747,-0.8005767783920537,-0.0010020045711135774
27101000000,0.16437708303173434,-0.7997177346480858,-0.0010009074568615786
27135000000,0.16412624182133237,-0.7987252400722035,-0.0010023028683323124
27174000000,0.1638953501839941,-0.7976659951988302,-0.001000960338666361
27210000000,0.16375835180213277,-0.7968881542154361,-0.0010009786497628959
27243000000,0.16364491589458524,-0.7960541197988273,-0.0010023796515183127
27268000000,0.16351367525271224,-0.7948246968222564,-0.0010017197156561436
27302000000,0.16338262742194729,-0.7931975562524844,-0.0010017409244692521
27335000000,0.1632724681772322,-0.7912420909922097,-0.0010018241104833604
27368000000,0.16319259983887346,-0.7888827850582358,-0.0010019127568757329
27410000000,0.16316815740236912,-0.7860051770441498,-0.0010018623838532054
27435000000,0.16322967141750047,-0.782775440359329,-0.0010019016791883856
27469000000,0.16339694586378442,-0.7793639327258136,-0.0010007195782714765
27502000000,0.1636814587151212,-0.7758248017247757,-0.0010008176729967427
27535000000,0.164086954795721,-0.7722089263991107,-0.001000861650856496
27568000000,0.1646263692404767,-0.768448421531074,-0.0010009315133723586
27599000000,0.16528233829426742,-0.7646217515438305,-0.0010010207652385375
27635000000,0.16603118928546864,-0.7607590531779184,-0.0010016387851217064
27670000000,0.16686848585210184,-0.7568887777285218,-0.0010016638387508846
27705000000,0.16781872460847472,-0.7529209763578046,-0.0010016844633405873
27744000000,0.16883228548291587,-0.7490379074393182,-0.0010009532185779255
27785000000,0.1699010469869004,-0.7451694652002115,-0.0010018510015888382
27814000000,0.17106750437527227,-0.7411899266462816,-0.0010017942008811696
27844000000,0.1723072089413013,-0.7371674212886545,-0.0010016997768530905
27880000000,0.17369503214215662,-0.7327586594360844,-0.001001154841921044
27911000000,0.17521174707010354,-0.7279766849553702,-0.0010011790676043818
27936000000,0.17668291694082058,-0.7234102532299571,-0.001001214014527168
27968000000,0.17820664284353027,-0.7188278747458827,-0.0010014081822041117
28008000000,0.17976002837339505,-0.7142766878858857,-0.0010014231513131577
28038000000,0.18121321666853887,-0.7101041896444458,-0.001001364508784481
28068000000,0.18268707415822869,-0.7059974853840087,-0.0010014112762825322
28102000000,0.1842049721333417,-0.7018909289373756,-0.001001425225343272
28135000000,0.1857139615973794,-0.6979226339475314,-0.0010014673399257983
28181000000,0.18725957110501446,-0.6939676944755756,-0.0010015096382153463
28219000000,0.18889017222463506,-0.6899072713115961,-0.001001570093257919
28248000000,0.19049783164752393,-0.6860108775392344,-0.0010016498571641871
28285000000,0.19214201737753256,-0.682130136042772,-0.0010017046811490737
28303000000,0.193874209142159,-0.6781482818223366,-0.0010017811958278194
28335000000,0.195541338971909,-0.6743961601993257,-0.0010011403168643414
28371000000,0.19715932029214284,-0.6707929048628599,-0.0010009518394214698
28404000000,0.19879952876635618,-0.6671885935017975,-0.0010010809187239837
28441000000,0.2003421890325685,-0.663850241555387,-0.0010016191572985757
28469000000,0.20179306645182474,-0.6607389418438417,-0.0010015656620231024
28506000000,0.20317516761915855,-0.6577704231085326,-0.0010015674120078116
28540000000,0.2043965350171502,-0.6551128228998379,-0.00100156960879599
28570000000,0.20551860655551799,-0.6526736809629292,-0.0010015815805310378
28602000000,0.20657917322395467,-0.6503768086443932,-0.0010004316090383054
28634000000,0.2074812124632877,-0.6483830937629305,-0.0010004393738814073
28668000000,0.20822683975186132,-0.6466997809670525,-0.0010004015590192525
28702000000,0.20881357770701242,-0.6453404071884289,-0.001000398070529939
28735000000,0.2091742995247808,-0.6444691118451953,-0.0010004242824470412
28768000000,0.20931421039530274,-0.6441209533174198,-0.0010004476062431544
28804000000,0.20922450116137237,-0.6443646434824611,-0.001000585761248684
28835000000,0.20895000824812904,-0.6451382820522501,-0.001000624398268219
28868000000,0.208502049287897,-0.6464842646413792,-0.001000675878756109
28902000000,0.20787513802897511,-0.648517433505059,-0.0010007402998442536
28935000000,0.2071393716423921,-0.6511213603068361,-0.0010008200384778905
28968000000,0.20632450856298593,-0.6542820332176045,-0.0010014207459471472
29002000000,0.20546225419969244,-0.6579990259504928,-0.0010014401521021947
29035000000,0.20472857485403492,-0.6616274752666971,-0.0010014524737501432
29072000000,0.2041071868111585,-0.6652572238193786,-0.001001507256806814
29104000000,0.20358080730982664,-0.6690146513756556,-0.0010016010528820264
29139000000,0.20315919257687393,-0.6728416104092011,-0.0010014593858336425
29172000000,0.20278245633212,-0.6770745304181748,-0.0010007010564750361
29202000000,0.20245419910364787,-0.6814968853812796,-0.0010010053766857027
29231000000,0.20220581860136683,-0.6858694345924711,-0.0010009997109213173
29272000000,0.20203480355788883,-0.6904592048760136,-0.0010009979307089023
29303000000,0.20196519581545488,-0.6954986399932073,-0.0010010225133188708
29335000000,0.20203859449171188,-0.7009781529855452,-0.0010010081727604633
29368000000,0.2022845076038219,-0.707287844699352,-0.0010011906484950345
29405000000,0.20274070439873515,-0.7144422547720333,-0.0010013877327220734
29440000000,0.20337242983071105,-0.7214429745724538,-0.0010015040927891412
29468000000,0.20418720802617485,-0.7284261881786468,-0.0010016507776095633
29503000000,0.20517871294949988,-0.7353356429448482,-0.0010012642200255585
29535000000,0.206281909277443,-0.7418412933102894,-0.0010019835605869186
29572000000,0.20753649285409007,-0.7482905734587968,-0.0010013421504173718
29601000000,0.2089933393631053,-0.7549169707131695,-0.0010017043458787206
29638000000,0.21054545750390333,-0.7612479934000761,-0.0010008242954541516
29668000000,0.21224143023906478,-0.7675267628118624,-0.001000763006768584
29705000000,0.21410728993778233,-0.773880153812484,-0.0010007801017498721
29735000000,0.21606276086815573,-0.7801384938150345,-0.0010010799016648038
29771000000,0.2181402790825029,-0.7864591987100994,-0.00100139090640166
29808000000,0.2203761073603517,-0.7929401598524249,-0.0010013676821054134
29835000000,0.22252294102265652,-0.7988857429445225,-0.001001368249982499
29868000000,0.22470886075455776,-0.804704595747591,-0.0010014182443634605
29904000000,0.2270953407770203,-0.8108072951011696,-0.001001539485406773
29944000000,0.22966456346544803,-0.817083657547931,-0.0010014890763515721
29969000000,0.23246244479851658,-0.8237082597061874,-0.0010015600626689831
30005000000,0.2353912767692775,-0.8305036730400154,-0.0010016199894336414
30041000000,0.23828914771999107,-0.837083801955229,-0.0010015797412999926
30067000000,0.2412386420645548,-0.8436419204301122,-0.0010016354357426163
30103000000,0.244224954983222,-0.8501396262728558,-0.001001588359589748
30135000000,0.24710418159883976,-0.8562596984945785,-0.0010018239362543369
30169000000,0.25002409820260035,-0.8623550895804256,-0.0010019371113368994
30196000000,0.2529808575920916,-0.8684315946098953,-0.0010020575869917614
30235000000,0.2557580203875386,-0.8740907093326309,-0.001002102565272292
30268000000,0.2584531422311822,-0.879534794881888,-0.0010021315717009364
30302000000,0.26107785042289827,-0.8847606807823709,-0.001002145413654374
30335000000,0.2634818065424123,-0.8894550337730136,-0.0010015905585721609
30368000000,0.2659023853268475,-0.8940945426732564,-0.0010016025780383436
30401000000,0.268352797080927,-0.8987066715292832,-0.0010015935807591303
30439000000,0.2707462471830072,-0.9031366467892861,-0.001001664541643802
30471000000,0.2731668370532355,-0.9075460519632026,-0.001001775544925993
30502000000,0.2755204603417088,-0.9117556783309771,-0.0010018142436613725
30535000000,0.2775322913919083,-0.915239156720895,-0.0010018345104486764
30568000000,0.279242780682624,-0.9180702731179307,-0.0010018505555790293
30602000000,0.2806513277758539,-0.9202755743009174,-0.0010018727805856144
30636000000,0.2817752677765136,-0.9219274189379465,-0.0010018135856315752
30668000000,0.28277052079652687,-0.9233111907749457,-0.0010018182830556811
30703000000,0.2836436708444523,-0.9244700114349815,-0.0010018299145176657
30735000000,0.28432938678636277,-0.925346740027982,-0.0010018444743248728
30768000000,0.2848453061210045,-0.9259881631653067,-0.0010018637522325943
30802000000,0.28519040709790866,-0.9264093554196026,-0.0010018502173714076
30847000000,0.2853399368976885,-0.9265897379443649,-0.0010018575465158136
30868000000,0.2853477987410522,-0.9265988375755827,-0.0010015862072745366
30902000000,0.2853471596304573,-0.9265980488916388,-0.001001554056328277
30935000000,0.2853465579384853,-0.9265973121120914,-0.001001554917816859
30969000000,0.2853459518663196,-0.9265965721307994,-0.0010015558752856125
31002000000,0.28534532354063075,-0.9265958052252347,-0.0010015567637148802
31035000000,0.28534471023758107,-0.9265950567169543,-0.0010015575684663436
31068000000,0.2853440936401565,-0.9265943046410272,-0.0010015583330633543
31102000000,0.28534345470946587,-0.9265935266609847,-0.0010015590068408846
31135000000,0.28534283177121395,-0.9265927675178165,-0.0010015596327622965
31173000000,0.2852108254798232,-0.9264378628665704,-0.001000935722688407
31202000000,0.28470381063911465,-0.9258549343150175,-0.0010021292819205434
31235000000,0.2837028308110157,-0.924732338264866,-0.0010022800901356814
31272000000,0.282191707746547,-0.9231008666453406,-0.0010023485279890623
31304000000,0.28018871601783174,-0.9210412190552746,-0.0010019234044122277
31336000000,0.2781135935176367,-0.919016859037797,-0.0010019800047508902
31368000000,0.2761520719364263,-0.9171934935627543,-0.001001219684886076
31402000000,0.27444081977979257,-0.9156649011849292,-0.0010005439579048904
31438000000,0.2730870405468629,-0.9144912571320479,-0.0010011705808047507
31474000000,0.27204278643468294,-0.9136046789249647,-0.0010011676855086644
31507000000,0.2712893349595893,-0.9129728375315079,-0.0010004522341302419
31542000000,0.2708821280555831,-0.9126343532007318,-0.0010004678688616056
31567000000,0.2707649878121899,-0.9125365456250971,-0.0010012826020576703
31603000000,0.2707412582029413,-0.9125167221331196,-0.0010017187505305045
31635000000,0.27073933179050613,-0.9125151030830377,-0.0010017569419976807
31667000000,0.27084725298492857,-0.9126033782050614,-0.0010005395349671486
31702000000,0.27119158906547136,-0.9128881813376846,-0.0010005774349864487
31740000000,0.2716715557219092,-0.9132930028295319,-0.00100117116276114
31770000000,0.2720253886854026,-0.9135958359096727,-0.0010017310525528914
31802000000,0.2720120820756482,-0.913588034874388,-0.0010025136817990062
31835000000,0.2719669211707378,-0.9135496797984362,-0.001000937770363794
31868000000,0.2721888128912175,-0.9137355403471126,-0.00100057178750676
31902000000,0.272711784446333,-0.9141753691424735,-0.0010005963148383631
31938000000,0.27354445626419266,-0.9148829756223849,-0.0010006234925290201
31968000000,0.27474475068195786,-0.9159193079866611,-0.0010006735075003131
32006000000,0.2764166240590322,-0.9173946237421827,-0.0010007395025888252
32034000000,0.2784991480603069,-0.9192814309793748,-0.0010008159028416092
32068000000,0.28067272733799964,-0.9213008119005942,-0.0010019853400303202
32102000000,0.2823225487349746,-0.9228452991581534,-0.0010021392257482664
32137000000,0.2831598980842235,-0.9236304067107896,-0.0010021367105691598
32169000000,0.28324665908594676,-0.9237124069854818,-0.0010021401211329876
32203000000,0.28258089621140026,-0.9230918857629478,-0.0010021925159258045
32234000000,0.28122071415069944,-0.921829853386741,-0.0010022691172598963
32266000000,0.27918140202472236,-0.9199525109842437,-0.0010023480683133863
32302000000,0.2764724111058438,-0.9174859360241031,-0.0010019521400820644
32335000000,0.27357747875389127,-0.9148706322009267,-0.0010019547045637157
32369000000,0.2708571856896191,-0.9124143335914455,-0.0010004417939845668
32402000000,0.26855894421024445,-0.9103306638906604,-0.0010004524197000514
32435000000,0.2667863716105179,-0.9087104671843956,-0.0010004671722909989
32469000000,0.2652493576227682,-0.9072933568863623,-0.0010011895425985802
32502000000,0.2635698118281334,-0.905742433945419,-0.0010024749770420928
32535000000,0.26168779089424155,-0.9040096962823029,-0.0010024758372272555
32568000000,0.2596397316428524,-0.9021451924182157,-0.001001757305778929
32602000000,0.2574164861278271,-0.9001570814696384,-0.0010015374665745987
32635000000,0.25518953652086307,-0.8982033169530327,-0.0010017596004188237
32667000000,0.25288601945173644,-0.8962156771301908,-0.0010006379386429468
32702000000,0.2503835936753241,-0.8940884126462635,-0.001000748130734256
32735000000,0.24772776780522343,-0.8918540795521049,-0.0010008307494470368
32768000000,0.2451091354191616,-0.8896664474181483,-0.0010017993898798865
32803000000,0.24248507961707946,-0.8874807346600387,-0.00100114062269065
32835000000,0.2396602544006519,-0.8851526726358437,-0.0010012196226095206
32868000000,0.23658282608539175,-0.8826501445756695,-0.0010014568495086348
32902000000,0.23289639354766642,-0.8796690834756251,-0.0010014138096101563
32935000000,0.22931511031875307,-0.8767837246595502,-0.0010013800032348044
32968000000,0.2260768607369348,-0.8741915106390302,-0.0010012079782940574
33002000000,0.22301511830777437,-0.8717886190318863,-0.0010014073409113956
33035000000,0.2197732690931676,-0.8692978675921639,-0.0010013116534075758
33071000000,0.21638513153898295,-0.8667300225242798,-0.0010014236796612695
33102000000,0.2128770011956237,-0.8641061348485152,-0.001001455285887437
33135000000,0.20982318810024916,-0.8618511388502867,-0.001000877091265416
33168000000,0.2074230281681779,-0.8600933698971891,-0.0010005463901546705
33202000000,0.20573506705525965,-0.8588675343993117,-0.0010005299904692032
33235000000,0.20484667515645613,-0.8582292503982575,-0.001000520393476971
33268000000,0.20406553561193058,-0.8576749263628596,-0.0010018004058451949
33302000000,0.2026958562678475,-0.8567042757233096,-0.0010023880347562984
33336000000,0.20068488689104277,-0.85527981275392,-0.0010024398453066415
33368000000,0.19806800584494333,-0.8534254850382429,-0.001002486926597334
33402000000,0.1948436441568588,-0.8511368629115724,-0.0010025137369332054
33435000000,0.1913673923420777,-0.8486610865567458,-0.0010022347705656194
33468000000,0.1877143270778069,-0.8460535009700612,-0.0010024223832325492
33502000000,0.18386274729868235,-0.8432927553722747,-0.0010013293051674733
33538000000,0.1802174578003657,-0.8406672061993832,-0.001001555907855757
33574000000,0.17677333451605315,-0.8381697607780637,-0.0010022412353897399
33608000000,0.17347887909502965,-0.8357568900819392,-0.0010022097727174113
33643000000,0.170561335165419,-0.8335921409126386,-0.0010022074112159204
33675000000,0.16793111199660168,-0.8316023245591944,-0.001002184930247979
33706000000,0.16549479747929607,-0.8297169241814237,-0.0010019498940584265
33735000000,0.16319632901096665,-0.8279078141669136,-0.0010009217478989703
33773000000,0.16073826781775866,-0.8259598022906648,-0.001000848390757203
33802000000,0.15785339959081723,-0.8236718094886505,-0.00100100036411584
33848000000,0.15461177826457606,-0.8211120303627916,-0.0010013223763778271
33885000000,0.15156231852078128,-0.8187147259693215,-0.0010015072907149543
33908000000,0.1492190438233994,-0.8168769171211004,-0.0010014324343971572
33941000000,0.14774896387492945,-0.8157250461353258,-0.0010013909530313427
33968000000,0.14632730913746397,-0.8146108841712354,-0.001001411187828493
34002000000,0.14415722832267894,-0.8129150957842589,-0.0010015038641993101
34035000000,0.14131153089780765,-0.8107033540314267,-0.0010016526310526082
34072000000,0.13770755203404367,-0.807923872176632,-0.0010017605645558404
34103000000,0.13345851362171365,-0.8046949461775869,-0.0010014505870933471
34138000000,0.12924689861344296,-0.8015609433247574,-0.0010014799045116457
34167000000,0.12542939714643894,-0.7987798130086836,-0.0010007144847229248
34203000000,0.1222970845458145,-0.7965545775305991,-0.001000775026922536
34238000000,0.120008330125918,-0.7949748545446035,-0.001000621488496202
34268000000,0.11846649291397432,-0.7939438002479604,-0.0010006152070377652
34303000000,0.11747078475128821,-0.7933009060987523,-0.0010007905669356387
34335000000,0.1169557643680412,-0.7929757320471854,-0.001000792531177925
34374000000,0.11627281927457812,-0.7925490377158231,-0.0010017135533990293
34414000000,0.11486603840528374,-0.791670156913607,-0.001002318032609497
34444000000,0.11285145416509079,-0.79041129822919,-0.0010021323166930982
34480000000,0.11065308164735707,-0.7890304937384108,-0.0010006491406298126
34509000000,0.10822223340412442,-0.7874789135193268,-0.001002120168649083
34540000000,0.10565229581366992,-0.7858121352470288,-0.0010020979088982938
34569000000,0.1028336792389574,-0.7839613357946726,-0.0010024031635620621
34604000000,0.09977574290455742,-0.7819151740247453,-0.0010011322001041573
34637000000,0.09683459176401817,-0.7799074232845875,-0.0010010598207862119
34668000000,0.09403797571101882,-0.7779650758948203,-0.0010020700487862397
34700000000,0.0913044096613461,-0.776025106263085,-0.0010022776661414365
34735000000,0.08868135850195717,-0.7741042433969633,-0.0010013212083590795
34768000000,0.08597268151215742,-0.7720763285332318,-0.0010007053541190164
34802000000,0.08299694978648053,-0.7698141093233348,-0.0010008083994377977
34835000000,0.07981860378334586,-0.7673750290911282,-0.0010009270845873844
34872000000,0.07669263171352257,-0.764960309243937,-0.0010016717417053872
34905000000,0.07353212428383729,-0.762482462293549,-0.0010015320668141613
34935000000,0.07035265278111834,-0.7599677388576055,-0.001001518348575963
34967000000,0.06730271999520565,-0.7575218522372917,-0.0010012293998217896
35002000000,0.06391453430676652,-0.7547108787515636,-0.0010014386456943629
35040000000,0.060034055980948506,-0.7513801436081491,-0.0010015518087674105
35073000000,0.05639847778181766,-0.7481793802282809,-0.0010010806295294578
35103000000,0.05286248152713206,-0.7449916817862539,-0.0010014421189678234
35135000000,0.04938705244190538,-0.7418016345964344,-0.0010014059080259222
35173000000,0.04633184302168409,-0.7389475848785726,-0.0010006470279741789
35202000000,0.04356590814744039,-0.7363252304671917,-0.0010014878724816656
35235000000,0.040893842877775415,-0.7337685681560775,-0.001001521769412251
35273000000,0.03823864952501691,-0.7311930915936233,-0.0010019119622626076
35305000000,0.035290526337813856,-0.7282768520173787,-0.0010022385163696544
35342000000,0.032087384684698336,-0.7250824766767748,-0.0010023028532288418
35377000000,0.02883999317553178,-0.7218339900497734,-0.0010011575108421107
35403000000,0.02575627336692602,-0.71870577711445,-0.00100120909903453
35435000000,0.022789079813472876,-0.7156359424864777,-0.001001775794314718
35468000000,0.019646771392047235,-0.7123362676667848,-0.0010018329815755962
35504000000,0.016402346585166778,-0.708893203803187,-0.0010021960222325495
35536000000,0.013395557518217704,-0.7057026525123523,-0.0010020086443430984
35570000000,0.010332052842012645,-0.70245872846331,-0.0010018602249766
35602000000,0.00734119853370719,-0.6992804258907297,-0.0010018992419164909
35635000000,0.004696832396984381,-0.6964751193102793,-0.001001653821649219
35671000000,0.0020657081213856436,-0.6936990008138251,-0.001001640793091247
35702000000,-0.0006635459091358909,-0.6908436410858746,-0.0010016298542902084
35735000000,-0.003324310737774723,-0.6880834072717211,-0.0010015848631137955
35769000000,-0.006066845214384255,-0.685273074824504,-0.0010012784478205528
35803000000,-0.009174149407875138,-0.6821603902503559,-0.0010015062356638245
35834000000,-0.012253885008345681,-0.6791558869863983,-0.0010014794288654809
35868000000,-0.015133717009140405,-0.6764240292089011,-0.0010015408052776766
35904000000,-0.01803871406126334,-0.6737655359454248,-0.0010014565023035542
35937000000,-0.020904923331917465,-0.671236106533928,-0.0010014667447401926
35978000000,-0.023719818101459025,-0.668823817471622,-0.0010013617187917302
36010000000,-0.02639752586901492,-0.6665307788816368,-0.0010010205722322425
36044000000,-0.028403856249154452,-0.6647769333584281,-0.0010005954095445996
36072000000,-0.030297256462131023,-0.6630797593717471,-0.0010014133143812776
36102000000,-0.03255991495444034,-0.6610067857978539,-0.0010021161000486542
36139000000,-0.03517451532202422,-0.6585872702665844,-0.0010022386322102797
36170000000,-0.0378481977791578,-0.6561010046322127,-0.0010012049235417035
36202000000,-0.040301801954665185,-0.6537740401714403,-0.0010011704956625796
36235000000,-0.042651463265314576,-0.6514793426327191,-0.0010016806880589618
36268000000,-0.04523492652507898,-0.6489052550577338,-0.0010017766789973646
36302000000,-0.04815986373888843,-0.6459557595882026,-0.0010018570301344835
36335000000,-0.051224892535118145,-0.6428364820408831,-0.0010016560332557142
36366000000,-0.05438438708638626,-0.6395726481772904,-0.001002051962405489
36402000000,-0.05770261721704465,-0.6360604074578408,-0.0010018001136796496
36435000000,-0.060859731094654056,-0.6326309444067553,-0.001001902291263266
36468000000,-0.06402234001614747,-0.6290940883526485,-0.0010018873272489223
36505000000,-0.06718646808514574,-0.6254260814027629,-0.0010008843344210885
36534000000,-0.07026691094558474,-0.6217349316214867,-0.0010009600346507844
36568000000,-0.07309456218524789,-0.6182521714932693,-0.001001821651542726
36601000000,-0.07550890524142112,-0.6152027383114665,-0.0010014904554561943
36634000000,-0.07777766730525329,-0.6122769570560098,-0.0010016165825183256
36668000000,-0.08019288412966241,-0.6091033581077132,-0.0010017981624136155
36702000000,-0.0827435312838784,-0.6056625205522165,-0.0010015969218050216
36736000000,-0.08517465801726642,-0.602290410518088,-0.0010016115974926278
36768000000,-0.08758673916622267,-0.5988629453421375,-0.0010010793659242859
36802000000,-0.09006957289400394,-0.5952911636844672,-0.0010017744412201685
36835000000,-0.09264633447641714,-0.5915696173927082,-0.001001914630271529
36871000000,-0.09554023186446209,-0.5874335921099783,-0.0010013773213497328
36906000000,-0.09878656435131387,-0.5829076027572033,-0.001001220341187735
36936000000,-0.10206755668991327,-0.5784464167970602,-0.0010012835157846567
36968000000,-0.10550369870351116,-0.5738621830087479,-0.0010013811686255987
37002000000,-0.10941292878206185,-0.5687200777824786,-0.0010020070141741576
37035000000,-0.11370198620562535,-0.5631579275776324,-0.0010019155455843164
37066000000,-0.11820209858652224,-0.5573702003298713,-0.0010007989364672204
37102000000,-0.12275899294685926,-0.551478333997055,-0.0010019944366326805
37135000000,-0.12714427449245877,-0.5457500161748631,-0.0010019363150277072
37168000000,-0.13153026248606714,-0.5399443832421233,-0.001001866274365413
37202000000,-0.1359300440097525,-0.5339847736545378,-0.0010013379524121055
37235000000,-0.14009651720715569,-0.5281834313136229,-0.0010016735260451048
37266000000,-0.14419371926937363,-0.522325169798923,-0.0010017133294069856
37303000000,-0.14834172934561274,-0.5162384580050666,-0.0010017970944611113
37335000000,-0.15228220370345197,-0.5103047930727387,-0.0010011544738003086
37372000000,-0.15616825419088315,-0.5043039551695941,-0.0010014837153843915
37402000000,-0.16009984811236494,-0.4980720713397704,-0.0010014269504404379
37437000000,-0.1638445201876806,-0.49197766113943836,-0.001001383600770251
37468000000,-0.16725349065784273,-0.4862812753007799,-0.0010014863593132244
37502000000,-0.17071504802441187,-0.4803486514909664,-0.0010019395566940523
37539000000,-0.17429754414996837,-0.47413330871158144,-0.001001589760305198
37573000000,-0.17785300661481282,-0.4678945105124111,-0.001000781369450622
37603000000,-0.18142661684904673,-0.4614563161102355,-0.0010016432334589466
37635000000,-0.1848285893514167,-0.45515574482330123,-0.0010018081954525117
37668000000,-0.18804712404578386,-0.44903519384364454,-0.0010009111894018312
37702000000,-0.1912303318429249,-0.4428323010061178,-0.001000984064251552
