%time,field.x,field.y,field.z
1659367488930408477,-0.037344347685575485,3.6567635536193848,0.0
1659367488964277982,-0.037366047501564026,3.656750440597534,0.0
1659367489014898061,-0.037344347685575485,3.6567635536193848,0.0
1659367489066904306,-0.037366047501564026,3.656750440597534,0.0
1659367489119162321,-0.037366047501564026,3.656750440597534,0.0
1659367489143255710,-0.037344347685575485,3.6567635536193848,0.0
1659367489193720817,-0.037344347685575485,3.6567635536193848,0.0
1659367489234208583,-0.037344347685575485,3.6567635536193848,0.0
1659367489286138057,-0.037366047501564026,3.656750440597534,0.0
1659367489342865228,-0.037366047501564026,3.656750440597534,0.0
1659367489393162965,-0.037366047501564026,3.656750440597534,0.0
1659367489417339801,-0.037366047501564026,3.656750440597534,0.0
1659367489472294807,-0.037344347685575485,3.6567635536193848,0.0
1659367489501603841,-0.037366047501564026,3.656750440597534,0.0
1659367489555885076,-0.037366047501564026,3.656750440597534,0.0
1659367489602179050,-0.037366047501564026,3.656750440597534,0.0
1659367489659740924,-0.037344347685575485,3.6567635536193848,0.0
1659367489702585697,-0.037344347685575485,3.6567635536193848,0.0
1659367489750696420,-0.037366047501564026,3.656750440597534,0.0
1659367489794352531,-0.037344347685575485,3.6567635536193848,0.0
1659367489843328475,-0.037344347685575485,3.6567635536193848,0.0
1659367489890197277,-0.037366047501564026,3.656750440597534,0.0
1659367489934298515,-0.037344347685575485,3.6567635536193848,0.0
1659367489978481292,-0.037366047501564026,3.656750440597534,0.0
1659367490022984266,-0.037366047501564026,3.656750440597534,0.0
1659367490066403865,-0.037366047501564026,3.656750440597534,0.0
1659367490110611677,-0.037344347685575485,3.6567635536193848,0.0
1659367490154484748,-0.037366047501564026,3.656750440597534,0.0
1659367490198592185,-0.037366047501564026,3.656750440597534,0.0
1659367490242717027,-0.037366047501564026,3.656750440597534,0.0
1659367490295284509,-0.037366047501564026,3.656750440597534,0.0
1659367490295398473,-0.037344347685575485,3.6567635536193848,0.0
1659367490340904951,-0.037366047501564026,3.656750440597534,0.0
1659367490365739822,-0.037366047501564026,3.656750440597534,0.0
1659367490415397405,-0.037366047501564026,3.656750440597534,0.0
1659367490465886831,-0.037366047501564026,3.656750440597534,0.0
1659367490515583753,-0.037366047501564026,3.656750440597534,0.0
1659367490558118581,-0.037344347685575485,3.6567635536193848,0.0
1659367490602517366,-0.037344347685575485,3.6567635536193848,0.0
1659367490650855541,-0.037366047501564026,3.656750440597534,0.0
1659367490698862552,-0.037366047501564026,3.656750440597534,0.0
1659367490746438741,-0.037366047501564026,3.656750440597534,0.0
1659367490794052600,-0.037344347685575485,3.6567635536193848,0.0
1659367490842944622,-0.037344347685575485,3.6567635536193848,0.0
1659367490895638227,-0.037344347685575485,3.6567635536193848,0.0
1659367490938312292,-0.037366047501564026,3.656750440597534,0.0
1659367490982318639,-0.037344347685575485,3.6567635536193848,0.0
1659367491030028820,-0.037344347685575485,3.6567635536193848,0.0
1659367491074742794,-0.03717077895998955,3.656867742538452,0.0
1659367491118959426,-0.0344633050262928,3.6585047245025635,0.0
1659367491168389081,-0.03199851140379906,3.6600048542022705,0.0
1659367491214272975,-0.027546420693397522,3.6627185344696045,0.0
1659367491261697053,-0.02415272407233715,3.664785861968994,0.0
1659367491310359477,-0.016975363716483116,3.669156074523926,0.0
1659367491355321645,-0.012816431932151318,3.6716699600219727,0.0
1659367491398755311,-0.006992036011070013,3.6751468181610107,0.0
1659367491442254304,-0.002804381772875786,3.6776621341705322,0.0
1659367491486528158,0.0030846004374325275,3.6812281608581543,0.0
1659367491530367851,0.007312919944524765,3.683773994445801,0.0
1659367491574574708,0.014417837373912334,3.688068389892578,0.0
1659367491619261264,0.01847725361585617,3.6905510425567627,0.0
1659367491662110567,0.024941787123680115,3.6945343017578125,0.0
1659367491706850767,0.02877276949584484,3.6969051361083984,0.0
1659367491750043392,0.03663923591375351,3.7016520500183105,0.0
1659367491796642303,0.04058641567826271,3.703977346420288,0.0
1659367491842244386,0.04659236595034599,3.707545042037964,0.0
1659367491887369871,0.04997934401035309,3.7095744609832764,0.0
1659367491930066108,0.05517444387078285,3.7126736640930176,0.0
1659367491975228071,0.05876699835062027,3.7148032188415527,0.0
1659367492018221616,0.06349845230579376,3.717642068862915,0.0
1659367492066100120,0.0670894905924797,3.7198233604431152,0.0
1659367492113095760,0.0731470063328743,3.72355055809021,0.0
1659367492158401489,0.07651634514331818,3.7256572246551514,0.0
1659367492202361345,0.08219476044178009,3.7292745113372803,0.0
1659367492250301599,0.08603432029485703,3.731773614883423,0.0
1659367492298116445,0.093498595058918,3.7367300987243652,0.0
1659367492342886209,0.09733811765909195,3.739320993423462,0.0
1659367492342971563,0.10297638922929764,3.74318265914917,0.0
1659367492390828609,0.10604644566774368,3.7453291416168213,0.0
1659367492439594507,0.11216157674789429,3.7497875690460205,0.0
1659367492491428613,0.11508138477802277,3.7520110607147217,0.0
1659367492538152694,0.11964504420757294,3.755584239959717,0.0
1659367492586122989,0.12252888828516006,3.757894992828369,0.0
1659367492630371570,0.1284908801317215,3.762838840484619,0.0
1659367492678064107,0.1309993714094162,3.7650070190429688,0.0
1659367492722261667,0.13247081637382507,3.7663233280181885,0.0
1659367492767976760,0.1317819356918335,3.765688896179199,0.0
1659367492809707164,0.12941062450408936,3.763444423675537,0.0
1659367492854257583,0.12734021246433258,3.76143479347229,0.0
1659367492908767938,0.12349510192871094,3.7575840950012207,0.0
1659367492954670667,0.12098897993564606,3.7549726963043213,0.0
1659367492954837799,0.11705361306667328,3.750682830810547,0.0
1659367493001508951,0.11458614468574524,3.747864246368408,0.0
1659367493059350013,0.10875193029642105,3.7407338619232178,0.0
1659367493108849763,0.10633932054042816,3.7375762462615967,0.0
1659367493164813041,0.10151216387748718,3.7308220863342285,0.0
1659367493215504407,0.09932868927717209,3.727532386779785,0.0
1659367493258583784,0.0960618406534195,3.7222914695739746,0.0
1659367493306558609,0.09416929632425308,3.7190587520599365,0.0
1659367493351256132,0.09218984097242355,3.715467929840088,0.0
1659367493394303560,0.08979815244674683,3.710749626159668,0.0
1659367493446482181,0.08822982013225555,3.7074036598205566,0.0
1659367493490590572,0.08584312349557877,3.7017626762390137,0.0
1659367493538813114,0.08449149876832962,3.698187828063965,0.0
1659367493538941144,0.08240305632352829,3.6919472217559814,0.0
1659367493587887287,0.08124388009309769,3.688014268875122,0.0
1659367493637512922,0.0792834684252739,3.6803383827209473,0.0
1659367493688034296,0.07836052030324936,3.676058053970337,0.0
1659367493734204769,0.07711335271596909,3.669158697128296,0.0
1659367493782093524,0.07642938196659088,3.6645519733428955,0.0
1659367493830405712,0.07551100105047226,3.6566321849823,0.0
1659367493943097352,0.0751635953783989,3.652495861053467,0.0
1659367493943190813,0.07474629580974579,3.6448888778686523,0.0
1659367493948303937,0.07461853325366974,3.6400561332702637,0.0
1659367493982535600,0.0746198296546936,3.629349708557129,0.0
1659367494033704042,0.07474391162395477,3.6240358352661133,0.0
1659367494090717792,0.07495994120836258,3.6181423664093018,0.0
1659367494134817361,0.07538441568613052,3.610459566116333,0.0
1659367494178088665,0.07578644901514053,3.6048550605773926,0.0
1659367494223358392,0.07664133608341217,3.595224142074585,0.0
1659367494266165733,0.0771939605474472,3.589937686920166,0.0
1659367494310926437,0.07844298332929611,3.579941749572754,0.0
1659367494355017185,0.07927405089139938,3.5743589401245117,0.0
1659367494398501396,0.08067353814840317,3.5659191608428955,0.0
1659367494446213722,0.08171948045492172,3.560166597366333,0.0
1659367494494423151,0.08435607701539993,3.547297716140747,0.0
1659367494542609930,0.08567576855421066,3.5414459705352783,0.0
1659367494589686155,0.08709458261728287,3.535409450531006,0.0
1659367494635608434,0.08916025608778,3.5271337032318115,0.0
1659367494679722070,0.09077779948711395,3.5210423469543457,0.0
1659367494726275920,0.09382961690425873,3.5102005004882812,0.0
1659367494770423889,0.0955330953001976,3.504422426223755,0.0
1659367494818564891,0.09840787202119827,3.4950320720672607,0.0
1659367494862603664,0.10034381598234177,3.488954782485962,0.0
1659367494954148769,0.10442443937063217,3.4764950275421143,0.0
1659367494954306364,0.10643529891967773,3.4705488681793213,0.0
1659367495002418279,0.10939622670412064,3.4621458053588867,0.0
1659367495016654729,0.11144956201314926,3.4565365314483643,0.0
1659367495073398113,0.11640100926160812,3.443471908569336,0.0
1659367495123291254,0.11859130859375,3.437833070755005,0.0
1659367495179657220,0.1208592876791954,3.4321160316467285,0.0
1659367495222284793,0.12386925518512726,3.424760580062866,0.0
1659367495271409034,0.12636378407478333,3.418835401535034,0.0
1659367495314493894,0.13049156963825226,3.409452438354492,0.0
1659367495358401775,0.13300643861293793,3.4039785861968994,0.0
1659367495402381420,0.13782727718353271,3.393855333328247,0.0
1659367495450278759,0.14028239250183105,3.388857364654541,0.0
1659367495498582601,0.1441589742898941,3.38114595413208,0.0
1659367495542274713,0.14694806933403015,3.3757495880126953,0.0
1659367495593878030,0.1513042449951172,3.367602586746216,0.0
1659367495638427972,0.1543973684310913,3.3620245456695557,0.0
1659367495681969165,0.15999354422092438,3.3521625995635986,0.0
1659367495726922512,0.1632349193096161,3.346522808074951,0.0
1659367495727044343,0.16769149899482727,3.3389840126037598,0.0
1659367495776323318,0.1709330528974533,3.3337273597717285,0.0
1659367495813458919,0.17700514197349548,3.324603796005249,0.0
1659367495872242927,0.1807243674993515,3.3193600177764893,0.0
1659367495918528318,0.18702346086502075,3.310546636581421,0.0
1659367495966286182,0.19065117835998535,3.3054862022399902,0.0
1659367496010200500,0.1977369636297226,3.295804977416992,0.0
1659367496054953575,0.20133760571479797,3.2910072803497314,0.0
1659367496098279953,0.20741188526153564,3.283066511154175,0.0
1659367496142475366,0.21116694808006287,3.2782273292541504,0.0
1659367496186578273,0.21737319231033325,3.2702603340148926,0.0
1659367496234511613,0.22139354050159454,3.2651145458221436,0.0
1659367496281512260,0.22998908162117004,3.2541964054107666,0.0
1659367496327316045,0.23393340408802032,3.249216079711914,0.0
1659367496371532917,0.23833714425563812,3.2436633110046387,0.0
1659367496419067859,0.24407239258289337,3.236453056335449,0.0
1659367496466434240,0.24809613823890686,3.2314066886901855,0.0
1659367496466598749,0.25476935505867004,3.223066806793213,0.0
1659367496510619401,0.25867295265197754,3.2182159423828125,0.0
1659367496549796342,0.26638153195381165,3.2087602615356445,0.0
1659367496599037647,0.2704964280128479,3.2037878036499023,0.0
1659367496648986577,0.27748534083366394,3.1954116821289062,0.0
1659367496700211524,0.2815956175327301,3.1905012130737305,0.0
1659367496746384859,0.28797364234924316,3.182835102081299,0.0
1659367496790172815,0.29199063777923584,3.177978754043579,0.0
1659367496841758966,0.2994954586029053,3.168978214263916,0.0
1659367496890009403,0.30373895168304443,3.1639482975006104,0.0
1659367496938208818,0.3111996352672577,3.1552085876464844,0.0
1659367496982892990,0.31548553705215454,3.150214910507202,0.0
1659367497030376195,0.32348352670669556,3.140902280807495,0.0
1659367497075195312,0.32758986949920654,3.1361546516418457,0.0
1659367497075299263,0.33394429087638855,3.1289010047912598,0.0
1659367497122976064,0.3381916582584381,3.1241087913513184,0.0
1659367497172491550,0.3459589183330536,3.1153676509857178,0.0
1659367497222610235,0.35012438893318176,3.1106719970703125,0.0
1659367497271599054,0.3563407361507416,3.103667736053467,0.0
1659367497318270683,0.36058345437049866,3.098905086517334,0.0
1659367497362374544,0.36862972378730774,3.0900402069091797,0.0
1659367497406464338,0.37286898493766785,3.085479736328125,0.0
1659367497451992750,0.3775383234024048,3.0804898738861084,0.0
1659367497494379520,0.38358572125434875,3.0740511417388916,0.0
1659367497543394804,0.3879677355289459,3.0694165229797363,0.0
1659367497543534040,0.3954163193702698,3.0616555213928223,0.0
1659367497587593317,0.3998599946498871,3.057079792022705,0.0
1659367497632642507,0.4074751138687134,3.0491981506347656,0.0
1659367497682717323,0.41220131516456604,3.044262170791626,0.0
1659367497726368427,0.41893598437309265,3.037149429321289,0.0
1659367497774184942,0.42328688502311707,3.032520294189453,0.0
1659367497818331241,0.4316255450248718,3.0236151218414307,0.0
1659367497861910820,0.4359358549118042,3.0189826488494873,0.0
1659367497907180786,0.4439757466316223,3.010249137878418,0.0
1659367497954580307,0.4480476975440979,3.0057756900787354,0.0
1659367498002310752,0.45443665981292725,2.9987223148345947,0.0
1659367498046693325,0.458831250667572,2.9938580989837646,0.0
1659367498094314813,0.4679584503173828,2.9835827350616455,0.0
1659367498144832849,0.472332626581192,2.978564977645874,0.0
1659367498194664716,0.47682303190231323,2.9733798503875732,0.0
1659367498238337278,0.48260000348091125,2.966630458831787,0.0
1659367498282269716,0.487038254737854,2.961367607116699,0.0
1659367498326138019,0.49501752853393555,2.9518070220947266,0.0
1659367498370955467,0.4991438388824463,2.9468111991882324,0.0
1659367498418434381,0.5049425959587097,2.9396519660949707,0.0
1659367498464023828,0.5090150833129883,2.9345149993896484,0.0
1659367498513706445,0.5175208449363708,2.9236552715301514,0.0
1659367498558235645,0.5215355753898621,2.9185049533843994,0.0
1659367498605684757,0.5254684686660767,2.913419246673584,0.0
1659367498653735160,0.5305454730987549,2.906754970550537,0.0
1659367498726997137,0.5342733263969421,2.901799440383911,0.0
1659367498727106332,0.540553867816925,2.8932855129241943,0.0
1659367498769753932,0.5443212985992432,2.888045072555542,0.0
1659367498799615144,0.5479780435562134,2.882880926132202,0.0
1659367498842218160,0.5523592233657837,2.876617193222046,0.0
1659367498886854887,0.5560429692268372,2.871286630630493,0.0
1659367498934185504,0.5620124936103821,2.862521171569824,0.0
1659367498978381872,0.5655959844589233,2.8571531772613525,0.0
1659367499026520013,0.5691678524017334,2.8517470359802246,0.0
1659367499070469141,0.5739452242851257,2.844467878341675,0.0
1659367499114428997,0.5771909356117249,2.8394532203674316,0.0
1659367499114555597,0.5826588869094849,2.830782413482666,0.0
1659367499161265373,0.585995078086853,2.8253462314605713,0.0
1659367499208240747,0.5931612253189087,2.8132641315460205,0.0
1659367499259794712,0.5964056849479675,2.8075969219207764,0.0
1659367499316921949,0.5994521379470825,2.8021957874298096,0.0
1659367499366240978,0.6038990616798401,2.794184923171997,0.0
1659367499410570144,0.6069493293762207,2.788583278656006,0.0
1659367499454468965,0.61175537109375,2.7795002460479736,0.0
1659367499502206563,0.6147154569625854,2.7737364768981934,0.0
1659367499546284198,0.6175876259803772,2.7680413722991943,0.0
1659367499590324640,0.6216674447059631,2.7597243785858154,0.0
1659367499635607481,0.6243250966072083,2.7541496753692627,0.0
1659367499635805368,0.6290193200111389,2.7440786361694336,0.0
1659367499679970026,0.6314266920089722,2.7388339042663574,0.0
1659367499725245237,0.6359607577323914,2.7287728786468506,0.0
1659367499776270866,0.6383201479911804,2.7234232425689697,0.0
1659367499822299957,0.6420080065727234,2.7148425579071045,0.0
1659367499867812395,0.6442849636077881,2.709402561187744,0.0
1659367499915912628,0.6493244171142578,2.6970250606536865,0.0
1659367499966529130,0.6515594124794006,2.6913766860961914,0.0
1659367500010492324,0.6550784111022949,2.6822354793548584,0.0
1659367500054428339,0.6571950912475586,2.6765687465667725,0.0
1659367500102367401,0.6602843999862671,2.6681313514709473,0.0
1659367500145889043,0.6623048186302185,2.6625101566314697,0.0
1659367500190501451,0.6660723686218262,2.651761531829834,0.0
1659367500233981609,0.668048083782196,2.645963668823242,0.0
1659367500278403520,0.670771062374115,2.6377201080322266,0.0
1659367500326292276,0.6726198792457581,2.6319336891174316,0.0
1659367500374379873,0.6754571199417114,2.6228232383728027,0.0
1659367500418534517,0.6773592233657837,2.616602659225464,0.0
1659367500466786623,0.6792692542076111,2.6102523803710938,0.0
1659367500467036008,0.6819514632225037,2.6009631156921387,0.0
1659367500514790773,0.6836670637130737,2.5947673320770264,0.0
1659367500542782545,0.6867616772651672,2.583517074584961,0.0
1659367500591274261,0.6885299682617188,2.577073335647583,0.0
1659367500648880243,0.6901913285255432,2.5709152221679688,0.0
1659367500694290637,0.6925060153007507,2.562154531478882,0.0
1659367500742202281,0.6940031051635742,2.5563719272613525,0.0
1659367500790422677,0.6969972252845764,2.544388771057129,0.0
1659367500834257841,0.6984672546386719,2.5382602214813232,0.0
1659367500879220724,0.7007883191108704,2.5283796787261963,0.0
1659367500926163911,0.7023128867149353,2.52184796333313,0.0
1659367500970387220,0.7050560116767883,2.5097787380218506,0.0
1659367501021131992,0.7064492106437683,2.503398895263672,0.0
1659367501070436716,0.708993136882782,2.4915966987609863,0.0
1659367501114628076,0.7104150056838989,2.484990119934082,0.0
1659367501158586263,0.7125039100646973,2.4753165245056152,0.0
1659367501206311702,0.7139639258384705,2.468536853790283,0.0
1659367501250332355,0.7169560790061951,2.454345941543579,0.0
1659367501300656557,0.718292236328125,2.447876453399658,0.0
1659367501346434354,0.7196358442306519,2.441253423690796,0.0
1659367501390229225,0.7215312123298645,2.431746482849121,0.0
1659367501436155080,0.722817063331604,2.425215244293213,0.0
1659367501482530117,0.7251582145690918,2.412804126739502,0.0
1659367501526301145,0.7262561917304993,2.4066238403320312,0.0
1659367501570333480,0.7281241416931152,2.3956449031829834,0.0
1659367501614351272,0.7292451858520508,2.3888778686523438,0.0
1659367501658371686,0.7314916253089905,2.3751394748687744,0.0
1659367501704426288,0.73258376121521,2.368316411972046,0.0
1659367501754395961,0.7336674332618713,2.3615176677703857,0.0
1659367501798465013,0.7353072166442871,2.351475715637207,0.0
1659367501846227645,0.7363766431808472,2.344982385635376,0.0
1659367501894618034,0.738447368144989,2.332343578338623,0.0
1659367501938374757,0.7395602464675903,2.325575351715088,0.0
1659367501982562303,0.7412284016609192,2.315666437149048,0.0
1659367502030264377,0.7424259781837463,2.308758497238159,0.0
1659367502078789472,0.7436028122901917,2.3019752502441406,0.0
1659367502078902482,0.7452251315116882,2.2926747798919678,0.0
1659367502122538089,0.7464486360549927,2.285822629928589,0.0
1659367502148238182,0.7484384179115295,2.2751996517181396,0.0
1659367502196313858,0.7497955560684204,2.2682695388793945,0.0
1659367502250117301,0.7524800300598145,2.2548937797546387,0.0
1659367502297547817,0.75389164686203,2.2480781078338623,0.0
1659367502354311466,0.7553263306617737,2.241215467453003,0.0
1659367502398546695,0.7572849988937378,2.2316696643829346,0.0
1659367502446367740,0.7586938142776489,2.224724054336548,0.0
1659367502490387678,0.7610065340995789,2.213571548461914,0.0
1659367502538252592,0.7623394727706909,2.207334041595459,0.0
1659367502586222887,0.7644088268280029,2.1977858543395996,0.0
1659367502630446195,0.7658780813217163,2.1910340785980225,0.0
1659367502678387403,0.7673292756080627,2.184433698654175,0.0
1659367502678503751,0.7692702412605286,2.175868034362793,0.0
1659367502726582288,0.7708103060722351,2.169261932373047,0.0
1659367502743033885,0.773411214351654,2.158095121383667,0.0
1659367502793688058,0.7749966979026794,2.1512136459350586,0.0
1659367502850335597,0.7765435576438904,2.14453125,0.0
1659367502898233175,0.7788723707199097,2.1345484256744385,0.0
1659367502946394205,0.7804431319236755,2.127845525741577,0.0
1659367502994179725,0.7830759286880493,2.116608142852783,0.0
1659367503038928031,0.7846680879592896,2.1098062992095947,0.0
1659367503082366466,0.7877886295318604,2.0965514183044434,0.0
1659367503126357078,0.7894247174263,2.089629888534546,0.0
1659367503174398422,0.791053831577301,2.082784652709961,0.0
1659367503221966266,0.7930424809455872,2.0744900703430176,0.0
1659367503267901659,0.7946020364761353,2.068018674850464,0.0
1659367503268264770,0.7973678708076477,2.0567612648010254,0.0
1659367503314896106,0.7989991903305054,2.050281524658203,0.0
1659367503372557401,0.80208420753479,2.0382168292999268,0.0
1659367503418976068,0.8036760091781616,2.0320141315460205,0.0
1659367503466344594,0.8060564398765564,2.022695302963257,0.0
1659367503511953353,0.8076030015945435,2.0166378021240234,0.0
1659367503558401823,0.8102693557739258,2.0064778327941895,0.0
1659367503602210760,0.8119293451309204,2.000345468521118,0.0
1659367503646320343,0.8147229552268982,1.9902724027633667,0.0
1659367503690507888,0.816461443901062,1.984135627746582,0.0
1659367503738614082,0.8198851943016052,1.972188949584961,0.0
1659367503783240795,0.821694016456604,1.965967059135437,0.0
1659367503783706903,0.8244940638542175,1.9566069841384888,0.0
1659367503831843852,0.8264177441596985,1.9503930807113647,0.0
1659367503877046585,0.8300223350524902,1.9388175010681152,0.0
1659367503930395364,0.8319209218025208,1.9326753616333008,0.0
1659367503974139213,0.8350414037704468,1.9225661754608154,0.0
1659367504018740892,0.8369845747947693,1.9162788391113281,0.0
1659367504062509775,0.8399518132209778,1.9068641662597656,0.0
1659367504106196880,0.8420582413673401,1.9003629684448242,0.0
1659367504154177188,0.8457968235015869,1.888723611831665,0.0
1659367504199238538,0.8477691411972046,1.8824453353881836,0.0
1659367504243295192,0.8506619334220886,1.8732991218566895,0.0
1659367504290403842,0.8526905179023743,1.8669856786727905,0.0
1659367504335869789,0.8563721179962158,1.8555140495300293,0.0
1659367504380167484,0.8583254218101501,1.84941565990448,0.0
1659367504430513620,0.8615564107894897,1.839394450187683,0.0
1659367504478341102,0.863599956035614,1.8330326080322266,0.0
1659367504522360563,0.8670588135719299,1.8222603797912598,0.0
1659367504566324472,0.8690817952156067,1.8159981966018677,0.0
1659367504614611625,0.872597336769104,1.8052177429199219,0.0
1659367504658455133,0.874839186668396,1.7983880043029785,0.0
1659367504702611684,0.8770424723625183,1.791678786277771,0.0
1659367504702677488,0.8802000880241394,1.7821661233901978,0.0
1659367504759529590,0.88225257396698,1.7760469913482666,0.0
1659367504789320230,0.8859964609146118,1.7648354768753052,0.0
1659367504838326930,0.8881405591964722,1.758346676826477,0.0
1659367504886766672,0.8918070793151855,1.7472962141036987,0.0
1659367504962620496,0.8939597606658936,1.740863561630249,0.0
1659367505010376691,0.8979616761207581,1.7288576364517212,0.0
1659367505054402828,0.9001820683479309,1.7221274375915527,0.0
1659367505102075576,0.9031932950019836,1.7129663228988647,0.0
1659367505150703191,0.905269205570221,1.7066415548324585,0.0
1659367505150798082,0.9078065752983093,1.6988965272903442,0.0
1659367505199015855,0.909507155418396,1.6937006711959839,0.0
1659367505249474048,0.9123111963272095,1.6850576400756836,0.0
1659367505299945831,0.9137690663337708,1.6805280447006226,0.0
1659367505346392869,0.9156889915466309,1.674525260925293,0.0
1659367505394181013,0.9170398712158203,1.6702803373336792,0.0
1659367505442656278,0.918388843536377,1.6660348176956177,0.0
1659367505486130475,0.9199215769767761,1.661210298538208,0.0
1659367505534838199,0.9211500883102417,1.6573513746261597,0.0
1659367505534973382,0.9231043457984924,1.6511735916137695,0.0
1659367505579149007,0.9242863059043884,1.6474062204360962,0.0
1659367505630874633,0.9267825484275818,1.6394089460372925,0.0
1659367505680980920,0.9279530644416809,1.6356379985809326,0.0
1659367505736743450,0.9290375113487244,1.632131814956665,0.0
1659367505786291360,0.9307493567466736,1.6265677213668823,0.0
1659367505830287456,0.932214617729187,1.6217751502990723,0.0
1659367505878474473,0.9353128671646118,1.6115797758102417,0.0
1659367505959607601,0.9372203946113586,1.6052814722061157,0.0
1659367506002734661,0.9400025010108948,1.5960216522216797,0.0
1659367506002833366,0.9419721364974976,1.5893985033035278,0.0
1659367506046458959,0.9449212551116943,1.5793434381484985,0.0
1659367506068764686,0.9468764066696167,1.5725841522216797,0.0
1659367506125267505,0.9488056898117065,1.565922737121582,0.0
1659367506170488834,0.9517525434494019,1.5556561946868896,0.0
1659367506214353561,0.9536008834838867,1.5491032600402832,0.0
1659367506262752771,0.956727921962738,1.5379407405853271,0.0
1659367506306302070,0.9585894346237183,1.5313127040863037,0.0
1659367506350425004,0.9623353481292725,1.5176951885223389,0.0
1659367506394125938,0.964031994342804,1.5113106966018677,0.0
1659367506442913293,0.9675691723823547,1.4979513883590698,0.0
1659367506493197917,0.9692022204399109,1.4918118715286255,0.0
1659367506551765203,0.9708136916160583,1.4857189655303955,0.0
1659367506593796491,0.9731805324554443,1.4767365455627441,0.0
1659367506637825965,0.9747866988182068,1.470720887184143,0.0
1659367506681797027,0.9774382710456848,1.4611337184906006,0.0
1659367506725833415,0.9791247248649597,1.4552189111709595,0.0
1659367506769861459,0.9821255803108215,1.4448362588882446,0.0
1659367506817917108,0.9838433265686035,1.4389305114746094,0.0
1659367506861990451,0.9868636727333069,1.4287117719650269,0.0
1659367506906187057,0.9885007739067078,1.4232836961746216,0.0
1659367506955969810,0.9910499453544617,1.4149318933486938,0.0
1659367507001233100,0.9919068813323975,1.4121501445770264,0.0
1659367507045642852,0.9925874471664429,1.4099496603012085,0.0
1659367507090604066,0.9927747249603271,1.409345269203186,0.0
1659367507133760690,0.992849588394165,1.409103512763977,0.0
1659367507177899360,0.9928645491600037,1.4090551137924194,0.0
1659367507225706100,0.9928645491600037,1.4090551137924194,0.0
1659367507272347211,0.9928645491600037,1.4090551137924194,0.0
1659367507325320005,0.9928720593452454,1.4090309143066406,0.0
1659367507371448993,0.9928645491600037,1.4090551137924194,0.0
1659367507418093204,0.9928645491600037,1.4090551137924194,0.0
1659367507461705923,0.9928720593452454,1.4090309143066406,0.0
1659367507509659051,0.9928645491600037,1.4090551137924194,0.0
1659367507553547382,0.9928645491600037,1.4090551137924194,0.0
1659367507597808837,0.9928720593452454,1.4090309143066406,0.0
1659367507653067350,0.9928720593452454,1.4090309143066406,0.0
1659367507702471017,0.9928720593452454,1.4090309143066406,0.0
1659367507746291160,0.9928720593452454,1.4090309143066406,0.0
1659367507794219970,0.9926854968070984,1.4096355438232422,0.0
1659367507843140840,0.9921513199806213,1.4113779067993164,0.0
1659367507843266487,0.990994930267334,1.41517972946167,0.0
1659367507894782304,0.9900448322296143,1.4183564186096191,0.0
1659367507949721336,0.9880035519599915,1.4255123138427734,0.0
1659367507999454975,0.986906111240387,1.4295680522918701,0.0
1659367508042376279,0.985291600227356,1.4358171224594116,0.0
1659367508091128349,0.9842631816864014,1.4399691820144653,0.0
1659367508134487390,0.9828593134880066,1.445905327796936,0.0
1659367508178141117,0.9819318056106567,1.4500811100006104,0.0
1659367508222870826,0.9810205101966858,1.4543639421463013,0.0
1659367508270223617,0.9797126054763794,1.460425615310669,0.0
1659367508314332962,0.9788492918014526,1.4643304347991943,0.0
1659367508362128973,0.9773883819580078,1.4712393283843994,0.0
1659367508410881280,0.9766242504119873,1.4750099182128906,0.0
1659367508411012411,0.9755479097366333,1.4804216623306274,0.0
1659367508458587884,0.9747916460037231,1.4844259023666382,0.0
1659367508498597860,0.973664402961731,1.4908065795898438,0.0
1659367508551009893,0.9729120135307312,1.4953513145446777,0.0
1659367508610538721,0.9719172716140747,1.5020356178283691,0.0
1659367508654286623,0.9713526964187622,1.5063778162002563,0.0
1659367508703085422,0.9706040620803833,1.5129668712615967,0.0
1659367508746855258,0.9701510667800903,1.5174238681793213,0.0
1659367508790260791,0.9693661332130432,1.5264002084732056,0.0
1659367508834144353,0.9690308570861816,1.531222939491272,0.0
1659367508882063865,0.9687009453773499,1.5371618270874023,0.0
1659367508928970813,0.9686586260795593,1.5380719900131226,0.0
1659367508974173545,0.9686687588691711,1.5378190279006958,0.0
1659367509018447399,0.9686387181282043,1.5388057231903076,0.0
1659367509066848754,0.9685766100883484,1.54181706905365,0.0
1659367509114300489,0.9685441255569458,1.5447782278060913,0.0
1659367509162048101,0.9685391783714294,1.5481445789337158,0.0
1659367509162129640,0.9686002135276794,1.5534595251083374,0.0
1659367509206591129,0.9687010049819946,1.5575839281082153,0.0
1659367509257000684,0.9689039587974548,1.5634018182754517,0.0
1659367509311797857,0.9689112901687622,1.5635534524917603,0.0
1659367509354321241,0.968746542930603,1.5610023736953735,0.0
1659367509402294874,0.9685361385345459,1.5583276748657227,0.0
1659367509446677446,0.9680687189102173,1.5533634424209595,0.0
1659367509490321397,0.9676460027694702,1.5496668815612793,0.0
1659367509538790225,0.9668813347816467,1.544202446937561,0.0
1659367509582441329,0.96619713306427,1.540108323097229,0.0
1659367509626395702,0.9653806686401367,1.53580641746521,0.0
1659367509670735597,0.9642680287361145,1.5306607484817505,0.0
1659367509715039014,0.9632870554924011,1.5266013145446777,0.0
1659367509715279102,0.9612674713134766,1.5191766023635864,0.0
1659367509764299154,0.9597771763801575,1.5142594575881958,0.0
1659367509810417890,0.9567254185676575,1.5049517154693604,0.0
1659367509861313819,0.954917848110199,1.4997652769088745,0.0
1659367509914678573,0.9523191452026367,1.4926306009292603,0.0
1659367509958968639,0.9503496289253235,1.4875034093856812,0.0
1659367510002420663,0.9482672810554504,1.482311725616455,0.0
1659367510046236991,0.9448601007461548,1.474107027053833,0.0
1659367510094419240,0.9425203204154968,1.4686660766601562,0.0
1659367510142323017,0.938503623008728,1.4597322940826416,0.0
1659367510186612129,0.9359753727912903,1.4543483257293701,0.0
1659367510230392694,0.9312640428543091,1.4447342157363892,0.0
1659367510279523372,0.9290726780891418,1.4404535293579102,0.0
1659367510322138309,0.9260856509208679,1.4349039793014526,0.0
1659367510372894287,0.9238303303718567,1.4309455156326294,0.0
1659367510418127059,0.9181194305419922,1.4215322732925415,0.0
1659367510462475538,0.9151242971420288,1.4168380498886108,0.0
1659367510510407447,0.9119290113449097,1.411971926689148,0.0
1659367510554624795,0.9075688719749451,1.405540108680725,0.0
1659367510605198383,0.9042572379112244,1.4007831811904907,0.0
1659367510605629682,0.8985927700996399,1.3928852081298828,0.0
1659367510654377460,0.8949979543685913,1.3880199193954468,0.0
1659367510703022241,0.887293815612793,1.3780436515808105,0.0
1659367510753236055,0.8837565779685974,1.3736778497695923,0.0
1659367510809467315,0.8801126480102539,1.3693013191223145,0.0
1659367510854078292,0.8752240538597107,1.3636574745178223,0.0
1659367510902302503,0.8718950152397156,1.3599793910980225,0.0
1659367510950595140,0.8662160038948059,1.3539934158325195,0.0
1659367510994589328,0.8628803491592407,1.3506355285644531,0.0
1659367510994687795,0.8572496771812439,1.34524405002594,0.0
1659367511046109914,0.853916585445404,1.3422127962112427,0.0
1659367511103549003,0.8502335548400879,1.3390036821365356,0.0
1659367511146276235,0.845251739025116,1.334900140762329,0.0
1659367511194152593,0.8419458270072937,1.332306981086731,0.0
1659367511242311000,0.8356321454048157,1.327605962753296,0.0
1659367511290473461,0.8317079544067383,1.3248261213302612,0.0
1659367511338281869,0.8240084052085876,1.3196296691894531,0.0
1659367511383834362,0.8195384740829468,1.316753625869751,0.0
1659367511383939266,0.8127593994140625,1.3125571012496948,0.0
1659367511430240869,0.8083024621009827,1.3099004030227661,0.0
1659367511457595348,0.8009286522865295,1.3056634664535522,0.0
1659367511512572050,0.7960546612739563,1.3029707670211792,0.0
1659367511563279390,0.7870439291000366,1.2982447147369385,0.0
1659367511618690252,0.7818538546562195,1.2956644296646118,0.0
1659367511666581392,0.7750208973884583,1.2923527956008911,0.0
1659367511714900970,0.7695152163505554,1.2897268533706665,0.0
1659367511758538484,0.7604268193244934,1.2854408025741577,0.0
1659367511802176237,0.7545539736747742,1.2827032804489136,0.0
1659367511846997737,0.7485283613204956,1.2799341678619385,0.0
1659367511847111940,0.7399160265922546,1.2760052680969238,0.0
1659367511893149137,0.7338361740112305,1.27323317527771,0.0
1659367511943789720,0.7230448722839355,1.268410086631775,0.0
1659367511997476577,0.7168710827827454,1.2657243013381958,0.0
1659367512042378425,0.7077852487564087,1.2618016004562378,0.0
1659367512090291976,0.701629102230072,1.2591389417648315,0.0
1659367512137664079,0.6928085088729858,1.2553043365478516,0.0
1659367512184700012,0.6865401268005371,1.252582311630249,0.0
1659367512238944768,0.6804258227348328,1.2499504089355469,0.0
1659367512239071846,0.6731126308441162,1.2468390464782715,0.0
1659367512286964178,0.667071521282196,1.2442935705184937,0.0
1659367512302926063,0.6573201417922974,1.2402551174163818,0.0
1659367512354614257,0.651030957698822,1.2377136945724487,0.0
1659367512410524368,0.6448951959609985,1.2352656126022339,0.0
1659367512454310894,0.6356733441352844,1.2316051721572876,0.0
1659367512498205184,0.6295493841171265,1.2291961908340454,0.0
1659367512542423725,0.6179396510124207,1.2247625589370728,0.0
1659367512586449861,0.6117421388626099,1.2224754095077515,0.0
1659367512634264230,0.6006854772567749,1.2184417247772217,0.0
1659367512678791284,0.5944292545318604,1.216167688369751,0.0
1659367512726404428,0.585666298866272,1.213010549545288,0.0
1659367512771722555,0.5793210864067078,1.2107595205307007,0.0
1659367512813937902,0.5699707865715027,1.2075172662734985,0.0
1659367512858215332,0.5639787316322327,1.2054837942123413,0.0
1659367512902369260,0.5535173416137695,1.2019708156585693,0.0
1659367512947727441,0.5471038222312927,1.1998409032821655,0.0
1659367512993986845,0.5389450192451477,1.197184681892395,0.0
1659367513041838645,0.5322409272193909,1.1950478553771973,0.0
1659367513085819482,0.5209123492240906,1.1914175748825073,0.0
1659367513135294198,0.5144162774085999,1.1892955303192139,0.0
1659367513178500652,0.5023269653320312,1.1853852272033691,0.0
1659367513221817255,0.49569132924079895,1.183283805847168,0.0
1659367513279434919,0.4833511412143707,1.1794105768203735,0.0
1659367513326212167,0.47682899236679077,1.1773700714111328,0.0
1659367513370490074,0.46812668442726135,1.1746690273284912,0.0
1659367513418118000,0.46139782667160034,1.1726115942001343,0.0
1659367513462299823,0.4492879807949066,1.1689361333847046,0.0
1659367513506391286,0.44262874126434326,1.1669106483459473,0.0
1659367513550551652,0.435965895652771,1.1648972034454346,0.0
1659367513598606109,0.42717865109443665,1.162302017211914,0.0
1659367513643080711,0.42046889662742615,1.1603578329086304,0.0
1659367513643204212,0.4091286063194275,1.1570242643356323,0.0
1659367513690104007,0.40239018201828003,1.1549984216690063,0.0
1659367513743466377,0.387573778629303,1.1505672931671143,0.0
1659367513791566610,0.3812897205352783,1.148700475692749,0.0
1659367513841075181,0.37456727027893066,1.146709680557251,0.0
1659367513890619277,0.36586323380470276,1.1441906690597534,0.0
1659367513934282779,0.35957780480384827,1.142419695854187,0.0
1659367513983225584,0.34907346963882446,1.1394764184951782,0.0
1659367514028363227,0.34237584471702576,1.1375818252563477,0.0
1659367514078380584,0.32993680238723755,1.1341323852539062,0.0
1659367514122343063,0.3232372999191284,1.1323400735855103,0.0
1659367514166275978,0.31398019194602966,1.1299229860305786,0.0
1659367514210211038,0.3072142004966736,1.1281845569610596,0.0
1659367514254616975,0.29611697793006897,1.1253010034561157,0.0
1659367514298442602,0.2892879247665405,1.1235034465789795,0.0
1659367514348011016,0.2824854850769043,1.1217042207717896,0.0
1659367514348206996,0.2732521593570709,1.119197964668274,0.0
1659367514394053459,0.2664024233818054,1.1172832250595093,0.0
1659367514416538000,0.2566829025745392,1.1145410537719727,0.0
1659367514468999624,0.2499570995569229,1.112653136253357,0.0
1659367514526107788,0.24320478737354279,1.110766053199768,0.0
1659367514570463895,0.23343147337436676,1.1080280542373657,0.0
1659367514618211984,0.22685055434703827,1.1061859130859375,0.0
1659367514662233352,0.2147236168384552,1.1028424501419067,0.0
1659367514706154823,0.20800842344760895,1.1010111570358276,0.0
1659367514751540660,0.19370059669017792,1.0971027612686157,0.0
1659367514795431852,0.18700776994228363,1.0952856540679932,0.0
1659367514838732719,0.17803801596164703,1.0928711891174316,0.0
1659367514886409044,0.17150962352752686,1.0911247730255127,0.0
1659367514934068679,0.16244272887706757,1.088681697845459,0.0
1659367514978553771,0.15575113892555237,1.086859941482544,0.0
1659367515022670507,0.1490345001220703,1.085033893585205,0.0
1659367515070445775,0.13928845524787903,1.0823874473571777,0.0
1659367515114859819,0.1327907145023346,1.0806245803833008,0.0
1659367515115015745,0.1222589910030365,1.077780842781067,0.0
1659367515169193029,0.11558344215154648,1.0759968757629395,0.0
1659367515192418336,0.10662398487329483,1.0736421346664429,0.0
1659367515247164011,0.0999118909239769,1.0718975067138672,0.0
1659367515298099040,0.08733344078063965,1.068676233291626,0.0
1659367515358052492,0.08070497214794159,1.0670132637023926,0.0
1659367515402354240,0.07095255702733994,1.0645925998687744,0.0
1659367515446383476,0.06424413621425629,1.062936544418335,0.0
1659367515490739345,0.05451635271310806,1.0605217218399048,0.0
1659367515538359880,0.04778917133808136,1.0588362216949463,0.0
1659367515582638740,0.03543306514620781,1.055768370628357,0.0
1659367515630245685,0.028402015566825867,1.054046392440796,0.0
1659367515674538850,0.018161702901124954,1.051490068435669,0.0
1659367515722495555,0.011739042587578297,1.0498393774032593,0.0
1659367515770576238,0.0023602829314768314,1.0473873615264893,0.0
1659367515814926624,-0.004270784556865692,1.04563307762146,0.0
1659367515815062046,-0.013928922824561596,1.0430495738983154,0.0
1659367515863309383,-0.02067011594772339,1.04121732711792,0.0
1659367515919283151,-0.027332816272974014,1.0393859148025513,0.0
1659367516011204719,-0.035333696752786636,1.037170648574829,0.0
1659367516011339664,-0.04198996350169182,1.035315990447998,0.0
1659367516054098606,-0.052851878106594086,1.0322418212890625,0.0
1659367516075793743,-0.05958845466375351,1.0302993059158325,0.0
1659367516123169183,-0.0732416883111,1.0263993740081787,0.0
1659367516173050642,-0.07984358817338943,1.0245383977890015,0.0
1659367516225477218,-0.09305831044912338,1.0207620859146118,0.0
1659367516282527685,-0.09986639022827148,1.0187934637069702,0.0
1659367516326500654,-0.1090807393193245,1.0161257982254028,0.0
1659367516370184421,-0.1158156543970108,1.0141775608062744,0.0
1659367516414353847,-0.12663130462169647,1.0110338926315308,0.0
1659367516462056875,-0.1333562433719635,1.0090514421463013,0.0
1659367516506531476,-0.14624744653701782,1.005250096321106,0.0
1659367516553901910,-0.15285634994506836,1.003321647644043,0.0
1659367516602567672,-0.1623787134885788,1.0005347728729248,0.0
1659367516650405168,-0.16849566996097565,0.9987277388572693,0.0
1659367516694632768,-0.17872603237628937,0.9956576228141785,0.0
1659367516738136291,-0.18545839190483093,0.9936116933822632,0.0
1659367516782339572,-0.1951526403427124,0.9906923770904541,0.0
1659367516826190710,-0.20175151526927948,0.9887298941612244,0.0
1659367516870486021,-0.21184010803699493,0.9857156872749329,0.0
1659367516914438486,-0.2185765504837036,0.9836832284927368,0.0
1659367516963366746,-0.23119348287582397,0.979848325252533,0.0
1659367517010107994,-0.23799705505371094,0.9777755737304688,0.0
1659367517054283857,-0.24801906943321228,0.9747160077095032,0.0
1659367517124521970,-0.25455302000045776,0.9727136492729187,0.0
1659367517124649286,-0.26372212171554565,0.9698943495750427,0.0
1659367517195599079,-0.2703956961631775,0.9678293466567993,0.0
1659367517195730447,-0.279636025428772,0.9649834036827087,0.0
1659367517240654945,-0.2864152193069458,0.9629175066947937,0.0
1659367517264467716,-0.29542818665504456,0.9601936340332031,0.0
1659367517320584297,-0.30194810032844543,0.9582321643829346,0.0
1659367517367161035,-0.3119833469390869,0.9552163481712341,0.0
1659367517411076784,-0.31872305274009705,0.9531947374343872,0.0
1659367517459647893,-0.3313564658164978,0.9494144320487976,0.0
1659367517510261297,-0.3379274606704712,0.9474470615386963,0.0
1659367517557611703,-0.3473100960254669,0.9446340799331665,0.0
1659367517602230310,-0.35402682423591614,0.9426239728927612,0.0
1659367517646228790,-0.3637789785861969,0.9397215843200684,0.0
1659367517690218687,-0.3707699477672577,0.9376568794250488,0.0
1659367517734178304,-0.37742069363594055,0.9356912970542908,0.0
1659367517782089233,-0.38746270537376404,0.9326980113983154,0.0
1659367517826368570,-0.39437347650527954,0.9306300282478333,0.0
1659367517870153665,-0.4049183130264282,0.9274630546569824,0.0
1659367517917255163,-0.411750853061676,0.9253986477851868,0.0
1659367517962575197,-0.42422473430633545,0.9216152429580688,0.0
1659367518010859012,-0.431002140045166,0.919543445110321,0.0
1659367518054607868,-0.4411337375640869,0.9164097309112549,0.0
1659367518097970962,-0.44782891869544983,0.9143289923667908,0.0
1659367518146378040,-0.4584640562534332,0.9110244512557983,0.0
1659367518194190502,-0.4651103615760803,0.9089570641517639,0.0
1659367518238389968,-0.4774307310581207,0.9051052331924438,0.0
1659367518286167144,-0.4836617410182953,0.9031513929367065,0.0
1659367518334331989,-0.4933300316333771,0.9001471996307373,0.0
1659367518382535219,-0.4999091625213623,0.8981195688247681,0.0
1659367518382712602,-0.5094638466835022,0.8951762914657593,0.0
1659367518429508447,-0.5160155296325684,0.8931455016136169,0.0
1659367518459952116,-0.5265675187110901,0.8898295164108276,0.0
1659367518516531944,-0.5331523418426514,0.8877352476119995,0.0
1659367518562331438,-0.5434725284576416,0.8844417929649353,0.0
1659367518606439828,-0.5500068664550781,0.8823559284210205,0.0
1659367518650168180,-0.5628141760826111,0.8781982064247131,0.0
1659367518706197261,-0.569399356842041,0.87602299451828,0.0
1659367518754403114,-0.5794042348861694,0.8727415800094604,0.0
1659367518799118041,-0.5860970616340637,0.8705697655677795,0.0
1659367518843177556,-0.5983676314353943,0.8665621876716614,0.0
1659367518892541408,-0.6050979495048523,0.8643422722816467,0.0
1659367518941776752,-0.6152193546295166,0.8610101342201233,0.0
1659367518986408710,-0.6218574047088623,0.8588337302207947,0.0
1659367519030168056,-0.6312651634216309,0.8557621240615845,0.0
1659367519078069925,-0.6376919746398926,0.8536726832389832,0.0
1659367519122119665,-0.6480969786643982,0.8503121137619019,0.0
1659367519170570850,-0.6546773314476013,0.8482038974761963,0.0
1659367519218175411,-0.6664693355560303,0.8444440364837646,0.0
1659367519266213178,-0.6729111671447754,0.8424013257026672,0.0
1659367519314304351,-0.6819657683372498,0.8395547270774841,0.0
1659367519365754604,-0.6885892152786255,0.8374989628791809,0.0
1659367519365848064,-0.6986324191093445,0.8344220519065857,0.0
1659367519414696455,-0.7053661942481995,0.8323808312416077,0.0
1659367519459598541,-0.7180615663528442,0.8285428881645203,0.0
1659367519513990879,-0.7246756553649902,0.8265430927276611,0.0
1659367519561064720,-0.7340402603149414,0.8237582445144653,0.0
1659367519606148719,-0.7407724857330322,0.8218005895614624,0.0
1659367519654197454,-0.7498470544815063,0.8191962838172913,0.0
1659367519698233842,-0.7563215494155884,0.817349910736084,0.0
1659367519742475271,-0.7658146023750305,0.814643919467926,0.0
1659367519786211729,-0.7724354863166809,0.8127570748329163,0.0
1659367519834559202,-0.7821251749992371,0.8100023865699768,0.0
1659367519878886699,-0.7888477444648743,0.8081030249595642,0.0
1659367519878989934,-0.7985008955001831,0.8054051995277405,0.0
1659367519932280778,-0.8052824139595032,0.8035286664962769,0.0
1659367519972652912,-0.8176703453063965,0.8000844717025757,0.0
1659367520029779911,-0.8243234753608704,0.7982186079025269,0.0
1659367520080386161,-0.838485836982727,0.7942588925361633,0.0
1659367520136031150,-0.8452129364013672,0.7923756241798401,0.0
1659367520187304496,-0.8577741980552673,0.7888934016227722,0.0
1659367520243455171,-0.8644436001777649,0.787086546421051,0.0
1659367520287113666,-0.8736164569854736,0.7846477627754211,0.0
1659367520330684185,-0.8802281022071838,0.7829192280769348,0.0
1659367520380147933,-0.8908963203430176,0.7800961136817932,0.0
1659367520426186800,-0.8976142406463623,0.7782748937606812,0.0
1659367520470328330,-0.9104260206222534,0.7748456001281738,0.0
1659367520514592885,-0.9171604514122009,0.7730863690376282,0.0
1659367520558320522,-0.9262427687644958,0.7707012891769409,0.0
1659367520602422714,-0.9328947067260742,0.7689270973205566,0.0
1659367520646793842,-0.9435039162635803,0.7660790085792542,0.0
1659367520694600343,-0.9501063823699951,0.764315664768219,0.0
1659367520738847732,-0.9625877141952515,0.7610225677490234,0.0
1659367520786512851,-0.9694176912307739,0.759228527545929,0.0
1659367520830017328,-0.9790298938751221,0.7566690444946289,0.0
1659367520878199100,-0.9859932661056519,0.7547858357429504,0.0
1659367520926270246,-0.9966297149658203,0.7519416213035583,0.0
1659367520974413871,-1.0033634901046753,0.7501797676086426,0.0
1659367521018115520,-1.0165987014770508,0.7466683387756348,0.0
1659367521063886880,-1.0229729413986206,0.7449336647987366,0.0
1659367521110363721,-1.0332273244857788,0.7421309947967529,0.0
1659367521154388904,-1.0399928092956543,0.7402914762496948,0.0
1659367521202480316,-1.0500314235687256,0.7375633120536804,0.0
1659367521250606775,-1.0567704439163208,0.7357230186462402,0.0
1659367521296790599,-1.0692436695098877,0.7323024272918701,0.0
1659367521342380523,-1.0758827924728394,0.7304809093475342,0.0
1659367521386287450,-1.0849493741989136,0.7280364632606506,0.0
1659367521430382251,-1.0917497873306274,0.7262293696403503,0.0
1659367521474605798,-1.1024287939071655,0.7233484387397766,0.0
1659367521522944927,-1.109405755996704,0.7214189171791077,0.0
1659367521567478179,-1.1223589181900024,0.7178343534469604,0.0
1659367521610016584,-1.1290948390960693,0.7159828543663025,0.0
1659367521653889417,-1.1387759447097778,0.7132912874221802,0.0
1659367521697926282,-1.1456689834594727,0.7113437652587891,0.0
1659367521741982221,-1.1560332775115967,0.7083703875541687,0.0
1659367521785735130,-1.1627223491668701,0.7064458727836609,0.0
1659367521829807758,-1.174838662147522,0.7029709219932556,0.0
1659367521878073930,-1.1815991401672363,0.7010200619697571,0.0
1659367521921829700,-1.1913121938705444,0.6981639266014099,0.0
1659367521965934991,-1.1981735229492188,0.6961073279380798,0.0
1659367522009561300,-1.2092387676239014,0.6928256154060364,0.0
1659367522053878784,-1.2160667181015015,0.6908345222473145,0.0
1659367522097768306,-1.2291085720062256,0.6869181394577026,0.0
1659367522144572019,-1.2359492778778076,0.6847937703132629,0.0
1659367522194091558,-1.2498681545257568,0.6804566979408264,0.0
1659367522250001192,-1.2565340995788574,0.6783671975135803,0.0
1659367522293967008,-1.2662216424942017,0.6752558350563049,0.0
1659367522342084646,-1.2729066610336304,0.6730601787567139,0.0
1659367522386253595,-1.2820684909820557,0.6700510382652283,0.0
1659367522434529304,-1.2885406017303467,0.6679370403289795,0.0
1659367522478321552,-1.2975587844848633,0.6649770736694336,0.0
1659367522530390262,-1.3039960861206055,0.6628385186195374,0.0
1659367522530527830,-1.313364028930664,0.6596476435661316,0.0
1659367522584001779,-1.319886565208435,0.6573668122291565,0.0
1659367522610831499,-1.3291254043579102,0.6541125774383545,0.0
1659367522667876005,-1.3357630968093872,0.6517778635025024,0.0
1659367522714949131,-1.3450582027435303,0.6485309600830078,0.0
1659367522762731552,-1.351467490196228,0.6463096737861633,0.0
1659367522806235551,-1.3606014251708984,0.6431387662887573,0.0
1659367522850404024,-1.3672407865524292,0.6408087015151978,0.0
1659367522898297071,-1.376509428024292,0.6374871730804443,0.0
1659367522946622133,-1.3831918239593506,0.635051965713501,0.0
1659367522996258974,-1.3923578262329102,0.6317441463470459,0.0
1659367523042979001,-1.3990141153335571,0.6293860673904419,0.0
1659367523043118238,-1.4081661701202393,0.6261902451515198,0.0
1659367523089574098,-1.41488778591156,0.6238653659820557,0.0
1659367523118114471,-1.4257858991622925,0.6200652122497559,0.0
1659367523175946950,-1.432493805885315,0.61770099401474,0.0
1659367523226541757,-1.445430040359497,0.6131349205970764,0.0
1659367523281263589,-1.4521366357803345,0.6107670664787292,0.0
1659367523330077648,-1.4605730772018433,0.6077491044998169,0.0
1659367523378136873,-1.4671839475631714,0.6053392291069031,0.0
1659367523422329664,-1.4776296615600586,0.6015509963035583,0.0
1659367523466844081,-1.4838515520095825,0.5993309617042542,0.0
1659367523510270357,-1.4955848455429077,0.5950840711593628,0.0
1659367523554480314,-1.5016804933547974,0.5928133726119995,0.0
1659367523602492094,-1.5106041431427002,0.589434027671814,0.0
1659367523653622865,-1.5169414281845093,0.58701491355896,0.0
1659367523698193311,-1.5270564556121826,0.5831368565559387,0.0
1659367523742559909,-1.5336254835128784,0.580615222454071,0.0
1659367523790436267,-1.5460690259933472,0.5758112072944641,0.0
1659367523834678411,-1.552154779434204,0.5734432935714722,0.0
1659367523882214307,-1.5613844394683838,0.5698721408843994,0.0
1659367523926433563,-1.5677887201309204,0.5674158930778503,0.0
1659367523970140695,-1.5770833492279053,0.563872754573822,0.0
1659367524018200635,-1.5837552547454834,0.5613369345664978,0.0
1659367524063583850,-1.5963340997695923,0.5565320253372192,0.0
1659367524111671447,-1.6027846336364746,0.5540549159049988,0.0
1659367524159132719,-1.61216402053833,0.5504499673843384,0.0
1659367524202913284,-1.6185405254364014,0.5479919910430908,0.0
1659367524250774383,-1.6286336183547974,0.5440572500228882,0.0
1659367524305795431,-1.6351808309555054,0.5414794683456421,0.0
1659367524350409269,-1.6475937366485596,0.5365279912948608,0.0
1659367524394558191,-1.6537870168685913,0.5340194702148438,0.0
1659367524438481807,-1.6626651287078857,0.530386209487915,0.0
1659367524483602523,-1.6689821481704712,0.527779221534729,0.0
1659367524483894348,-1.6779441833496094,0.5240839719772339,0.0
1659367524535887241,-1.6842389106750488,0.5214892625808716,0.0
1659367524564990997,-1.693114995956421,0.5177850127220154,0.0
1659367524621265888,-1.6994290351867676,0.5151050686836243,0.0
1659367524669404745,-1.71138596534729,0.5099143981933594,0.0
1659367524719026088,-1.7177293300628662,0.507111132144928,0.0
1659367524766123533,-1.7289773225784302,0.5020692348480225,0.0
1659367524822322845,-1.7353841066360474,0.4991600215435028,0.0
1659367524870276927,-1.743781566619873,0.4953090250492096,0.0
1659367524914381265,-1.7503238916397095,0.4922703504562378,0.0
1659367524962126493,-1.7603819370269775,0.4876081645488739,0.0
1659367525010337352,-1.7665691375732422,0.4847664535045624,0.0
1659367525058185815,-1.7780981063842773,0.4794256389141083,0.0
1659367525102315664,-1.7841426134109497,0.4765773117542267,0.0
1659367525150184154,-1.7932384014129639,0.4722478687763214,0.0
1659367525198482513,-1.7994247674942017,0.469285249710083,0.0
1659367525242561578,-1.8129024505615234,0.46273767948150635,0.0
1659367525286573648,-1.8190251588821411,0.4597020447254181,0.0
1659367525333564043,-1.8280704021453857,0.4551541209220886,0.0
1659367525384407997,-1.8342355489730835,0.45203378796577454,0.0
1659367525429864168,-1.843048095703125,0.44758638739585876,0.0
1659367525474014043,-1.8492722511291504,0.4444705843925476,0.0
1659367525517770290,-1.858413577079773,0.43988820910453796,0.0
1659367525562681913,-1.8644434213638306,0.43683671951293945,0.0
1659367525612403631,-1.875707983970642,0.43118080496788025,0.0
1659367525658371210,-1.8819711208343506,0.4280867278575897,0.0
1659367525705755710,-1.8903168439865112,0.42400816082954407,0.0
1659367525754815816,-1.8966240882873535,0.42094647884368896,0.0
1659367525754966974,-1.9064959287643433,0.4161284267902374,0.0
1659367525804581165,-1.9124224185943604,0.4132100045681,0.0
1659367525855147600,-1.9238660335540771,0.4075731337070465,0.0
1659367525912185907,-1.9300240278244019,0.4045519232749939,0.0
1659367525962136745,-1.9380583763122559,0.40058571100234985,0.0
1659367526008781909,-1.9442644119262695,0.3974902927875519,0.0
1659367526054361581,-1.9544411897659302,0.39237549901008606,0.0
1659367526098490953,-1.960560917854309,0.38927745819091797,0.0
1659367526147981882,-1.972931981086731,0.3829493522644043,0.0
1659367526194146633,-1.979068636894226,0.3797733783721924,0.0
1659367526242295742,-1.988366723060608,0.3749415874481201,0.0
1659367526286226511,-1.994540810585022,0.3717278838157654,0.0
1659367526330492019,-2.0038113594055176,0.366843581199646,0.0
1659367526374554872,-2.009920120239258,0.3635602593421936,0.0
1659367526418499469,-2.0192973613739014,0.3584461808204651,0.0
1659367526466145277,-2.02535343170166,0.35511913895606995,0.0
1659367526514381170,-2.035269260406494,0.34967103600502014,0.0
1659367526562828063,-2.0413248538970947,0.34634292125701904,0.0
1659367526610170602,-2.0526411533355713,0.34008026123046875,0.0
1659367526654145002,-2.058697462081909,0.33670127391815186,0.0
1659367526698351860,-2.066788673400879,0.33219051361083984,0.0
1659367526742148160,-2.072786331176758,0.32886219024658203,0.0
1659367526791444063,-2.0822227001190186,0.32359352707862854,0.0
1659367526838580369,-2.0880374908447266,0.3203015923500061,0.0
1659367526838645219,-2.095806360244751,0.31583791971206665,0.0
1659367526886794328,-2.1017343997955322,0.3123874366283417,0.0
1659367526921115875,-2.1107661724090576,0.3071243464946747,0.0
1659367526976194620,-2.1167871952056885,0.30363214015960693,0.0
1659367527031031370,-2.125913381576538,0.2983300983905792,0.0
1659367527074442148,-2.131948947906494,0.29481253027915955,0.0
1659367527118341445,-2.1432480812072754,0.2882123589515686,0.0
1659367527164749622,-2.149031400680542,0.2848149240016937,0.0
1659367527210596084,-2.156768560409546,0.28019681572914124,0.0
1659367527254241228,-2.162282943725586,0.27684274315834045,0.0
1659367527299469232,-2.1725308895111084,0.27045977115631104,0.0
1659367527350138902,-2.1778948307037354,0.26705554127693176,0.0
1659367527398235082,-2.185231924057007,0.2623674273490906,0.0
1659367527446333646,-2.190807819366455,0.25877782702445984,0.0
1659367527494471311,-2.1996138095855713,0.2530054748058319,0.0
1659367527538417816,-2.2051026821136475,0.24932947754859924,0.0
1659367527581917524,-2.2151811122894287,0.2424999177455902,0.0
1659367527627055644,-2.220759868621826,0.23868584632873535,0.0
1659367527670305490,-2.2282121181488037,0.23353125154972076,0.0
1659367527714393615,-2.233808994293213,0.22961002588272095,0.0
1659367527762272357,-2.242387294769287,0.2235482633113861,0.0
1659367527810441970,-2.2479774951934814,0.21957340836524963,0.0
1659367527854293584,-2.2578940391540527,0.21238075196743011,0.0
1659367527898382186,-2.263273239135742,0.20837406814098358,0.0
1659367527946362018,-2.2704954147338867,0.20285989344120026,0.0
1659367528034466028,-2.2756831645965576,0.19881099462509155,0.0
1659367528034631490,-2.283237934112549,0.19285838305950165,0.0
1659367528082121133,-2.2886414527893066,0.18859241902828217,0.0
1659367528104529380,-2.2989747524261475,0.18031880259513855,0.0
1659367528160843849,-2.3042290210723877,0.17602862417697906,0.0
1659367528205965995,-2.311720132827759,0.16983601450920105,0.0
1659367528250231266,-2.316810131072998,0.16558535397052765,0.0
1659367528298774719,-2.3243720531463623,0.15920116007328033,0.0
1659367528342474699,-2.329289436340332,0.15498165786266327,0.0
1659367528386189937,-2.3356802463531494,0.1493707150220871,0.0
1659367528434482097,-2.3403689861297607,0.14515940845012665,0.0
1659367528482146263,-2.3486971855163574,0.13750144839286804,0.0
1659367528530434370,-2.3529579639434814,0.13349764049053192,0.0
1659367528578530311,-2.3587872982025146,0.12791116535663605,0.0
1659367528625357866,-2.362748861312866,0.12403422594070435,0.0
1659367528625492334,-2.367910146713257,0.11888662725687027,0.0
1659367528676726341,-2.371473550796509,0.11525571346282959,0.0
1659367528721591711,-2.378835916519165,0.10758747160434723,0.0
1659367528779700994,-2.382600784301758,0.10358830541372299,0.0
1659367528822464227,-2.387892484664917,0.09786378592252731,0.0
1659367528866459131,-2.391230583190918,0.09419402480125427,0.0
1659367528910409927,-2.3959250450134277,0.08895265311002731,0.0
1659367528955731868,-2.399139404296875,0.0853080153465271,0.0
1659367529002427101,-2.4037232398986816,0.08003649860620499,0.0
1659367529046241044,-2.40678334236145,0.07645901292562485,0.0
1659367529094449520,-2.4113991260528564,0.07098157703876495,0.0
1659367529138147830,-2.414292097091675,0.06749481707811356,0.0
1659367529186572074,-2.4182562828063965,0.06262792646884918,0.0
1659367529234490394,-2.421025514602661,0.05917096138000488,0.0
1659367529234581232,-2.425769805908203,0.05317766219377518,0.0
1659367529288381099,-2.4290993213653564,0.048937443643808365,0.0
1659367529333909034,-2.4361932277679443,0.0398654006421566,0.0
1659367529389389038,-2.440305471420288,0.03459855541586876,0.0
1659367529438392639,-2.4459261894226074,0.02739468403160572,0.0
1659367529482079982,-2.4502336978912354,0.021862894296646118,0.0
1659367529540343046,-2.4566521644592285,0.013612098060548306,0.0
1659367529594121456,-2.460869073867798,0.008202320896089077,0.0
1659367529638334989,-2.468470573425293,-0.0015330839669331908,0.0
1659367529682121515,-2.4726338386535645,-0.006856328342109919,0.0
1659367529726349592,-2.479046106338501,-0.015047731809318066,0.0
1659367529771862745,-2.4828991889953613,-0.019970938563346863,0.0
1659367529771985292,-2.487696409225464,-0.026083732023835182,0.0
1659367529823795557,-2.491044282913208,-0.030341695994138718,0.0
1659367529852732658,-2.494953155517578,-0.03531757742166519,0.0
1659367529908326148,-2.495969295501709,-0.03661148622632027,0.0
1659367529955487966,-2.4968767166137695,-0.03776555880904198,0.0
1659367530010016441,-2.496954917907715,-0.03786500543355942,0.0
1659367530054472684,-2.497001886367798,-0.03792467340826988,0.0
1659367530098473072,-2.497001886367798,-0.03792467340826988,0.0
1659367530142596006,-2.497001886367798,-0.03792467340826988,0.0
1659367530200916767,-2.497001886367798,-0.03792467340826988,0.0
1659367530250334978,-2.497001886367798,-0.03792467340826988,0.0
1659367530294167280,-2.497001886367798,-0.03792467340826988,0.0
1659367530342433452,-2.497001886367798,-0.03792467340826988,0.0
1659367530386258363,-2.497001886367798,-0.03792467340826988,0.0
1659367530430735588,-2.497001886367798,-0.03792467340826988,0.0
1659367530478033781,-2.497001886367798,-0.03792467340826988,0.0
1659367530526615142,-2.497001886367798,-0.03792467340826988,0.0
1659367530574266433,-2.497001886367798,-0.03792467340826988,0.0
1659367530618314743,-2.497001886367798,-0.03792467340826988,0.0
1659367530662308692,-2.497001886367798,-0.03792467340826988,0.0
1659367530706507921,-2.497001886367798,-0.03792467340826988,0.0
1659367530750317096,-2.497001886367798,-0.03792467340826988,0.0
1659367530794544935,-2.497001886367798,-0.03792467340826988,0.0
1659367530846404790,-2.497001886367798,-0.03792467340826988,0.0
1659367530890544176,-2.497001886367798,-0.03792467340826988,0.0
1659367530939276218,-2.497001886367798,-0.03792467340826988,0.0
1659367530939562559,-2.497001886367798,-0.03792467340826988,0.0
1659367530986642122,-2.497001886367798,-0.03792467340826988,0.0
1659367531015337228,-2.497001886367798,-0.03792467340826988,0.0
1659367531070642232,-2.497001886367798,-0.03792467340826988,0.0
1659367531114554643,-2.497001886367798,-0.03792467340826988,0.0
1659367531160383462,-2.497001886367798,-0.03792467340826988,0.0
1659367531206449747,-2.497001886367798,-0.03792467340826988,0.0
1659367531250754356,-2.497001886367798,-0.03792467340826988,0.0
1659367531294535875,-2.497001886367798,-0.03792467340826988,0.0
1659367531338311672,-2.497001886367798,-0.03792467340826988,0.0
