%time,field.x,field.y,field.z
1659363658188846349,1.316182255744934,2.3243346214294434,0.0
1659363658239304780,1.316182255744934,2.3243346214294434,0.0
1659363658262876510,1.316182255744934,2.3243346214294434,0.0
1659363658318482398,1.316182255744934,2.3243346214294434,0.0
1659363658343311786,1.316182255744934,2.3243346214294434,0.0
1659363658399605035,1.316182255744934,2.3243346214294434,0.0
1659363658428588390,1.316182255744934,2.3243346214294434,0.0
1659363658483839035,1.316182255744934,2.3243346214294434,0.0
1659363658530603170,1.316182255744934,2.3243346214294434,0.0
1659363658586545228,1.316182255744934,2.3243346214294434,0.0
1659363658611010551,1.316182255744934,2.3243346214294434,0.0
1659363658662026405,1.316182255744934,2.3243346214294434,0.0
1659363658707956552,1.316182255744934,2.3243346214294434,0.0
1659363658761530399,1.316182255744934,2.3243346214294434,0.0
1659363658809813022,1.316182255744934,2.3243346214294434,0.0
1659363658857888936,1.316182255744934,2.3243346214294434,0.0
1659363658906095027,1.316182255744934,2.3243346214294434,0.0
1659363658950939893,1.316182255744934,2.3243346214294434,0.0
1659363658994282007,1.316182255744934,2.3243346214294434,0.0
1659363659037864208,1.316182255744934,2.3243346214294434,0.0
1659363659082274198,1.316182255744934,2.3243346214294434,0.0
1659363659130134820,1.316182255744934,2.3243346214294434,0.0
1659363659130301952,1.316182255744934,2.3243346214294434,0.0
1659363659177961111,1.316182255744934,2.3243346214294434,0.0
1659363659218214511,1.316182255744934,2.3243346214294434,0.0
1659363659274462223,1.316182255744934,2.3243346214294434,0.0
1659363659317662000,1.316182255744934,2.3243346214294434,0.0
1659363659367059946,1.316182255744934,2.3243346214294434,0.0
1659363659410509586,1.316182255744934,2.3243346214294434,0.0
1659363659458565473,1.316182255744934,2.3243346214294434,0.0
1659363659506438970,1.316182255744934,2.3243346214294434,0.0
1659363659551277637,1.316182255744934,2.3243346214294434,0.0
1659363659594552516,1.316182255744934,2.3243346214294434,0.0
1659363659642401695,1.316182255744934,2.3243346214294434,0.0
1659363659688088417,1.316182255744934,2.3243346214294434,0.0
1659363659730539083,1.316182255744934,2.3243346214294434,0.0
1659363659775462865,1.3161569833755493,2.324336051940918,0.0
1659363659822411775,1.316182255744934,2.3243346214294434,0.0
1659363659867088556,1.316182255744934,2.3243346214294434,0.0
1659363659914434194,1.316182255744934,2.3243346214294434,0.0
1659363659962444782,1.316182255744934,2.3243346214294434,0.0
1659363660012902975,1.316182255744934,2.3243346214294434,0.0
1659363660062477111,1.3161569833755493,2.324336051940918,0.0
1659363660106340646,1.316182255744934,2.3243346214294434,0.0
1659363660150788784,1.316182255744934,2.3243346214294434,0.0
1659363660209194660,1.316182255744934,2.3243346214294434,0.0
1659363660209378004,1.316182255744934,2.3243346214294434,0.0
1659363660254699230,1.316182255744934,2.3243346214294434,0.0
1659363660266839742,1.316182255744934,2.3243346214294434,0.0
1659363660321428060,1.316182255744934,2.3243346214294434,0.0
1659363660371930599,1.316182255744934,2.3243346214294434,0.0
1659363660423605680,1.316182255744934,2.3243346214294434,0.0
1659363660470785856,1.316182255744934,2.3243346214294434,0.0
1659363660518650531,1.316182255744934,2.3243346214294434,0.0
1659363660564517736,1.316182255744934,2.3243346214294434,0.0
1659363660622247457,1.316182255744934,2.3243346214294434,0.0
1659363660666753768,1.316182255744934,2.3243346214294434,0.0
1659363660730869293,1.316182255744934,2.3243346214294434,0.0
1659363660774671792,1.316182255744934,2.3243346214294434,0.0
1659363660818297624,1.316182255744934,2.3243346214294434,0.0
1659363660862433195,1.316182255744934,2.3243346214294434,0.0
1659363660912062644,1.316182255744934,2.3243346214294434,0.0
1659363660968453407,1.316182255744934,2.3243346214294434,0.0
1659363661014088153,1.316182255744934,2.3243346214294434,0.0
1659363661059237003,1.316182255744934,2.3243346214294434,0.0
1659363661102022171,1.316182255744934,2.3243346214294434,0.0
1659363661147652149,1.316182255744934,2.3243346214294434,0.0
1659363661193794488,1.316182255744934,2.3243346214294434,0.0
1659363661241981267,1.3161569833755493,2.324336051940918,0.0
1659363661242057561,1.316182255744934,2.3243346214294434,0.0
1659363661291899919,1.316182255744934,2.3243346214294434,0.0
1659363661314975261,1.3172181844711304,2.324273109436035,0.0
1659363661494279861,1.3200477361679077,2.324101686477661,0.0
1659363661494408607,1.324064016342163,2.3238465785980225,0.0
1659363661537687063,1.3302772045135498,2.3234410285949707,0.0
1659363661537784576,1.336237907409668,2.3230528831481934,0.0
1659363661549914836,1.345758318901062,2.3224093914031982,0.0
1659363661571587324,1.3521982431411743,2.3219802379608154,0.0
1659363661610403299,1.3627880811691284,2.3214101791381836,0.0
1659363661658421516,1.3695390224456787,2.321103572845459,0.0
1659363661702860355,1.3828842639923096,2.3203959465026855,0.0
1659363661760021924,1.3898569345474243,2.3199689388275146,0.0
1659363661806456089,1.3995822668075562,2.31935715675354,0.0
1659363661851459026,1.4063770771026611,2.3189241886138916,0.0
1659363661894388914,1.415772557258606,2.3183093070983887,0.0
1659363661946912288,1.4226919412612915,2.3178420066833496,0.0
1659363661999059200,1.43519127368927,2.316983461380005,0.0
1659363662042564868,1.4420579671859741,2.316488742828369,0.0
1659363662090776205,1.4522478580474854,2.3156356811523438,0.0
1659363662138609170,1.458649754524231,2.315047264099121,0.0
1659363662182816743,1.4686899185180664,2.3142268657684326,0.0
1659363662226148128,1.4748245477676392,2.3137848377227783,0.0
1659363662271098852,1.4875009059906006,2.312917709350586,0.0
1659363662315396785,1.4938161373138428,2.31252121925354,0.0
1659363662359108686,1.5032663345336914,2.3119707107543945,0.0
1659363662406397342,1.509230613708496,2.3116424083709717,0.0
1659363662454960584,1.5209318399429321,2.3109991550445557,0.0
1659363662502778530,1.5272499322891235,2.310650110244751,0.0
1659363662546481132,1.5401145219802856,2.309959888458252,0.0
1659363662591526985,1.5465342998504639,2.309616804122925,0.0
1659363662637691020,1.5561851263046265,2.309030294418335,0.0
1659363662677956342,1.5626269578933716,2.3086302280426025,0.0
1659363662722350835,1.5748344659805298,2.3079752922058105,0.0
1659363662766431570,1.5818119049072266,2.307635545730591,0.0
1659363662823253393,1.5923819541931152,2.3071799278259277,0.0
1659363662870202779,1.5994631052017212,2.306891679763794,0.0
1659363662870354652,1.608821153640747,2.3065319061279297,0.0
1659363662918268680,1.6152466535568237,2.3063230514526367,0.0
1659363662956435680,1.627593755722046,2.305990219116211,0.0
1659363663157780885,1.6339707374572754,2.305860757827759,0.0
1659363663158025741,1.6438413858413696,2.3057541847229004,0.0
1659363663162856340,1.6369315385818481,2.3057503700256348,0.0
1659363663163083791,1.648446798324585,2.3059113025665283,0.0
1659363663172425031,1.655405044555664,2.306086778640747,0.0
1659363663223557710,1.6678506135940552,2.306511402130127,0.0
1659363663303185939,1.6748061180114746,2.3067729473114014,0.0
1659363663346710205,1.6854008436203003,2.307244062423706,0.0
1659363663394832849,1.6918448209762573,2.3076069355010986,0.0
1659363663439078807,1.7048053741455078,2.3083934783935547,0.0
1659363663482335805,1.7112971544265747,2.3088059425354004,0.0
1659363663528739690,1.7212729454040527,2.309467077255249,0.0
1659363663579364776,1.7270039319992065,2.30987548828125,0.0
1659363663579532146,1.7374252080917358,2.3106930255889893,0.0
1659363663630153179,1.742925763130188,2.3111276626586914,0.0
1659363663664925813,1.750954508781433,2.3116953372955322,0.0
1659363663715523958,1.755801796913147,2.3120410442352295,0.0
1659363663761859893,1.7630418539047241,2.3126327991485596,0.0
1659363663810521602,1.768664002418518,2.3131322860717773,0.0
1659363663854299545,1.7783931493759155,2.3140242099761963,0.0
1659363663897847652,1.7846179008483887,2.3146042823791504,0.0
1659363663945924043,1.796921968460083,2.315687656402588,0.0
1659363663990162372,1.8032281398773193,2.316208839416504,0.0
1659363664038457632,1.8130394220352173,2.317032814025879,0.0
1659363664081827163,1.819067120552063,2.3175430297851562,0.0
1659363664131795883,1.8276699781417847,2.318239212036133,0.0
1659363664179662704,1.8330000638961792,2.318573474884033,0.0
1659363664179904460,1.8413199186325073,2.318923234939575,0.0
1659363664231839179,1.8458725214004517,2.3190972805023193,0.0
1659363664282419919,1.8551781177520752,2.3195011615753174,0.0
1659363664338235378,1.8598549365997314,2.3197314739227295,0.0
1659363664384090185,1.865013837814331,2.319946050643921,0.0
1659363664430485725,1.8719971179962158,2.320131778717041,0.0
1659363664478757143,1.8782978057861328,2.3202762603759766,0.0
1659363664522277116,1.8880139589309692,2.3205249309539795,0.0
1659363664566473960,1.8933522701263428,2.3206787109375,0.0
1659363664612621545,1.8985648155212402,2.3208038806915283,0.0
1659363664658328533,1.8917815685272217,2.320793628692627,0.0
1659363664703895568,1.8975770473480225,2.3207056522369385,0.0
1659363664703989267,1.907042384147644,2.3205790519714355,0.0
1659363664750449657,1.9133951663970947,2.320530652999878,0.0
1659363664788337945,1.8998539447784424,2.3205268383026123,0.0
1659363664839432477,1.9055739641189575,2.3205771446228027,0.0
1659363664898993730,1.9093950986862183,2.3206560611724854,0.0
1659363664947060823,1.9110382795333862,2.320736885070801,0.0
1659363664990802526,1.9108363389968872,2.3207216262817383,0.0
1659363665035142898,1.912147045135498,2.3208413124084473,0.0
1659363665078074932,1.9142388105392456,2.3210361003875732,0.0
1659363665123812198,1.9186280965805054,2.321396589279175,0.0
1659363665167311191,1.9224379062652588,2.3217005729675293,0.0
1659363665214297771,1.929222822189331,2.32226824760437,0.0
1659363665262962341,1.9339876174926758,2.3226940631866455,0.0
1659363665311602592,1.9464023113250732,2.323951244354248,0.0
1659363665374913930,1.9526156187057495,2.324643850326538,0.0
1659363665486248731,1.9652960300445557,2.3260364532470703,0.0
1659363665486349582,1.9712858200073242,2.326676845550537,0.0
1659363665586023092,1.9769740104675293,2.3272814750671387,0.0
1659363665586185216,1.9827388525009155,2.32788348197937,0.0
1659363665720608234,1.9876453876495361,2.3284175395965576,0.0
1659363665721039295,1.9957876205444336,2.329394817352295,0.0
1659363665798559904,2.000582218170166,2.3300130367279053,0.0
1659363665798694610,2.0091097354888916,2.331169843673706,0.0
1659363665806098699,2.013568878173828,2.331813335418701,0.0
1659363665806254625,2.019235849380493,2.3327596187591553,0.0
1659363665822465181,2.0231897830963135,2.333509683609009,0.0
1659363665851382493,2.0296852588653564,2.334845542907715,0.0
1659363665904521465,2.0338640213012695,2.3357596397399902,0.0
1659363665953098535,2.040825366973877,2.3373360633850098,0.0
1659363666002614974,2.0453100204467773,2.338388204574585,0.0
1659363666046647548,2.053490400314331,2.3403103351593018,0.0
1659363666090241432,2.057875156402588,2.34134578704834,0.0
1659363666135298490,2.06526780128479,2.3431873321533203,0.0
1659363666183020830,2.069847583770752,2.3443825244903564,0.0
1659363666228878736,2.0765814781188965,2.346143960952759,0.0
1659363666274475812,2.080949306488037,2.3472485542297363,0.0
1659363666322647094,2.0895235538482666,2.349475383758545,0.0
1659363666367214679,2.0933055877685547,2.3505184650421143,0.0
1659363666367355108,2.099324941635132,2.3522069454193115,0.0
1659363666415911197,2.10329008102417,2.353346347808838,0.0
1659363666454522848,2.110642194747925,2.3555283546447754,0.0
1659363666504411220,2.115225315093994,2.3568992614746094,0.0
1659363666554381608,2.1222894191741943,2.3589842319488525,0.0
1659363666599176406,2.126199960708618,2.360130548477173,0.0
1659363666646242141,2.1323885917663574,2.3619632720947266,0.0
1659363666691350460,2.136073350906372,2.3630692958831787,0.0
1659363666747761487,2.141831398010254,2.3648390769958496,0.0
1659363666790224313,2.145111322402954,2.3658835887908936,0.0
1659363666838418722,2.1518218517303467,2.3680825233459473,0.0
1659363666883568286,2.1555724143981934,2.369316816329956,0.0
1659363666883770227,2.1609201431274414,2.371041774749756,0.0
1659363666930526018,2.164613723754883,2.3722052574157715,0.0
1659363666977035760,2.172607421875,2.3747966289520264,0.0
1659363667034492731,2.17682147026062,2.3762409687042236,0.0
1659363667081284761,2.1839540004730225,2.378770351409912,0.0
1659363667130592346,2.188408374786377,2.380370616912842,0.0
1659363667214972257,2.197110652923584,2.383546829223633,0.0
1659363667215093612,2.201538562774658,2.385218858718872,0.0
1659363667283374786,2.2068116664886475,2.3872320652008057,0.0
1659363667295241117,2.2104318141937256,2.3886075019836426,0.0
1659363667348843097,2.2182834148406982,2.391740560531616,0.0
1659363667415198802,2.2217519283294678,2.393220901489258,0.0
1659363667461933612,2.2289516925811768,2.3964028358459473,0.0
1659363667506518125,2.2323195934295654,2.397923707962036,0.0
1659363667598005771,2.2375049591064453,2.400216579437256,0.0
1659363667598081827,2.240246057510376,2.401402235031128,0.0
1659363667644734621,2.241499423980713,2.401947498321533,0.0
1659363667651360750,2.2406880855560303,2.4015920162200928,0.0
1659363667695528030,2.2379891872406006,2.4003734588623047,0.0
1659363667738590240,2.235583782196045,2.3992433547973633,0.0
1659363667786472797,2.232698440551758,2.3978261947631836,0.0
1659363667832690477,2.2334649562835693,2.39821720123291,0.0
1659363667881743907,2.238567352294922,2.4008586406707764,0.0
1659363667926023244,2.2417478561401367,2.4025325775146484,0.0
1659363667974335432,2.247610092163086,2.4057393074035645,0.0
1659363668019258260,2.2515149116516113,2.4079864025115967,0.0
1659363668062842130,2.2590396404266357,2.4126131534576416,0.0
1659363668113220691,2.2630374431610107,2.4152402877807617,0.0
1659363668163053035,2.267303228378296,2.418149709701538,0.0
1659363668210457563,2.267965078353882,2.418616533279419,0.0
1659363668260440349,2.266538619995117,2.4175658226013184,0.0
1659363668314840793,2.2646446228027344,2.416125774383545,0.0
1659363668315041065,2.2611567974090576,2.413395643234253,0.0
1659363668358070373,2.2583606243133545,2.411137580871582,0.0
1659363668415273189,2.252138376235962,2.4059526920318604,0.0
1659363668463962554,2.2490932941436768,2.4033215045928955,0.0
1659363668520236015,2.2460103034973145,2.4005799293518066,0.0
1659363668570683956,2.2411186695098877,2.3960649967193604,0.0
1659363668619826078,2.237776517868042,2.3928580284118652,0.0
1659363668662108898,2.2318289279937744,2.386814832687378,0.0
1659363668706142663,2.228482723236084,2.3831868171691895,0.0
1659363668751940488,2.225283622741699,2.3795623779296875,0.0
1659363668795464038,2.221261978149414,2.3747429847717285,0.0
1659363668838866710,2.2184321880340576,2.371140241622925,0.0
1659363668838989257,2.21457839012146,2.3659000396728516,0.0
1659363668883845806,2.212367296218872,2.362689971923828,0.0
1659363668918387413,2.208436965942383,2.356520652770996,0.0
1659363668979072570,2.2063181400299072,2.352921724319458,0.0
1659363669031834125,2.2012293338775635,2.3433871269226074,0.0
1659363669078259706,2.1990795135498047,2.338888168334961,0.0
1659363669133760929,2.1970582008361816,2.334357738494873,0.0
1659363669178419828,2.1949360370635986,2.329209566116333,0.0
1659363669222438335,2.1932928562164307,2.32490611076355,0.0
1659363669266568183,2.1904726028442383,2.316615104675293,0.0
1659363669314676046,2.1889688968658447,2.311596155166626,0.0
1659363669363779306,2.1860251426696777,2.300462484359741,0.0
1659363669406585931,2.1847662925720215,2.2949862480163574,0.0
1659363669454960823,2.183152675628662,2.2871782779693604,0.0
1659363669498540878,2.182154893875122,2.2818543910980225,0.0
1659363669546970605,2.1801509857177734,2.2689743041992188,0.0
1659363669590160369,2.179492950439453,2.2636234760284424,0.0
1659363669640159130,2.1788949966430664,2.2579345703125,0.0
1659363669691285610,2.1782193183898926,2.2499396800994873,0.0
1659363669735862255,2.1778507232666016,2.2443580627441406,0.0
1659363669782393455,2.177396774291992,2.234243869781494,0.0
1659363669834087610,2.17724347114563,2.228551149368286,0.0
1659363669834187746,2.177140474319458,2.2203257083892822,0.0
1659363669878299474,2.1771457195281982,2.214681386947632,0.0
1659363669894767522,2.1773102283477783,2.2059760093688965,0.0
1659363669946540117,2.1775310039520264,2.200437307357788,0.0
1659363670003729581,2.178347110748291,2.187580108642578,0.0
1659363670055733919,2.178839921951294,2.181830406188965,0.0
1659363670098771810,2.179788112640381,2.172666311264038,0.0
1659363670146647214,2.1804943084716797,2.1668622493743896,0.0
1659363670195509910,2.181658983230591,2.1582846641540527,0.0
1659363670238357543,2.182497978210449,2.1526007652282715,0.0
1659363670286711454,2.184452533721924,2.140738010406494,0.0
1659363670334671258,2.185481309890747,2.135136842727661,0.0
1659363670382935523,2.187232732772827,2.126272201538086,0.0
1659363670426504850,2.188509464263916,2.120229721069336,0.0
1659363670471591711,2.1904773712158203,2.1114625930786133,0.0
1659363670514562606,2.1919760704040527,2.10518479347229,0.0
1659363670564433813,2.1950480937957764,2.0931167602539062,0.0
1659363670614183425,2.19659161567688,2.0873725414276123,0.0
1659363670673726558,2.199965715408325,2.0755696296691895,0.0
1659363670722681045,2.201690912246704,2.06990385055542,0.0
1659363670770476341,2.2036356925964355,2.0637495517730713,0.0
1659363670770647764,2.206042766571045,2.0563879013061523,0.0
1659363670816811084,2.2079341411590576,2.050748586654663,0.0
1659363670837470769,2.2113637924194336,2.0410079956054688,0.0
1659363670888834476,2.213564157485962,2.0350751876831055,0.0
1659363670940436363,2.218566417694092,2.022301435470581,0.0
1659363670992528915,2.2207605838775635,2.016991376876831,0.0
1659363671043194293,2.224787473678589,2.00759220123291,0.0
1659363671094809293,2.2273807525634766,2.001737117767334,0.0
1659363671138627052,2.2309775352478027,1.993863582611084,0.0
1659363671186652898,2.2335281372070312,1.9884341955184937,0.0
1659363671230403184,2.238271713256836,1.978751301765442,0.0
1659363671277826070,2.2408101558685303,1.9737952947616577,0.0
1659363671326525688,2.2474677562713623,1.9614543914794922,0.0
1659363671371194601,2.2504608631134033,1.9561975002288818,0.0
1659363671419055700,2.253601312637329,1.9508211612701416,0.0
1659363671462243556,2.257918119430542,1.9436116218566895,0.0
1659363671511195421,2.2612831592559814,1.938133716583252,0.0
1659363671559428930,2.2677955627441406,1.9278775453567505,0.0
1659363671606976509,2.2711756229400635,1.922739028930664,0.0
1659363671655292749,2.2775814533233643,1.9134747982025146,0.0
1659363671702796459,2.2810871601104736,1.9086697101593018,0.0
1659363671751000404,2.286186933517456,1.9019274711608887,0.0
1659363671795019626,2.289875030517578,1.8971965312957764,0.0
1659363671844913005,2.293686628341675,1.8924341201782227,0.0
1659363671845107555,2.298922300338745,1.8860894441604614,0.0
1659363671895253419,2.3029019832611084,1.8814001083374023,0.0
1659363671917759656,2.309779644012451,1.8734945058822632,0.0
1659363671979712486,2.314107656478882,1.868638515472412,0.0
1659363672026474475,2.318331003189087,1.8639947175979614,0.0
1659363672070500373,2.3248953819274902,1.8569304943084717,0.0
1659363672114807844,2.3293046951293945,1.8522869348526,0.0
1659363672158070564,2.335803747177124,1.84565007686615,0.0
1659363672206777811,2.3403265476226807,1.841188669204712,0.0
1659363672250329017,2.3497395515441895,1.8323185443878174,0.0
1659363672301269769,2.3541297912597656,1.8283809423446655,0.0
1659363672350873947,2.3585715293884277,1.824501395225525,0.0
1659363672398406505,2.364072799682617,1.8197964429855347,0.0
1659363672445290088,2.3684303760528564,1.8161693811416626,0.0
1659363672445454359,2.375140428543091,1.810821771621704,0.0
1659363672491527318,2.379835844039917,1.8072534799575806,0.0
1659363672535263776,2.3886303901672363,1.8008418083190918,0.0
1659363672585262060,2.3934552669525146,1.7974507808685303,0.0
1659363672630443811,2.4002718925476074,1.7928463220596313,0.0
1659363672674513816,2.4049673080444336,1.7898063659667969,0.0
1659363672722842454,2.411250591278076,1.7859147787094116,0.0
1659363672770963191,2.415714979171753,1.7832705974578857,0.0
1659363672818403244,2.4255530834198,1.7777347564697266,0.0
1659363672866706132,2.430837392807007,1.7748957872390747,0.0
1659363672917861700,2.4401795864105225,1.7700389623641968,0.0
1659363672966566324,2.445651054382324,1.7672855854034424,0.0
1659363673010546684,2.456646203994751,1.7619413137435913,0.0
1659363673058170795,2.4623777866363525,1.7592599391937256,0.0
1659363673102421045,2.4737422466278076,1.7541686296463013,0.0
1659363673152037143,2.479212522506714,1.7518333196640015,0.0
1659363673207472324,2.484576940536499,1.749638557434082,0.0
1659363673250989675,2.491530656814575,1.7469186782836914,0.0
1659363673298285007,2.496527671813965,1.745034098625183,0.0
1659363673346700906,2.505091428756714,1.7419214248657227,0.0
1659363673390351772,2.5098462104797363,1.7402597665786743,0.0
1659363673435976743,2.5148842334747314,1.738565444946289,0.0
1659363673436064481,2.5212955474853516,1.7365105152130127,0.0
1659363673486822605,2.5254082679748535,1.7352455854415894,0.0
1659363673506298780,2.5328369140625,1.733054280281067,0.0
1659363673557810068,2.53680682182312,1.7319318056106567,0.0
1659363673602801561,2.5435264110565186,1.730116367340088,0.0
1659363673650384664,2.5486950874328613,1.7287721633911133,0.0
1659363673694415330,2.5578255653381348,1.7264726161956787,0.0
1659363673740691184,2.5636043548583984,1.7250640392303467,0.0
1659363673786416530,2.5733320713043213,1.7227559089660645,0.0
1659363673830992221,2.5796713829040527,1.7212978601455688,0.0
1659363673874643564,2.5861690044403076,1.7198512554168701,0.0
1659363673984290599,2.5948596000671387,1.7180078029632568,0.0
1659363673984517097,2.601112127304077,1.7167472839355469,0.0
1659363673988900899,2.611855983734131,1.7147163152694702,0.0
1659363674011599302,2.618283987045288,1.7135661840438843,0.0
1659363674125560998,2.6298611164093018,1.711592435836792,0.0
1659363674210140466,2.635932683944702,1.7106105089187622,0.0
1659363674210314035,2.6446914672851562,1.7092832326889038,0.0
1659363674216847419,2.651033878326416,1.7084001302719116,0.0
1659363674302727937,2.6622345447540283,1.7069947719573975,0.0
1659363674302903413,2.6682722568511963,1.7063257694244385,0.0
1659363674315837860,2.6764345169067383,1.7055332660675049,0.0
1659363674367225170,2.6821603775024414,1.7050576210021973,0.0
1659363674412868022,2.692183256149292,1.7043429613113403,0.0
1659363674464467287,2.6971352100372314,1.7040449380874634,0.0
1659363674514356374,2.7059853076934814,1.7036511898040771,0.0
1659363674565299510,2.7115769386291504,1.7034978866577148,0.0
1659363674614424943,2.719372034072876,1.7034045457839966,0.0
1659363674663767337,2.725041627883911,1.703410267829895,0.0
1659363674706380605,2.7369611263275146,1.7036231756210327,0.0
1659363674751039266,2.742576837539673,1.703817367553711,0.0
1659363674795353412,2.7540013790130615,1.7044191360473633,0.0
1659363674838882923,2.759680986404419,1.7048372030258179,0.0
1659363674887268543,2.7653794288635254,1.705336570739746,0.0
1659363674931391477,2.767570972442627,1.7055505514144897,0.0
1659363674978823661,2.768930673599243,1.705688714981079,0.0
1659363675022609233,2.769106864929199,1.7057068347930908,0.0
1659363675128777980,2.769106864929199,1.7057068347930908,0.0
1659363675128954172,2.769106864929199,1.7057068347930908,0.0
1659363675176207780,2.769132137298584,1.705709457397461,0.0
1659363675196894645,2.769106864929199,1.7057068347930908,0.0
1659363675252676725,2.769106864929199,1.7057068347930908,0.0
1659363675308964014,2.769106864929199,1.7057068347930908,0.0
1659363675363889694,2.769106864929199,1.7057068347930908,0.0
1659363675406146049,2.769106864929199,1.7057068347930908,0.0
1659363675454076528,2.769132137298584,1.705709457397461,0.0
1659363675502309799,2.769132137298584,1.705709457397461,0.0
1659363675545795679,2.770063638687134,1.7058055400848389,0.0
1659363675589824438,2.7721784114837646,1.7060251235961914,0.0
1659363675635719537,2.7753748893737793,1.7063639163970947,0.0
1659363675682562589,2.7806358337402344,1.706917643547058,0.0
1659363675730447292,2.7851946353912354,1.7073696851730347,0.0
1659363675778127670,2.7933900356292725,1.7080786228179932,0.0
1659363675826557636,2.7985646724700928,1.7084599733352661,0.0
1659363675826753139,2.805865526199341,1.7089121341705322,0.0
1659363675870191574,2.811527729034424,1.7092024087905884,0.0
1659363675920969724,2.8173434734344482,1.7094608545303345,0.0
1659363675966440916,2.8252105712890625,1.7097291946411133,0.0
1659363676011863946,2.830878973007202,1.7098497152328491,0.0
1659363676058328866,2.840269088745117,1.7098983526229858,0.0
1659363676103461980,2.846216917037964,1.7098392248153687,0.0
1659363676147104740,2.857348680496216,1.7095054388046265,0.0
1659363676194476366,2.8630101680755615,1.7092020511627197,0.0
1659363676238364458,2.87080979347229,1.7086251974105835,0.0
1659363676282845020,2.876430034637451,1.7081050872802734,0.0
1659363676327368974,2.882092237472534,1.7074947357177734,0.0
1659363676327500343,2.8893983364105225,1.7065619230270386,0.0
1659363676381282091,2.8947575092315674,1.7057759761810303,0.0
1659363676406529426,2.903799295425415,1.7042934894561768,0.0
1659363676456951856,2.909254312515259,1.7033100128173828,0.0
1659363676514803647,2.9209020137786865,1.7008922100067139,0.0
1659363676563718557,2.925851583480835,1.699715495109558,0.0
1659363676620509386,2.9309277534484863,1.698418140411377,0.0
1659363676666549682,2.9361510276794434,1.6969839334487915,0.0
1659363676714351415,2.9402806758880615,1.6957751512527466,0.0
1659363676762416362,2.9471089839935303,1.6936113834381104,0.0
1659363676810231447,2.9510843753814697,1.692251205444336,0.0
1659363676857370853,2.9575541019439697,1.6898976564407349,0.0
1659363676902253866,2.961334228515625,1.6884446144104004,0.0
1659363676950333595,2.9683897495269775,1.6855705976486206,0.0
1659363676998706340,2.9719269275665283,1.6840574741363525,0.0
1659363676998782873,2.9775445461273193,1.6815531253814697,0.0
1659363677042617559,2.9813506603240967,1.6797738075256348,0.0
1659363677087353944,2.9883649349212646,1.676314353942871,0.0
1659363677138307809,2.992271900177002,1.6742819547653198,0.0
1659363677188592433,2.9992434978485107,1.6704660654067993,0.0
1659363677239472627,3.002934217453003,1.6683543920516968,0.0
1659363677286759376,3.009002208709717,1.664742350578308,0.0
1659363677330218315,3.0131349563598633,1.662185788154602,0.0
1659363677374557495,3.019927978515625,1.657821536064148,0.0
1659363677423516511,3.024202823638916,1.6549710035324097,0.0
1659363677466569185,3.033529043197632,1.6485214233398438,0.0
1659363677514349937,3.0375654697418213,1.6456375122070312,0.0
1659363677559871196,3.0436148643493652,1.6412177085876465,0.0
1659363677602460145,3.047329902648926,1.6384514570236206,0.0
1659363677646438598,3.052724838256836,1.6343814134597778,0.0
1659363677690782070,3.0564844608306885,1.631506085395813,0.0
1659363677734551906,3.062019109725952,1.6272437572479248,0.0
1659363677778254747,3.065563440322876,1.6245036125183105,0.0
1659363677826547861,3.072838068008423,1.6188501119613647,0.0
1659363677870620965,3.076127290725708,1.6162766218185425,0.0
1659363677915997266,3.0795650482177734,1.6135646104812622,0.0
1659363677966016769,3.084319591522217,1.6097837686538696,0.0
1659363678013116121,3.0882763862609863,1.606626272201538,0.0
1659363678013546943,3.0944602489471436,1.601714849472046,0.0
1659363678062802314,3.098294973373413,1.5986884832382202,0.0
1659363678091234445,3.102830171585083,1.5951200723648071,0.0
1659363678141967058,3.104701042175293,1.593650221824646,0.0
1659363678194985389,3.1063132286071777,1.5923837423324585,0.0
1659363678247839927,3.1065521240234375,1.5921961069107056,0.0
1659363678296832084,3.106611728668213,1.592149257659912,0.0
1659363678348253965,3.1066315174102783,1.592133641242981,0.0
1659363678397651672,3.1066315174102783,1.592133641242981,0.0
1659363678447371959,3.106611490249634,1.592149257659912,0.0
1659363678490371942,3.106631278991699,1.592133641242981,0.0
1659363678540802478,3.106631278991699,1.592133641242981,0.0
1659363678596260309,3.106631278991699,1.592133641242981,0.0
1659363678637814044,3.106631278991699,1.592133641242981,0.0
1659363678681778430,3.106631278991699,1.592133641242981,0.0
1659363678726562738,3.106631278991699,1.592133641242981,0.0
1659363678770212173,3.106631278991699,1.592133641242981,0.0
1659363678815145254,3.106631278991699,1.592133641242981,0.0
1659363678864790439,3.106631278991699,1.592133641242981,0.0
1659363678910891771,3.106631278991699,1.592133641242981,0.0
1659363678957529544,3.106631278991699,1.592133641242981,0.0
1659363679002898693,3.106631278991699,1.592133641242981,0.0
1659363679051348209,3.106631278991699,1.592133641242981,0.0
1659363679096901893,3.108421802520752,1.590725302696228,0.0
1659363679140659093,3.1105270385742188,1.5890620946884155,0.0
1659363679188684225,3.1131041049957275,1.587016224861145,0.0
1659363679234821557,3.1167781352996826,1.584072470664978,0.0
1659363679283045530,3.1199958324432373,1.5814502239227295,0.0
1659363679330400705,3.1251184940338135,1.5771598815917969,0.0
1659363679375354766,3.128587245941162,1.5741673707962036,0.0
1659363679418260812,3.134671688079834,1.5687450170516968,0.0
1659363679470856189,3.1379311084747314,1.5657457113265991,0.0
1659363679515220880,3.1427807807922363,1.5611488819122314,0.0
1659363679562984228,3.146465539932251,1.5575679540634155,0.0
1659363679563576221,3.1519739627838135,1.5521234273910522,0.0
1659363679608469724,3.1561264991760254,1.5479358434677124,0.0
1659363679631074905,3.1624038219451904,1.5414363145828247,0.0
1659363679682153463,3.1667020320892334,1.536861777305603,0.0
1659363679737911462,3.1710855960845947,1.5321245193481445,0.0
1659363679786740779,3.1766068935394287,1.5260952711105347,0.0
1659363679833990812,3.18082332611084,1.5214452743530273,0.0
1659363679882540702,3.1876087188720703,1.5138293504714966,0.0
1659363679926672935,3.1917965412139893,1.5090184211730957,0.0
1659363679976319074,3.196007251739502,1.5040935277938843,0.0
1659363679976472854,3.2022809982299805,1.4965381622314453,0.0
1659363680022365331,3.2062151432037354,1.4916470050811768,0.0
1659363680043516397,3.2117795944213867,1.4845598936080933,0.0
1659363680098149299,3.214827537536621,1.4805817604064941,0.0
1659363680155140161,3.2180097103118896,1.476324439048767,0.0
1659363680202629327,3.2230515480041504,1.4693503379821777,0.0
1659363680246607303,3.2263073921203613,1.4647088050842285,0.0
1659363680294983148,3.2315759658813477,1.4570584297180176,0.0
1659363680342932462,3.2349672317504883,1.4520491361618042,0.0
1659363680386342048,3.2384557723999023,1.4468003511428833,0.0
1659363680431749105,3.243412971496582,1.4391851425170898,0.0
1659363680475609540,3.246833086013794,1.433861494064331,0.0
1659363680475744009,3.2524921894073486,1.424892544746399,0.0
1659363680518871545,3.2557437419891357,1.4195826053619385,0.0
1659363680572928428,3.258913040161133,1.4142820835113525,0.0
1659363680618751764,3.263352870941162,1.406704068183899,0.0
1659363680664268732,3.2663815021514893,1.4014092683792114,0.0
1659363680719282150,3.271489143371582,1.3921151161193848,0.0
1659363680766173124,3.2745163440704346,1.3863861560821533,0.0
1659363680813950538,3.279033660888672,1.3776377439498901,0.0
1659363680862514019,3.2819972038269043,1.3717904090881348,0.0
1659363680862915754,3.285961866378784,1.363783597946167,0.0
1659363680908410549,3.28882098197937,1.3578563928604126,0.0
1659363680955014228,3.291590929031372,1.3520267009735107,0.0
1659363681005655050,3.295220375061035,1.3442517518997192,0.0
1659363681050387382,3.2979137897491455,1.3383307456970215,0.0
1659363681050517082,3.3014354705810547,1.330284833908081,0.0
1659363681099019765,3.303661823272705,1.3249881267547607,0.0
1659363681137947082,3.30745005607605,1.3156538009643555,0.0
1659363681190094947,3.309530258178711,1.3103523254394531,0.0
1659363681235493421,3.3129372596740723,1.3011956214904785,0.0
1659363681282627105,3.3147852420806885,1.295915961265564,0.0
1659363681327600955,3.3179807662963867,1.2863092422485352,0.0
1659363681375957727,3.3194310665130615,1.2817240953445435,0.0
1659363681422494649,3.3210017681121826,1.2764610052108765,0.0
1659363681474822998,3.321503162384033,1.274682641029358,0.0
1659363681522887945,3.3218445777893066,1.273437738418579,0.0
1659363681568169355,3.3219172954559326,1.2731690406799316,0.0
1659363681568371772,3.321943521499634,1.2730712890625,0.0
1659363681614430904,3.321943521499634,1.2730712890625,0.0
1659363681664861440,3.321943521499634,1.2730712890625,0.0
1659363681722950935,3.321943521499634,1.2730712890625,0.0
1659363681771180868,3.321943521499634,1.2730712890625,0.0
1659363681814518928,3.321943521499634,1.2730712890625,0.0
1659363681858434915,3.321943521499634,1.2730712890625,0.0
1659363681904359579,3.321943521499634,1.2730712890625,0.0
1659363681952147483,3.321943521499634,1.2730712890625,0.0
1659363682002665758,3.321943521499634,1.2730712890625,0.0
1659363682050097227,3.321943521499634,1.2730712890625,0.0
1659363682094101428,3.321943521499634,1.2730712890625,0.0
1659363682142278909,3.321943521499634,1.2730712890625,0.0
1659363682190401315,3.321943521499634,1.2730712890625,0.0
1659363682235862016,3.321943521499634,1.2730712890625,0.0
1659363682278535842,3.3221077919006348,1.2724602222442627,0.0
1659363682278776407,3.3229708671569824,1.2692588567733765,0.0
1659363682326540708,3.324047327041626,1.2652760744094849,0.0
1659363682384282827,3.3253750801086426,1.260391116142273,0.0
1659363682426702260,3.3275346755981445,1.252506136894226,0.0
1659363682474406003,3.329216480255127,1.2464323043823242,0.0
1659363682521828174,3.332094430923462,1.2365410327911377,0.0
1659363682571223974,3.3341331481933594,1.2299388647079468,0.0
1659363682614037990,3.336214065551758,1.2233498096466064,0.0
1659363682614190340,3.3392744064331055,1.2138054370880127,0.0
1659363682658103227,3.3414297103881836,1.2072670459747314,0.0
1659363682703038692,3.3453776836395264,1.1955901384353638,0.0
1659363682757822513,3.347445249557495,1.189529538154602,0.0
1659363682802197933,3.3508083820343018,1.179738998413086,0.0
1659363682850462198,3.353050470352173,1.1733101606369019,0.0
1659363682895080804,3.357351541519165,1.1612199544906616,0.0
1659363682938237190,3.3596858978271484,1.1547971963882446,0.0
1659363682987739324,3.3640713691711426,1.1431150436401367,0.0
1659363683043778896,3.3665313720703125,1.1367664337158203,0.0
1659363683090356588,3.370018482208252,1.1278842687606812,0.0
1659363683138290882,3.37251877784729,1.121578574180603,0.0
1659363683182335376,3.3765149116516113,1.1116459369659424,0.0
1659363683226851940,3.3791005611419678,1.1053473949432373,0.0
1659363683278769731,3.3840432167053223,1.093642234802246,0.0
1659363683322718143,3.3867034912109375,1.0874849557876587,0.0
1659363683366527080,3.3893563747406006,1.081434965133667,0.0
1659363683410608053,3.392970323562622,1.0733191967010498,0.0
1659363683454634428,3.395475149154663,1.0677851438522339,0.0
1659363683502815961,3.4005093574523926,1.057146668434143,0.0
1659363683547262191,3.4033327102661133,1.0514838695526123,0.0
1659363683547360658,3.407191276550293,1.0440189838409424,0.0
1659363683596515178,3.410163640975952,1.0384329557418823,0.0
1659363683654528141,3.4133076667785645,1.0326517820358276,0.0
1659363683702110290,3.4179744720458984,1.0242996215820312,0.0
1659363683755219459,3.421027898788452,1.0189605951309204,0.0
1659363683798211574,3.4271557331085205,1.0085580348968506,0.0
1659363683842467308,3.4303174018859863,1.003341555595398,0.0
1659363683887176752,3.435370445251465,0.9952471852302551,0.0
1659363683930389404,3.438831329345703,0.9898894429206848,0.0
1659363683977603435,3.44626522064209,0.9787532687187195,0.0
1659363684026662111,3.4499893188476562,0.9733583331108093,0.0
1659363684077179193,3.4536921977996826,0.9681028127670288,0.0
1659363684122538328,3.4592573642730713,0.9603826999664307,0.0
1659363684170372247,3.4632112979888916,0.9550274610519409,0.0
1659363684218830823,3.4708104133605957,0.9450981020927429,0.0
1659363684266242504,3.4747300148010254,0.9401628375053406,0.0
1659363684310455799,3.481876850128174,0.9314901828765869,0.0
1659363684355264186,3.4860401153564453,0.9266246557235718,0.0
1659363684399776697,3.4921863079071045,0.919625997543335,0.0
1659363684442434072,3.496403455734253,0.9149424433708191,0.0
1659363684442562580,3.5025441646575928,0.908279299736023,0.0
1659363684497693538,3.5070605278015137,0.9034930467605591,0.0
1659363684526593685,3.513493537902832,0.8968623876571655,0.0
1659363684575430870,3.518162727355957,0.892189085483551,0.0
1659363684634587764,3.5274040699005127,0.8831766247749329,0.0
1659363684691609382,3.5321805477142334,0.8786131143569946,0.0
1659363684734281063,3.538749933242798,0.8724830746650696,0.0
1659363684778636693,3.5437071323394775,0.8679648041725159,0.0
1659363684822164297,3.551161289215088,0.861264169216156,0.0
1659363684866657733,3.5562522411346436,0.8567431569099426,0.0
1659363684914119720,3.5614655017852783,0.8521695733070374,0.0
1659363684958522081,3.568899631500244,0.8457140326499939,0.0
1659363685002538204,3.573725461959839,0.8415433764457703,0.0
1659363685046426534,3.5825002193450928,0.8340069651603699,0.0
1659363685250948905,3.587616205215454,0.8296692371368408,0.0
1659363685251103162,3.597230911254883,0.8215969800949097,0.0
1659363685252393245,3.602548360824585,0.8171448111534119,0.0
1659363685252474546,3.6099698543548584,0.8109083771705627,0.0
1659363685258898258,3.6153459548950195,0.8063687086105347,0.0
1659363685277109622,3.6228461265563965,0.8000685572624207,0.0
1659363685333187341,3.6282525062561035,0.7955650687217712,0.0
1659363685378756523,3.637265682220459,0.7881151437759399,0.0
1659363685424776077,3.642712116241455,0.7836600542068481,0.0
1659363685475417852,3.6534433364868164,0.7749524116516113,0.0
1659363685532128334,3.658952474594116,0.7704941630363464,0.0
1659363685578758716,3.6662890911102295,0.7645522952079773,0.0
1659363685627599477,3.671818733215332,0.7600793242454529,0.0
1659363685670621395,3.680720567703247,0.7529741525650024,0.0
1659363685717467784,3.686293125152588,0.7485954761505127,0.0
1659363685762227058,3.6964051723480225,0.7406947016716003,0.0
1659363685809104204,3.7018966674804688,0.7364178895950317,0.0
1659363685855298519,3.7095274925231934,0.7305217981338501,0.0
1659363685904565095,3.7151830196380615,0.7262089252471924,0.0
1659363685950752735,3.7208497524261475,0.7219109535217285,0.0
1659363685950830936,3.7286319732666016,0.7160044312477112,0.0
1659363686101176738,3.7344250679016113,0.7116217613220215,0.0
1659363686101447820,3.743539571762085,0.7048338651657104,0.0
1659363686186322212,3.7494564056396484,0.7004901170730591,0.0
1659363686186422824,3.761448860168457,0.6917195320129395,0.0
1659363686189163446,3.7673110961914062,0.6874727010726929,0.0
1659363686232146263,3.779710054397583,0.6784433722496033,0.0
1659363686324101686,3.7854151725769043,0.6742388606071472,0.0
1659363686376356124,3.7960686683654785,0.6664674282073975,0.0
1659363686427788496,3.80181884765625,0.6623247265815735,0.0
1659363686427868127,3.809159278869629,0.6570121049880981,0.0
1659363686474729537,3.8149876594543457,0.6527619361877441,0.0
1659363686503898143,3.824305295944214,0.6459937691688538,0.0
1659363686559192895,3.8300817012786865,0.6418441534042358,0.0
1659363686608309745,3.840656042098999,0.6342655420303345,0.0
1659363686665652275,3.8462443351745605,0.6302445530891418,0.0
1659363686714886426,3.854038953781128,0.6246529221534729,0.0
1659363686758228778,3.859483003616333,0.6207784414291382,0.0
1659363686807392597,3.8681488037109375,0.6146650314331055,0.0
1659363686851740837,3.873603582382202,0.6108495593070984,0.0
1659363686900984048,3.884378433227539,0.6034241318702698,0.0
1659363686974395751,3.8901400566101074,0.599518895149231,0.0
1659363686974495887,3.8986732959747314,0.5937932729721069,0.0
1659363687021231651,3.904299259185791,0.5900489687919617,0.0
1659363687049426317,3.9134368896484375,0.5840439200401306,0.0
1659363687099703788,3.918985366821289,0.5804585814476013,0.0
1659363687150869607,3.930255174636841,0.5733233094215393,0.0
1659363687203787803,3.9357712268829346,0.5698756575584412,0.0
1659363687254758596,3.9415810108184814,0.566277265548706,0.0
1659363687299000263,3.950467348098755,0.5609180331230164,0.0
1659363687342369556,3.9558980464935303,0.5577200651168823,0.0
1659363687387571811,3.967357873916626,0.5509936213493347,0.0
1659363687431717872,3.973445177078247,0.5474144220352173,0.0
1659363687478624105,3.9825663566589355,0.5421039462089539,0.0
1659363687527040958,3.9886488914489746,0.5386171936988831,0.0
1659363687574422597,3.996497631072998,0.5341399908065796,0.0
1659363687623090505,4.002633571624756,0.5306448340415955,0.0
1659363687682824850,4.01137638092041,0.5256919860839844,0.0
1659363687682985544,4.017591953277588,0.522183358669281,0.0
1659363687731618165,4.0306596755981445,0.5147490501403809,0.0
1659363687784355163,4.036803722381592,0.511216938495636,0.0
1659363687830504179,4.048123359680176,0.5047026872634888,0.0
1659363687883622407,4.054248809814453,0.5011886954307556,0.0
1659363687926297187,4.062353610992432,0.4965474307537079,0.0
1659363687974512338,4.068444728851318,0.49307572841644287,0.0
1659363688023122072,4.077304363250732,0.4880725145339966,0.0
1659363688066602945,4.083593845367432,0.4845399558544159,0.0
1659363688111410379,4.089623928070068,0.4811663031578064,0.0
1659363688155094385,4.098155975341797,0.4764067530632019,0.0
1659363688198665618,4.104304313659668,0.47293344140052795,0.0
1659363688242622375,4.113109588623047,0.46773433685302734,0.0
1659363688286731958,4.118847370147705,0.4642604887485504,0.0
1659363688286828279,4.127072334289551,0.45932355523109436,0.0
1659363688335416555,4.132112503051758,0.4563103914260864,0.0
1659363688391818523,4.142570972442627,0.45012807846069336,0.0
1659363688440383672,4.147206783294678,0.4474262595176697,0.0
1659363688498109340,4.150599479675293,0.44545653462409973,0.0
1659363688542839288,4.153266906738281,0.44390130043029785,0.0
1659363688586600303,4.154314994812012,0.4432872235774994,0.0
1659363688630392313,4.154773235321045,0.44301822781562805,0.0
1659363688675503969,4.154838562011719,0.4429797828197479,0.0
1659363688719443798,4.154838562011719,0.4429797828197479,0.0
1659363688777058124,4.154838562011719,0.4429797828197479,0.0
1659363688822401762,4.154838562011719,0.4429797828197479,0.0
1659363688867358207,4.154860496520996,0.4429669678211212,0.0
1659363688910130023,4.154838562011719,0.4429797828197479,0.0
1659363688955179452,4.154838562011719,0.4429797828197479,0.0
1659363689001251935,4.154860496520996,0.4429669678211212,0.0
1659363689056629657,4.154838562011719,0.4429797828197479,0.0
1659363689105728149,4.154838562011719,0.4429797828197479,0.0
1659363689151793241,4.154838562011719,0.4429797828197479,0.0
1659363689197994709,4.154838562011719,0.4429797828197479,0.0
1659363689247439146,4.154838562011719,0.4429797828197479,0.0
1659363689290687799,4.154838562011719,0.4429797828197479,0.0
1659363689334607124,4.154838562011719,0.4429797828197479,0.0
1659363689378451824,4.154838562011719,0.4429797828197479,0.0
1659363689422424316,4.154838562011719,0.4429797828197479,0.0
1659363689466141700,4.154838562011719,0.4429797828197479,0.0
1659363689510730028,4.154773235321045,0.44301822781562805,0.0
1659363689554619312,4.153159141540527,0.44396811723709106,0.0
1659363689598539352,4.150981426239014,0.44525831937789917,0.0
1659363689643480300,4.147031784057617,0.4476289749145508,0.0
1659363689687372684,4.143703460693359,0.4496578276157379,0.0
1659363689731045722,4.139987468719482,0.45197439193725586,0.0
1659363689775070428,4.139730930328369,0.4521370828151703,0.0
1659363689819228887,4.1415181159973145,0.45098528265953064,0.0
1659363689862671375,4.143680572509766,0.4495748281478882,0.0
1659363689906414747,4.148746967315674,0.4462237060070038,0.0
1659363689950447082,4.151239395141602,0.4445323050022125,0.0
1659363689995019674,4.152296543121338,0.4437918961048126,0.0
1659363690038636684,4.151229381561279,0.4445623755455017,0.0
1659363690083058834,4.147360801696777,0.447419136762619,0.0
1659363690126513719,4.144813060760498,0.4493374824523926,0.0
1659363690170350313,4.14001989364624,0.4530280828475952,0.0
1659363690215196371,4.137086391448975,0.4553573727607727,0.0
1659363690261737823,4.136344909667969,0.4559697210788727,0.0
1659363690319689512,4.137190818786621,0.45524558424949646,0.0
1659363690362574577,4.136604309082031,0.45576685667037964,0.0
1659363690407716035,4.1356587409973145,0.4566456377506256,0.0
1659363690450182437,4.136861324310303,0.4554862082004547,0.0
1659363690500773668,4.138902187347412,0.4534464180469513,0.0
1659363690546280622,4.143982410430908,0.4482540190219879,0.0
1659363690594925165,4.147058963775635,0.44506755471229553,0.0
1659363690638493537,4.151423931121826,0.44041675329208374,0.0
1659363690682818889,4.154806137084961,0.4366842210292816,0.0
1659363690733857870,4.159570217132568,0.43120047450065613,0.0
1659363690784296274,4.162928581237793,0.42717885971069336,0.0
1659363690784754276,4.16778039932251,0.42114195227622986,0.0
1659363690832072257,4.170981407165527,0.41699424386024475,0.0
1659363690860572814,4.17543888092041,0.4110041856765747,0.0
1659363690917306661,4.178565502166748,0.4066433906555176,0.0
1659363690970219373,4.18405294418335,0.3986213505268097,0.0
1659363691018708944,4.187042236328125,0.3940437138080597,0.0
1659363691063110828,4.191009998321533,0.3876887559890747,0.0
1659363691111989259,4.193643569946289,0.38324764370918274,0.0
1659363691154540300,4.196925163269043,0.37736886739730835,0.0
1659363691199277400,4.199276447296143,0.37285736203193665,0.0
1659363691247432231,4.202450752258301,0.36635151505470276,0.0
1659363691289839267,4.2045512199401855,0.36177346110343933,0.0
1659363691338639974,4.207666397094727,0.3545445501804352,0.0
1659363691382612466,4.209685802459717,0.3495185971260071,0.0
1659363691430376052,4.213042736053467,0.34037044644355774,0.0
1659363691474571228,4.214627265930176,0.3356160819530487,0.0
1659363691518502950,4.217361927032471,0.3262630105018616,0.0
1659363691562280416,4.2184906005859375,0.3217708170413971,0.0
1659363691606401681,4.2201151847839355,0.3141462802886963,0.0
1659363691650817871,4.220969200134277,0.30925941467285156,0.0
1659363691695045709,4.222095012664795,0.30159661173820496,0.0
1659363691738873481,4.222776889801025,0.29601916670799255,0.0
1659363691782342195,4.223751068115234,0.28584015369415283,0.0
1659363691828657627,4.22416877746582,0.28010985255241394,0.0
1659363691875177383,4.224775791168213,0.26954740285873413,0.0
1659363691928620576,4.2250261306762695,0.26355400681495667,0.0
1659363691974936008,4.225221633911133,0.2557607591152191,0.0
1659363692018191814,4.225265026092529,0.24966104328632355,0.0
1659363692065697193,4.22518253326416,0.24014458060264587,0.0
1659363692110447883,4.225048065185547,0.2340208739042282,0.0
1659363692155158996,4.224768161773682,0.22625553607940674,0.0
1659363692198855161,4.224448204040527,0.2201894074678421,0.0
1659363692243073463,4.223788261413574,0.21087312698364258,0.0
1659363692292013168,4.223248481750488,0.2047717571258545,0.0
1659363692292135238,4.222336769104004,0.19583284854888916,0.0
1659363692342099428,4.2216410636901855,0.18977276980876923,0.0
1659363692375578880,4.22048807144165,0.18098938465118408,0.0
1659363692432676315,4.219587326049805,0.17495639622211456,0.0
1659363692478320837,4.217986583709717,0.1652415543794632,0.0
1659363692526827573,4.2169270515441895,0.15931148827075958,0.0
1659363692570562124,4.215443134307861,0.15155522525310516,0.0
1659363692615049839,4.2142653465271,0.14582829177379608,0.0
1659363692658074140,4.212399959564209,0.13758286833763123,0.0
1659363692702996492,4.210994720458984,0.13193359971046448,0.0
1659363692746216297,4.208834648132324,0.12397011369466782,0.0
1659363692790335655,4.2072834968566895,0.11867496371269226,0.0
1659363692838189601,4.204303741455078,0.10942362248897552,0.0
1659363692885687828,4.202528953552246,0.1043865904211998,0.0
1659363692930408477,4.199828624725342,0.0972086638212204,0.0
1659363692978924512,4.197843074798584,0.09225092828273773,0.0
1659363693026508569,4.194572448730469,0.08453782647848129,0.0
1659363693075602531,4.192392349243164,0.07969031482934952,0.0
1659363693118391513,4.187994956970215,0.07062721252441406,0.0
1659363693168186187,4.18544340133667,0.06573495268821716,0.0
1659363693168368339,4.181815147399902,0.0591224767267704,0.0
1659363693220841169,4.179040431976318,0.05429461598396301,0.0
1659363693253237724,4.174377918243408,0.046643298119306564,0.0
1659363693313244819,4.1714186668396,0.04207642748951912,0.0
1659363693362444400,4.165110111236572,0.03296045958995819,0.0
1659363693418651342,4.1620635986328125,0.028823010623455048,0.0
1659363693462421655,4.157927513122559,0.023478485643863678,0.0
1659363693508300542,4.154891490936279,0.019748803228139877,0.0
1659363693554528713,4.1499924659729,0.014013967476785183,0.0
1659363693603511810,4.146404266357422,0.009990407153964043,0.0
1659363693650792360,4.138848304748535,0.0018437496619299054,0.0
1659363693694909095,4.13452672958374,-0.0026387323159724474,0.0
1659363693738657474,4.128787517547607,-0.00835360400378704,0.0
1659363693782623291,4.124380111694336,-0.012570399791002274,0.0
1659363693826759338,4.117251873016357,-0.01917758397758007,0.0
1659363693870658159,4.113050937652588,-0.022947002202272415,0.0
1659363693919164657,4.104973793029785,-0.029819533228874207,0.0
1659363693967230796,4.10075044631958,-0.03321099281311035,0.0
1659363694011819362,4.094290733337402,-0.038180455565452576,0.0
1659363694062947273,4.089572906494141,-0.04167696088552475,0.0
1659363694106323242,4.082095623016357,-0.047015924006700516,0.0
1659363694151270866,4.076977252960205,-0.05056173354387283,0.0
1659363694194160938,4.067270755767822,-0.057037148624658585,0.0
1659363694238866090,4.062110424041748,-0.06033674255013466,0.0
1659363694287759304,4.052232265472412,-0.06640302389860153,0.0
1659363694331445455,4.046777248382568,-0.06960971653461456,0.0
1659363694378353357,4.039037227630615,-0.0740218311548233,0.0
1659363694423114061,4.033706188201904,-0.07698594033718109,0.0
1659363694468629598,4.024972438812256,-0.08174652606248856,0.0
1659363694580431938,4.019340991973877,-0.08474182337522507,0.0
1659363694580563545,4.008691310882568,-0.0902111828327179,0.0
1659363694627997875,4.002978801727295,-0.09304864704608917,0.0
1659363694628139734,3.9948973655700684,-0.09697642922401428,0.0
1659363694681857109,3.9890499114990234,-0.09976793825626373,0.0
1659363694713576555,3.9792888164520264,-0.10428819805383682,0.0
1659363694767097711,3.9732820987701416,-0.10697632282972336,0.0
1659363694818694114,3.9622304439544678,-0.11177321523427963,0.0
1659363694872066497,3.9563751220703125,-0.1142379567027092,0.0
1659363694923199415,3.948476552963257,-0.11745792627334595,0.0
1659363694970169067,3.942704200744629,-0.11972355842590332,0.0
1659363695014291763,3.9338910579681396,-0.12303724884986877,0.0
1659363695062386274,3.9282448291778564,-0.12506327033042908,0.0
1659363695111699342,3.9178531169891357,-0.1285449117422104,0.0
1659363695159034013,3.912266969680786,-0.13027139008045197,0.0
1659363695206789731,3.904723644256592,-0.13243110477924347,0.0
1659363695250952243,3.899291753768921,-0.13386863470077515,0.0
1659363695294603109,3.8889060020446777,-0.13636325299739838,0.0
1659363695342025279,3.883043050765991,-0.13763156533241272,0.0
1659363695390531539,3.873952627182007,-0.13941487669944763,0.0
1659363695434559345,3.8680713176727295,-0.1404586285352707,0.0
1659363695482444286,3.8572704792022705,-0.14216159284114838,0.0
1659363695541024446,3.8512535095214844,-0.14299538731575012,0.0
1659363695541193723,3.842510223388672,-0.14406244456768036,0.0
1659363695590535879,3.8364436626434326,-0.14470016956329346,0.0
1659363695615109443,3.827873945236206,-0.1454848051071167,0.0
1659363695670347690,3.821793556213379,-0.1459713727235794,0.0
1659363695715430498,3.8130288124084473,-0.14653411507606506,0.0
1659363695762383222,3.8071625232696533,-0.14679652452468872,0.0
1659363695807040452,3.797699451446533,-0.14703622460365295,0.0
1659363695853790760,3.7922325134277344,-0.14707553386688232,0.0
1659363695899806261,3.8022289276123047,-0.14723987877368927,0.0
1659363695956442117,3.797322988510132,-0.14703254401683807,0.0
1659363696007307052,3.790048360824585,-0.14656762778759003,0.0
1659363696050361633,3.7856099605560303,-0.14618805050849915,0.0
1659363696095873594,3.7808780670166016,-0.14568692445755005,0.0
1659363696256137609,3.778817892074585,-0.14543591439723969,0.0
1659363696256246566,3.773221015930176,-0.14470522105693817,0.0
1659363696356628656,3.7695868015289307,-0.1441935896873474,0.0
1659363696356766223,3.766160011291504,-0.1436631828546524,0.0
1659363696360735893,3.7644124031066895,-0.14337140321731567,0.0
1659363696360892057,3.7629663944244385,-0.1431185007095337,0.0
1659363696393455505,3.7626426219940186,-0.1430603712797165,0.0
1659363696441960334,3.7624683380126953,-0.14302891492843628,0.0
1659363696497976064,3.7624683380126953,-0.14302891492843628,0.0
1659363696542315721,3.7624683380126953,-0.14302891492843628,0.0
1659363696591000795,3.7624683380126953,-0.14302891492843628,0.0
1659363696638283014,3.7624435424804688,-0.14302441477775574,0.0
1659363696682910203,3.7624435424804688,-0.14302441477775574,0.0
1659363696729397535,3.7624435424804688,-0.14302441477775574,0.0
1659363696780601263,3.7624683380126953,-0.14302891492843628,0.0
1659363696836932659,3.7624435424804688,-0.14302441477775574,0.0
1659363696882555246,3.7624435424804688,-0.14302441477775574,0.0
1659363696927814483,3.7624435424804688,-0.14302441477775574,0.0
1659363696981534957,3.7624683380126953,-0.14302891492843628,0.0
1659363697030604839,3.7624435424804688,-0.14302441477775574,0.0
1659363697078355789,3.7624683380126953,-0.14302891492843628,0.0
1659363697126790761,3.7624683380126953,-0.14302891492843628,0.0
1659363697174392461,3.7624435424804688,-0.14302441477775574,0.0
1659363697218680858,3.7624683380126953,-0.14302891492843628,0.0
1659363697267191648,3.7624435424804688,-0.14302441477775574,0.0
1659363697310623407,3.7624435424804688,-0.14302441477775574,0.0
1659363697354599714,3.7624683380126953,-0.14302891492843628,0.0
1659363697402163028,3.7624435424804688,-0.14302441477775574,0.0
1659363697451495647,3.7624435424804688,-0.14302441477775574,0.0
1659363697451595544,3.7624683380126953,-0.14302891492843628,0.0
1659363697499165534,3.7624435424804688,-0.14302441477775574,0.0
1659363697545152187,3.7624435424804688,-0.14302441477775574,0.0
1659363697600696802,3.7624435424804688,-0.14302441477775574,0.0
1659363697650395870,3.7624435424804688,-0.14302441477775574,0.0
1659363697697088241,3.7624683380126953,-0.14302891492843628,0.0
1659363697742234230,3.7624435424804688,-0.14302441477775574,0.0
1659363697786436796,3.7624435424804688,-0.14302441477775574,0.0
1659363697830767631,3.7624435424804688,-0.14302441477775574,0.0
1659363697874593496,3.7624435424804688,-0.14302441477775574,0.0
1659363697919000864,3.7624435424804688,-0.14302441477775574,0.0
1659363697966783046,3.7624683380126953,-0.14302891492843628,0.0
1659363698010351657,3.7624435424804688,-0.14302441477775574,0.0
1659363698054723739,3.7624683380126953,-0.14302891492843628,0.0
1659363698099054813,3.7624435424804688,-0.14302441477775574,0.0
1659363698147533893,3.7624683380126953,-0.14302891492843628,0.0
1659363698147775411,3.7624435424804688,-0.14302441477775574,0.0
1659363698199611186,3.7624435424804688,-0.14302441477775574,0.0
1659363698229673624,3.7624683380126953,-0.14302891492843628,0.0
1659363698279732704,3.7624435424804688,-0.14302441477775574,0.0
1659363698325996875,3.7624683380126953,-0.14302891492843628,0.0
1659363698372519254,3.7624435424804688,-0.14302441477775574,0.0
1659363698422427177,3.7624435424804688,-0.14302441477775574,0.0
1659363698466411113,3.7624435424804688,-0.14302441477775574,0.0
1659363698516192436,3.7624683380126953,-0.14302891492843628,0.0
1659363698568644285,3.7624435424804688,-0.14302441477775574,0.0
1659363698614110708,3.7624435424804688,-0.14302441477775574,0.0
1659363698662599086,3.7624683380126953,-0.14302891492843628,0.0
1659363698706239938,3.7624435424804688,-0.14302441477775574,0.0
1659363698754749536,3.7624435424804688,-0.14302441477775574,0.0
1659363698799029350,3.7624435424804688,-0.14302441477775574,0.0
1659363698842826843,3.7624435424804688,-0.14302441477775574,0.0
1659363698890464782,3.7624683380126953,-0.14302891492843628,0.0
1659363698938364982,3.7624435424804688,-0.14302441477775574,0.0
1659363698982712984,3.7624435424804688,-0.14302441477775574,0.0
1659363699031764984,3.7624435424804688,-0.14302441477775574,0.0
1659363699032087087,3.7624435424804688,-0.14302441477775574,0.0
1659363699083352327,3.7624435424804688,-0.14302441477775574,0.0
1659363699116507530,3.7624435424804688,-0.14302441477775574,0.0
1659363699172355651,3.7624435424804688,-0.14302441477775574,0.0
1659363699222547292,3.7624435424804688,-0.14302441477775574,0.0
1659363699267595529,3.7624435424804688,-0.14302441477775574,0.0
1659363699311220407,3.7624435424804688,-0.14302441477775574,0.0
1659363699354001998,3.7624435424804688,-0.14302441477775574,0.0
1659363699398319721,3.762418746948242,-0.1430199146270752,0.0
1659363699461054563,3.7624435424804688,-0.14302441477775574,0.0
1659363699506738185,3.762418746948242,-0.1430199146270752,0.0
1659363699550348281,3.7624435424804688,-0.14302441477775574,0.0
1659363699550470352,3.7624435424804688,-0.14302441477775574,0.0
1659363699599803924,3.762418746948242,-0.1430199146270752,0.0
1659363699629107475,3.7624435424804688,-0.14302441477775574,0.0
1659363699685798645,3.762418746948242,-0.1430199146270752,0.0
1659363699730949401,3.7624435424804688,-0.14302441477775574,0.0
1659363699785506248,3.7624435424804688,-0.14302441477775574,0.0
1659363699830206871,3.7624435424804688,-0.14302441477775574,0.0
1659363699874846696,3.7624435424804688,-0.14302441477775574,0.0
1659363699922948122,3.7624435424804688,-0.14302441477775574,0.0
1659363699967582225,3.7624435424804688,-0.14302441477775574,0.0
1659363700011439085,3.762418746948242,-0.1430199146270752,0.0
1659363700058553695,3.7624685764312744,-0.14302890002727509,0.0
1659363700058695316,3.762443780899048,-0.14302439987659454,0.0
1659363700112564086,3.762443780899048,-0.14302439987659454,0.0
1659363700146910190,3.7624189853668213,-0.143019899725914,0.0
1659363700204124212,3.762443780899048,-0.14302439987659454,0.0
1659363700251029491,3.7624189853668213,-0.143019899725914,0.0
1659363700294877767,3.7624189853668213,-0.143019899725914,0.0
1659363700342282772,3.762443780899048,-0.14302439987659454,0.0
1659363700390982627,3.762443780899048,-0.14302439987659454,0.0
1659363700439600944,3.7624189853668213,-0.143019899725914,0.0
1659363700483730077,3.762443780899048,-0.14302439987659454,0.0
1659363700529187917,3.762443780899048,-0.14302439987659454,0.0
1659363700574618816,3.762443780899048,-0.14302439987659454,0.0
1659363700618132114,3.7624189853668213,-0.143019899725914,0.0
1659363700668486833,3.7624189853668213,-0.143019899725914,0.0
