%time,field.x,field.y,field.z
1659366376447530508,-0.7199750542640686,3.056981325149536,0.0
1659366376471933841,-0.7199750542640686,3.056981325149536,0.0
1659366376523114442,-0.7199750542640686,3.056981325149536,0.0
1659366376579025506,-0.7199750542640686,3.056981325149536,0.0
1659366376628880500,-0.7199750542640686,3.056981325149536,0.0
1659366376664516210,-0.7199750542640686,3.056981325149536,0.0
1659366376712336301,-0.7199750542640686,3.056981325149536,0.0
1659366376752245664,-0.7199750542640686,3.056981325149536,0.0
1659366376802607059,-0.7199750542640686,3.056981325149536,0.0
1659366376836652040,-0.7199750542640686,3.056981325149536,0.0
1659366376910201787,-0.7199750542640686,3.056981325149536,0.0
1659366376918845891,-0.7199750542640686,3.056981325149536,0.0
1659366376970777273,-0.7199750542640686,3.056981325149536,0.0
1659366376999286890,-0.7199750542640686,3.056981325149536,0.0
1659366377049541234,-0.7199750542640686,3.056981325149536,0.0
1659366377100471258,-0.7199750542640686,3.056981325149536,0.0
1659366377150808811,-0.7199750542640686,3.056981325149536,0.0
1659366377194837331,-0.7199750542640686,3.056981325149536,0.0
1659366377238924741,-0.7199750542640686,3.056981325149536,0.0
1659366377282783985,-0.7199750542640686,3.056981325149536,0.0
1659366377326504945,-0.7199750542640686,3.056981325149536,0.0
1659366377371742486,-0.7199750542640686,3.056981325149536,0.0
1659366377420333623,-0.7199750542640686,3.056981325149536,0.0
1659366377470256567,-0.7199750542640686,3.056981325149536,0.0
1659366377515115022,-0.7199750542640686,3.056981325149536,0.0
1659366377558484315,-0.7199750542640686,3.056981325149536,0.0
1659366377603257179,-0.7199750542640686,3.056981325149536,0.0
1659366377646275281,-0.7199763655662537,3.0569560527801514,0.0
1659366377691123008,-0.7199750542640686,3.056981325149536,0.0
1659366377734382390,-0.7199750542640686,3.056981325149536,0.0
1659366377778470516,-0.7199750542640686,3.056981325149536,0.0
1659366377822742938,-0.7199750542640686,3.056981325149536,0.0
1659366377866306781,-0.7199750542640686,3.056981325149536,0.0
1659366377914386987,-0.7199750542640686,3.056981325149536,0.0
1659366377964252948,-0.7199750542640686,3.056981325149536,0.0
1659366377964729785,-0.7199750542640686,3.056981325149536,0.0
1659366378011615514,-0.7199750542640686,3.056981325149536,0.0
1659366378056935310,-0.7199750542640686,3.056981325149536,0.0
1659366378114920139,-0.7199750542640686,3.056981325149536,0.0
1659366378158478260,-0.7199750542640686,3.056981325149536,0.0
1659366378217921018,-0.7199750542640686,3.056981325149536,0.0
1659366378262378454,-0.7199750542640686,3.056981325149536,0.0
1659366378306368827,-0.7199750542640686,3.056981325149536,0.0
1659366378350389003,-0.7199750542640686,3.056981325149536,0.0
1659366378394282341,-0.7199750542640686,3.056981325149536,0.0
1659366378442296028,-0.7199750542640686,3.056981325149536,0.0
1659366378489917278,-0.7199750542640686,3.056981325149536,0.0
1659366378534246444,-0.7199750542640686,3.056981325149536,0.0
1659366378578949451,-0.7199750542640686,3.056981325149536,0.0
1659366378622608423,-0.7199750542640686,3.056981325149536,0.0
1659366378666217327,-0.7199750542640686,3.056981325149536,0.0
1659366378717983484,-0.7199750542640686,3.056981325149536,0.0
1659366378768491983,-0.7199750542640686,3.056981325149536,0.0
1659366378826040506,-0.7199750542640686,3.056981325149536,0.0
1659366378870941638,-0.7199750542640686,3.056981325149536,0.0
1659366378920521974,-0.7199750542640686,3.056981325149536,0.0
1659366378966137409,-0.7199750542640686,3.056981325149536,0.0
1659366379010746955,-0.7199750542640686,3.056981325149536,0.0
1659366379054486989,-0.7199750542640686,3.056981325149536,0.0
1659366379102469205,-0.7199910879135132,3.056678056716919,0.0
1659366379146337270,-0.7201676964759827,3.0533671379089355,0.0
1659366379194584369,-0.7203831076622009,3.0493738651275635,0.0
1659366379240680932,-0.7206609845161438,3.0442686080932617,0.0
1659366379240887880,-0.7211002707481384,3.036282539367676,0.0
1659366379291162252,-0.7214504480361938,3.02988862991333,0.0
1659366379314309358,-0.72203528881073,3.0187673568725586,0.0
1659366379362639904,-0.7223848104476929,3.0117650032043457,0.0
1659366379419216632,-0.7227000594139099,3.005267858505249,0.0
1659366379466581821,-0.7231430411338806,2.9962427616119385,0.0
1659366379533196449,-0.723468542098999,2.989619255065918,0.0
1659366379533714294,-0.7240201830863953,2.9779133796691895,0.0
1659366379578138589,-0.7243360280990601,2.971036195755005,0.0
1659366379625538825,-0.7246515154838562,2.9641082286834717,0.0
1659366379671184301,-0.7251543402671814,2.9537429809570312,0.0
1659366379714260339,-0.7255431413650513,2.946768045425415,0.0
1659366379758284091,-0.72632896900177,2.935075521469116,0.0
1659366379802779436,-0.7269131541252136,2.927834987640381,0.0
1659366379846326351,-0.7285981774330139,2.9130735397338867,0.0
1659366379891331911,-0.7296262383460999,2.906189441680908,0.0
1659366379946972370,-0.7307066917419434,2.899338960647583,0.0
1659366379994268178,-0.7322612404823303,2.889488458633423,0.0
1659366380043914318,-0.7332932353019714,2.8829121589660645,0.0
1659366380090182065,-0.7351677417755127,2.8710365295410156,0.0
1659366380138391971,-0.7361946105957031,2.8645362854003906,0.0
1659366380186498403,-0.7372658848762512,2.857710123062134,0.0
1659366380186584472,-0.7387074828147888,2.8485848903656006,0.0
1659366380231525897,-0.7398067116737366,2.8417375087738037,0.0
1659366380248848676,-0.7413303256034851,2.8322408199310303,0.0
1659366380301981925,-0.7422908544540405,2.8262939453125,0.0
1659366380352297544,-0.7441942095756531,2.8155009746551514,0.0
1659366380402337789,-0.7453784346580505,2.8092851638793945,0.0
1659366380446341037,-0.747382640838623,2.7988195419311523,0.0
1659366380490625858,-0.7486560344696045,2.792234182357788,0.0
1659366380534506559,-0.7510878443717957,2.7802534103393555,0.0
1659366380578199386,-0.7525173425674438,2.7739076614379883,0.0
1659366380626841068,-0.7542144656181335,2.7671310901641846,0.0
1659366380674559831,-0.7565323710441589,2.7583189010620117,0.0
1659366380718409061,-0.7581772804260254,2.7521302700042725,0.0
1659366380718513488,-0.7612064480781555,2.7409145832061768,0.0
1659366380768602132,-0.7629663348197937,2.734494686126709,0.0
1659366380801542997,-0.7655977010726929,2.7248756885528564,0.0
1659366380851958751,-0.76735520362854,2.718560218811035,0.0
1659366380898352146,-0.7698550224304199,2.710087776184082,0.0
1659366380942609548,-0.7716478705406189,2.7042572498321533,0.0
1659366380986310720,-0.7747118473052979,2.6943955421447754,0.0
1659366381030223608,-0.7766523957252502,2.6881868839263916,0.0
1659366381075450181,-0.7809690833091736,2.674102783203125,0.0
1659366381119509696,-0.7828484773635864,2.6678225994110107,0.0
1659366381162489652,-0.7858328819274902,2.657804250717163,0.0
1659366381209976911,-0.7877914905548096,2.651230573654175,0.0
1659366381255940437,-0.7897667288780212,2.644714832305908,0.0
1659366381302205801,-0.7924703359603882,2.6360397338867188,0.0
1659366381346309661,-0.7944037318229675,2.6298818588256836,0.0
1659366381390377283,-0.7977355718612671,2.6193349361419678,0.0
1659366381434287309,-0.7997484803199768,2.6130430698394775,0.0
1659366381479360342,-0.8018960356712341,2.6063690185546875,0.0
1659366381479848623,-0.8045362830162048,2.598151922225952,0.0
1659366381531041622,-0.8065502643585205,2.5918869972229004,0.0
1659366381551205635,-0.810157060623169,2.5811100006103516,0.0
1659366381600116729,-0.812325119972229,2.574977159500122,0.0
1659366381656933307,-0.8175487518310547,2.560690402984619,0.0
1659366381706433057,-0.8200523853302002,2.554060459136963,0.0
1659366381765639781,-0.8225358724594116,2.54774808883667,0.0
1659366381814366579,-0.8264142274856567,2.538478374481201,0.0
1659366381858947753,-0.8289790749549866,2.532583236694336,0.0
1659366381906554937,-0.8336168527603149,2.5220143795013428,0.0
1659366381950367689,-0.8364242315292358,2.515700578689575,0.0
1659366381998498916,-0.8407724499702454,2.5060555934906006,0.0
1659366382042140960,-0.8435765504837036,2.499962568283081,0.0
1659366382092222690,-0.8490004539489746,2.488837480545044,0.0
1659366382142174243,-0.8521531224250793,2.482717275619507,0.0
1659366382142257690,-0.8565095663070679,2.474341630935669,0.0
1659366382186221837,-0.8596615791320801,2.468278169631958,0.0
1659366382238801479,-0.8628102540969849,2.4622128009796143,0.0
1659366382282265424,-0.8675503134727478,2.453009605407715,0.0
1659366382333788871,-0.8705697655677795,2.4470770359039307,0.0
1659366382378558397,-0.8757283687591553,2.4367239475250244,0.0
1659366382422039031,-0.8788203001022339,2.430403232574463,0.0
1659366382468164920,-0.8817577958106995,2.4243171215057373,0.0
1659366382468297004,-0.8853961825370789,2.4166862964630127,0.0
1659366382514605998,-0.8880754113197327,2.4110097885131836,0.0
1659366382543422698,-0.8927602767944336,2.4010181427001953,0.0
1659366382593147039,-0.8955708742141724,2.3949837684631348,0.0
1659366382650401830,-0.9017278552055359,2.3815178871154785,0.0
1659366382705025434,-0.9045960307121277,2.3751204013824463,0.0
1659366382756325960,-0.9074235558509827,2.368760108947754,0.0
1659366382808568716,-0.9111577272415161,2.3603100776672363,0.0
1659366382854496717,-0.9138852953910828,2.354044198989868,0.0
1659366382902868747,-0.9177116751670837,2.3443708419799805,0.0
1659366382946280717,-0.9200100898742676,2.337881326675415,0.0
1659366382990117311,-0.9232760667800903,2.328378677368164,0.0
1659366383036000728,-0.9255067706108093,2.3217854499816895,0.0
1659366383036508560,-0.9285373687744141,2.3127641677856445,0.0
1659366383078770875,-0.9308042526245117,2.306022882461548,0.0
1659366383106865882,-0.9338061809539795,2.297419786453247,0.0
1659366383156897783,-0.9359651803970337,2.2914717197418213,0.0
1659366383217814207,-0.9379686117172241,2.285898208618164,0.0
1659366383266649484,-0.9408987760543823,2.2775113582611084,0.0
1659366383310386896,-0.9428049921989441,2.271930456161499,0.0
1659366383354523420,-0.9463386535644531,2.2611825466156006,0.0
1659366383402768373,-0.9483411312103271,2.2548606395721436,0.0
1659366383450271844,-0.9527210593223572,2.2410879135131836,0.0
1659366383494237184,-0.9548076391220093,2.2345802783966064,0.0
1659366383542482852,-0.9567707180976868,2.2284584045410156,0.0
1659366383586421012,-0.959995448589325,2.2186214923858643,0.0
1659366383630316257,-0.9621807336807251,2.2120397090911865,0.0
1659366383674357175,-0.96592777967453,2.200509548187256,0.0
1659366383718431472,-0.9680702090263367,2.193754196166992,0.0
1659366383813744544,-0.9709981679916382,2.184353828430176,0.0
1659366383813900232,-0.9730377197265625,2.177698850631714,0.0
1659366383858489751,-0.9764764904975891,2.166337251663208,0.0
1659366383871740579,-0.9783232808113098,2.160205841064453,0.0
1659366383934098720,-0.9828412532806396,2.145230531692505,0.0
1659366383982409238,-0.9848612546920776,2.138543128967285,0.0
1659366384038534879,-0.9868679642677307,2.1319046020507812,0.0
1659366384082114458,-0.9898011684417725,2.122267484664917,0.0
1659366384130601644,-0.9917670488357544,2.115907669067383,0.0
1659366384174084186,-0.9952148199081421,2.10507869720459,0.0
1659366384223356008,-0.9971550107002258,2.099108934402466,0.0
1659366384223520994,-1.000084638595581,2.0901341438293457,0.0
1659366384270733594,-1.0020296573638916,2.084219217300415,0.0
1659366384310075283,-1.00538170337677,2.0741043090820312,0.0
1659366384362645387,-1.0074597597122192,2.0678601264953613,0.0
1659366384406347036,-1.0110208988189697,2.0571212768554688,0.0
1659366384454695940,-1.0130168199539185,2.0510365962982178,0.0
1659366384498416185,-1.0170029401779175,2.0387322902679443,0.0
1659366384550693273,-1.0189332962036133,2.0327329635620117,0.0
1659366384594307899,-1.0219539403915405,2.0232291221618652,0.0
1659366384638350009,-1.0238983631134033,2.0170748233795166,0.0
1659366384682185173,-1.0270278453826904,2.0071804523468018,0.0
1659366384726295471,-1.0292174816131592,2.000307321548462,0.0
1659366384774574995,-1.033545970916748,1.987129807472229,0.0
1659366384820084333,-1.0355485677719116,1.9812341928482056,0.0
1659366384870457410,-1.0399792194366455,1.9690560102462769,0.0
1659366384918832302,-1.0424095392227173,1.9627231359481812,0.0
1659366384962477922,-1.0476497411727905,1.9491456747055054,0.0
1659366385011000871,-1.0500792264938354,1.9429209232330322,0.0
1659366385068084716,-1.0556763410568237,1.9290215969085693,0.0
1659366385119572639,-1.0581912994384766,1.923105001449585,0.0
1659366385171778202,-1.0628278255462646,1.912480354309082,0.0
1659366385221594572,-1.0652968883514404,1.9067643880844116,0.0
1659366385267332077,-1.0690581798553467,1.8979398012161255,0.0
1659366385314459562,-1.071479320526123,1.8922308683395386,0.0
1659366385359295606,-1.0764774084091187,1.8806043863296509,0.0
1659366385406352043,-1.0783747434616089,1.876185417175293,0.0
1659366385462162971,-1.0805715322494507,1.8711237907409668,0.0
1659366385506288290,-1.0839260816574097,1.8638352155685425,0.0
1659366385553470373,-1.0865869522094727,1.8582900762557983,0.0
1659366385598494291,-1.090826392173767,1.8496004343032837,0.0
1659366385642225742,-1.093886375427246,1.843376874923706,0.0
1659366385686547994,-1.1000152826309204,1.8310471773147583,0.0
1659366385730241298,-1.1023961305618286,1.8263516426086426,0.0
1659366385778937101,-1.1064351797103882,1.8185242414474487,0.0
1659366385823078632,-1.1088495254516602,1.813960075378418,0.0
1659366385866831779,-1.1118720769882202,1.808516502380371,0.0
1659366385915464639,-1.1141833066940308,1.8045316934585571,0.0
1659366385915589570,-1.117875337600708,1.7983051538467407,0.0
1659366385964701175,-1.1204842329025269,1.7939965724945068,0.0
1659366386021378993,-1.1266826391220093,1.7842005491256714,0.0
1659366386071130037,-1.129620909690857,1.7797409296035767,0.0
1659366386126782894,-1.1325880289077759,1.7753005027770996,0.0
1659366386170270204,-1.1365493535995483,1.7695465087890625,0.0
1659366386214343070,-1.1393462419509888,1.7656655311584473,0.0
1659366386258543014,-1.1437002420425415,1.759787678718567,0.0
1659366386306432485,-1.1465544700622559,1.755980372428894,0.0
1659366386350389003,-1.152439832687378,1.7481820583343506,0.0
1659366386398151636,-1.1552698612213135,1.7444833517074585,0.0
1659366386442389965,-1.1609861850738525,1.73735511302948,0.0
1659366386495182037,-1.1638050079345703,1.733971357345581,0.0
1659366386538347244,-1.167659044265747,1.7292759418487549,0.0
1659366386586203336,-1.170376181602478,1.7259396314620972,0.0
1659366386630468130,-1.1732021570205688,1.7225618362426758,0.0
1659366386674705505,-1.1765083074569702,1.7186951637268066,0.0
1659366386722974300,-1.1793392896652222,1.715354561805725,0.0
1659366386723040342,-1.1837458610534668,1.7099993228912354,0.0
1659366386766922235,-1.186477780342102,1.7066750526428223,0.0
1659366386817320346,-1.1915432214736938,1.700749397277832,0.0
1659366386868204832,-1.1942989826202393,1.6976451873779297,0.0
1659366386914451122,-1.1982933282852173,1.6932722330093384,0.0
1659366386958942174,-1.20145845413208,1.689925193786621,0.0
1659366387008679151,-1.2046133279800415,1.6867088079452515,0.0
1659366387054391384,-1.2097690105438232,1.6816636323928833,0.0
1659366387102385520,-1.2131106853485107,1.6784929037094116,0.0
1659366387146245956,-1.2201018333435059,1.672110676765442,0.0
1659366387190606355,-1.2232674360275269,1.6693867444992065,0.0
1659366387239050388,-1.2250701189041138,1.6679531335830688,0.0
1659366387282341480,-1.2250295877456665,1.6679834127426147,0.0
1659366387326218128,-1.2263007164001465,1.6670631170272827,0.0
1659366387379351615,-1.2276508808135986,1.6661231517791748,0.0
1659366387422098398,-1.2266955375671387,1.6667433977127075,0.0
1659366387470249176,-1.2247710227966309,1.6679141521453857,0.0
1659366387519541978,-1.2222641706466675,1.6693933010101318,0.0
1659366387562451124,-1.2181484699249268,1.6717814207077026,0.0
1659366387611254692,-1.2149230241775513,1.6736360788345337,0.0
1659366387611371040,-1.2087267637252808,1.6771275997161865,0.0
1659366387654724597,-1.2046840190887451,1.6793359518051147,0.0
1659366387710571527,-1.1946346759796143,1.6844781637191772,0.0
1659366387761861562,-1.1900635957717896,1.6866531372070312,0.0
1659366387825836181,-1.1852922439575195,1.6888175010681152,0.0
1659366387870485305,-1.178655743598938,1.6916444301605225,0.0
1659366387918074846,-1.1739120483398438,1.693551778793335,0.0
1659366387966335535,-1.1644349098205566,1.697184681892395,0.0
1659366388010481357,-1.1594723463058472,1.699016809463501,0.0
1659366388010641574,-1.1517754793167114,1.701696753501892,0.0
1659366388059211730,-1.1470293998718262,1.7032256126403809,0.0
1659366388115804672,-1.141798734664917,1.7048158645629883,0.0
1659366388160875082,-1.1338368654251099,1.7070765495300293,0.0
1659366388206291437,-1.1283832788467407,1.708531379699707,0.0
1659366388250483989,-1.1189661026000977,1.710831642150879,0.0
1659366388298315286,-1.1137275695800781,1.7119935750961304,0.0
1659366388347800493,-1.1052992343902588,1.7137316465377808,0.0
1659366388390245914,-1.0999547243118286,1.7147557735443115,0.0
1659366388390453338,-1.092649221420288,1.7160314321517944,0.0
1659366388440085411,-1.0878474712371826,1.7167797088623047,0.0
1659366388464261293,-1.0798437595367432,1.7178434133529663,0.0
1659366388514729499,-1.0743839740753174,1.7184414863586426,0.0
1659366388566748380,-1.0643266439437866,1.7193578481674194,0.0
1659366388616956233,-1.0588492155075073,1.7197637557983398,0.0
1659366388677538156,-1.0515215396881104,1.720191478729248,0.0
1659366388726493120,-1.0462360382080078,1.7204079627990723,0.0
1659366388770216226,-1.038137674331665,1.7205369472503662,0.0
1659366388818352937,-1.0327469110488892,1.7204704284667969,0.0
1659366388862374067,-1.0271306037902832,1.7202963829040527,0.0
1659366388862509489,-1.020001769065857,1.7199434041976929,0.0
1659366388907837867,-1.014319658279419,1.719561219215393,0.0
1659366388931717634,-1.004386305809021,1.7186797857284546,0.0
1659366388983899831,-0.9984733462333679,1.7180347442626953,0.0
1659366389034925937,-0.987748384475708,1.7167004346847534,0.0
1659366389083930253,-0.9817852973937988,1.7158465385437012,0.0
1659366389130562305,-0.9740650057792664,1.7145955562591553,0.0
1659366389174041748,-0.9681853652000427,1.7135419845581055,0.0
1659366389219548702,-0.955746054649353,1.711079716682434,0.0
1659366389264093637,-0.9500558972358704,1.7098503112792969,0.0
1659366389320502519,-0.9442583322525024,1.7085210084915161,0.0
1659366389366965293,-0.9361931085586548,1.7065527439117432,0.0
1659366389410466194,-0.9307043552398682,1.7051321268081665,0.0
1659366389454393148,-0.9207888245582581,1.7023389339447021,0.0
1659366389502221822,-0.9155163168907166,1.7007123231887817,0.0
1659366389546466112,-0.9066588878631592,1.6977500915527344,0.0
1659366389590723991,-0.901657223701477,1.6959514617919922,0.0
1659366389634398698,-0.894425630569458,1.6931782960891724,0.0
1659366389678348064,-0.8893414735794067,1.6911003589630127,0.0
1659366389723700284,-0.8786255121231079,1.6864198446273804,0.0
1659366389771194458,-0.8736211061477661,1.6840957403182983,0.0
1659366389823589801,-0.8686570525169373,1.6816867589950562,0.0
1659366389866465568,-0.8613612055778503,1.6779979467391968,0.0
1659366389910327911,-0.8564676642417908,1.6754487752914429,0.0
1659366389954935789,-0.8479773998260498,1.6708760261535645,0.0
1659366389998305559,-0.8426718711853027,1.6679177284240723,0.0
1659366390046612501,-0.8343755006790161,1.6631020307540894,0.0
1659366390094394922,-0.8292637467384338,1.660011649131775,0.0
1659366390142281770,-0.8239960670471191,1.6567397117614746,0.0
1659366390186035633,-0.8172613382339478,1.6524252891540527,0.0
1659366390231490612,-0.8120625615119934,1.648998737335205,0.0
1659366390231917858,-0.8044055104255676,1.6438298225402832,0.0
1659366390274472713,-0.799420952796936,1.6404023170471191,0.0
1659366390315493106,-0.7907314896583557,1.6342785358428955,0.0
1659366390372335910,-0.7862290143966675,1.6310021877288818,0.0
1659366390418707132,-0.7769643664360046,1.6239925622940063,0.0
1659366390463000535,-0.7722184658050537,1.620282530784607,0.0
1659366390518893003,-0.7673063278198242,1.6163746118545532,0.0
1659366390569696426,-0.7608392834663391,1.6111286878585815,0.0
1659366390618572473,-0.7562046051025391,1.6073204278945923,0.0
1659366390666302919,-0.7474497556686401,1.5999953746795654,0.0
1659366390714594602,-0.7427637577056885,1.5959726572036743,0.0
1659366390758596420,-0.7380955815315247,1.591890811920166,0.0
1659366390758749485,-0.7322160005569458,1.5866950750350952,0.0
1659366390810450077,-0.7276254892349243,1.5826016664505005,0.0
1659366390829380273,-0.7200916409492493,1.5757628679275513,0.0
1659366390879550218,-0.7155315279960632,1.5715233087539673,0.0
1659366390936914682,-0.7109131813049316,1.5671608448028564,0.0
1659366390983164787,-0.7047359347343445,1.5612422227859497,0.0
1659366391026266098,-0.7001118063926697,1.5567395687103271,0.0
1659366391070558547,-0.6928068995475769,1.549404501914978,0.0
1659366391114161252,-0.6884906888008118,1.5449168682098389,0.0
1659366391158542633,-0.6799765229225159,1.5358641147613525,0.0
1659366391207506656,-0.6757280230522156,1.5312433242797852,0.0
1659366391251215457,-0.6714659929275513,1.5265320539474487,0.0
1659366391294342041,-0.6647960543632507,1.5190505981445312,0.0
1659366391338274478,-0.6607321500778198,1.5144339799880981,0.0
1659366391382449388,-0.653221070766449,1.5056707859039307,0.0
1659366391426723003,-0.649109959602356,1.5007281303405762,0.0
1659366391470363378,-0.6415784955024719,1.4915525913238525,0.0
1659366391515083789,-0.6374694108963013,1.4864773750305176,0.0
1659366391562503576,-0.6310982704162598,1.4784469604492188,0.0
1659366391635106801,-0.6270394325256348,1.47323477268219,0.0
1659366391635241508,-0.621505081653595,1.466028094291687,0.0
1659366391682509899,-0.617635190486908,1.4609260559082031,0.0
1659366391712923049,-0.6121923327445984,1.4536499977111816,0.0
1659366391760408163,-0.6085540056228638,1.4487224817276,0.0
1659366391818773984,-0.6048435568809509,1.4436280727386475,0.0
1659366391862339019,-0.5998309850692749,1.4366018772125244,0.0
1659366391906481742,-0.5960758328437805,1.431228518486023,0.0
1659366391950120449,-0.5907278060913086,1.423356533050537,0.0
1659366391994446516,-0.5870971083641052,1.41786789894104,0.0
1659366392038129806,-0.583440363407135,1.4122751951217651,0.0
1659366392082352161,-0.5778012275695801,1.4035335779190063,0.0
1659366392127121686,-0.5744743943214417,1.3983004093170166,0.0
1659366392170353651,-0.5684736967086792,1.3887089490890503,0.0
1659366392219923019,-0.5651221871376038,1.3832523822784424,0.0
1659366392220044612,-0.5599302649497986,1.3747085332870483,0.0
1659366392269995450,-0.5565006136894226,1.3690032958984375,0.0
1659366392297815561,-0.551668107509613,1.3608046770095825,0.0
1659366392354516029,-0.5482584834098816,1.3549113273620605,0.0
1659366392405454158,-0.5419108271598816,1.3437587022781372,0.0
1659366392455140829,-0.5386885404586792,1.3379918336868286,0.0
1659366392498240947,-0.5343570113182068,1.3300906419754028,0.0
1659366392546105861,-0.5314489006996155,1.3246711492538452,0.0
1659366392601965904,-0.5269186496734619,1.3160722255706787,0.0
1659366392646387815,-0.5239222049713135,1.3102986812591553,0.0
1659366392690639734,-0.5199808478355408,1.302648663520813,0.0
1659366392734497547,-0.5170409679412842,1.2969028949737549,0.0
1659366392734630346,-0.5126829743385315,1.2882153987884521,0.0
1659366392782328605,-0.5098100304603577,1.2823511362075806,0.0
1659366392835188627,-0.5047634840011597,1.271830677986145,0.0
1659366392884746789,-0.502021312713623,1.266015887260437,0.0
1659366392934787988,-0.4982287883758545,1.2578423023223877,0.0
1659366392979801893,-0.4955146610736847,1.2518750429153442,0.0
1659366393023326635,-0.49287956953048706,1.2459832429885864,0.0
1659366393066086769,-0.488493412733078,1.236133337020874,0.0
1659366393109679222,-0.4858541190624237,1.2302156686782837,0.0
1659366393154028654,-0.48124226927757263,1.2196906805038452,0.0
1659366393197596788,-0.4786650538444519,1.213663101196289,0.0
1659366393242353916,-0.4751951992511749,1.205374836921692,0.0
1659366393285711526,-0.4728245139122009,1.1995899677276611,0.0
1659366393329967021,-0.4698033928871155,1.1920205354690552,0.0
1659366393374306201,-0.46791455149650574,1.1871063709259033,0.0
1659366393417778730,-0.4654543399810791,1.1804600954055786,0.0
1659366393461872816,-0.46356645226478577,1.1751946210861206,0.0
1659366393509860038,-0.46060091257095337,1.1666055917739868,0.0
1659366393553795814,-0.45866134762763977,1.1607688665390015,0.0
1659366393602035760,-0.45496153831481934,1.149117112159729,0.0
1659366393645837306,-0.45311278104782104,1.1430126428604126,0.0
1659366393690009593,-0.450553834438324,1.1341357231140137,0.0
1659366393737837791,-0.4489270746707916,1.1281780004501343,0.0
1659366393783253908,-0.44646474719047546,1.1187496185302734,0.0
1659366393825698137,-0.44493597745895386,1.1126354932785034,0.0
1659366393869804620,-0.44217345118522644,1.1008565425872803,0.0
1659366393913781166,-0.44081494212150574,1.094624638557434,0.0
1659366393958475828,-0.43896761536598206,1.0856761932373047,0.0
1659366394002131700,-0.4378199577331543,1.0798399448394775,0.0
1659366394046471595,-0.43607619404792786,1.0702269077301025,0.0
1659366394090209484,-0.4351544678211212,1.0645813941955566,0.0
1659366394138365507,-0.43407025933265686,1.0570659637451172,0.0
1659366394185669422,-0.433390736579895,1.0515391826629639,0.0
1659366394230831623,-0.43241778016090393,1.0423012971878052,0.0
1659366394278627634,-0.4318729043006897,1.036378264427185,0.0
1659366394326360225,-0.43095386028289795,1.0240354537963867,0.0
1659366394370082616,-0.4306178092956543,1.0179955959320068,0.0
1659366394414439916,-0.43025675415992737,1.0094228982925415,0.0
1659366394458183765,-0.4300728738307953,1.003401756286621,0.0
1659366394502363920,-0.42993995547294617,0.9972020387649536,0.0
1659366394545908927,-0.4298686683177948,0.9892548322677612,0.0
1659366394600293636,-0.4298853874206543,0.9834586977958679,0.0
1659366394600455522,-0.43003255128860474,0.9733101725578308,0.0
1659366394650284528,-0.4301840364933014,0.9674147367477417,0.0
1659366394685669660,-0.4303836524486542,0.9620272517204285,0.0
1659366394755844831,-0.4307664632797241,0.9551534056663513,0.0
1659366394802909374,-0.4310999810695648,0.9507112503051758,0.0
1659366394803043127,-0.43171077966690063,0.9445148706436157,0.0
1659366394847039699,-0.4321940243244171,0.9405450820922852,0.0
1659366394900185108,-0.4333406984806061,0.9328597784042358,0.0
1659366394948555946,-0.43410754203796387,0.9285743832588196,0.0
1659366395017678022,-0.4353369474411011,0.9225996732711792,0.0
1659366395066552400,-0.43633410334587097,0.9183359742164612,0.0
1659366395066626548,-0.43792524933815,0.9122377634048462,0.0
1659366395113462448,-0.4392795264720917,0.9075442552566528,0.0
1659366395167497396,-0.44145655632019043,0.9006139636039734,0.0
1659366395217592716,-0.44309672713279724,0.8957714438438416,0.0
1659366395262274742,-0.44559770822525024,0.8889244198799133,0.0
1659366395306265830,-0.4474497139453888,0.8842132091522217,0.0
1659366395350179672,-0.44952091574668884,0.8792357444763184,0.0
1659366395394418001,-0.452646404504776,0.8721492886543274,0.0
1659366395442585945,-0.45506352186203003,0.8669090270996094,0.0
1659366395442762136,-0.45937445759773254,0.8579446077346802,0.0
1659366395487496376,-0.4621541202068329,0.8524013757705688,0.0
1659366395517951726,-0.46590831875801086,0.8451675176620483,0.0
1659366395567774057,-0.46860644221305847,0.8401235938072205,0.0
1659366395610426664,-0.47296833992004395,0.8321813344955444,0.0
1659366395659014463,-0.4759906828403473,0.8268246650695801,0.0
1659366395702663183,-0.4824468195438385,0.815822422504425,0.0
1659366395751879215,-0.4857039451599121,0.8104861974716187,0.0
1659366395798172473,-0.48999831080436707,0.8036189675331116,0.0
1659366395842301368,-0.49333739280700684,0.7983936071395874,0.0
1659366395888099908,-0.49675458669662476,0.7931584119796753,0.0
1659366395938203334,-0.5018596649169922,0.7855499386787415,0.0
1659366395982383251,-0.5051535367965698,0.7807499766349792,0.0
1659366396026311874,-0.5109190940856934,0.7724894285202026,0.0
1659366396070510149,-0.5145794153213501,0.7673278450965881,0.0
1659366396120650529,-0.5203368067741394,0.7594345808029175,0.0
1659366396166390895,-0.524013876914978,0.7545676231384277,0.0
1659366396210710287,-0.5307154655456543,0.7459920048713684,0.0
1659366396255987167,-0.5342341661453247,0.7416111826896667,0.0
1659366396298240661,-0.5380261540412903,0.7370286583900452,0.0
1659366396342445373,-0.5394542813301086,0.7353525161743164,0.0
1659366396386307477,-0.5403469204902649,0.7343174815177917,0.0
1659366396431375980,-0.5405128002166748,0.7341263294219971,0.0
1659366396431491613,-0.540628969669342,0.7339925169944763,0.0
1659366396484575986,-0.540628969669342,0.7339925169944763,0.0
1659366396532770633,-0.540628969669342,0.7339925169944763,0.0
1659366396580395460,-0.540628969669342,0.7339925169944763,0.0
1659366396631778478,-0.540628969669342,0.7339925169944763,0.0
1659366396691571950,-0.540628969669342,0.7339925169944763,0.0
1659366396736206293,-0.540628969669342,0.7339925169944763,0.0
1659366396783395528,-0.540628969669342,0.7339925169944763,0.0
1659366396826223611,-0.540628969669342,0.7339925169944763,0.0
1659366396875525951,-0.540628969669342,0.7339925169944763,0.0
1659366396920265197,-0.540628969669342,0.7339925169944763,0.0
1659366396976681232,-0.5405128002166748,0.7341262698173523,0.0
1659366397022437095,-0.5387066602706909,0.7362117767333984,0.0
1659366397066296577,-0.5364768505096436,0.7388008832931519,0.0
1659366397110299825,-0.5315537452697754,0.7445818781852722,0.0
1659366397154720306,-0.5281636118888855,0.748609721660614,0.0
1659366397201597452,-0.521463930606842,0.7565677165985107,0.0
1659366397250714302,-0.5175037980079651,0.761240541934967,0.0
1659366397294492721,-0.5121852159500122,0.7675820589065552,0.0
1659366397338423490,-0.5082291960716248,0.7723901867866516,0.0
1659366397382541894,-0.501503586769104,0.7806553244590759,0.0
1659366397426845550,-0.4975664019584656,0.7855440974235535,0.0
1659366397471747398,-0.4907452166080475,0.7937963008880615,0.0
1659366397522931098,-0.48685088753700256,0.7983589172363281,0.0
1659366397566241025,-0.4810851812362671,0.8051842451095581,0.0
1659366397610201835,-0.4770057499408722,0.8101202845573425,0.0
1659366397656792402,-0.47066888213157654,0.8178532123565674,0.0
1659366397702122211,-0.4666099548339844,0.8227733373641968,0.0
1659366397746297121,-0.4628427028656006,0.8273434638977051,0.0
1659366397790261507,-0.4582119286060333,0.8330057859420776,0.0
1659366397836246728,-0.4545793831348419,0.8374572396278381,0.0
1659366397836452722,-0.44817543029785156,0.8451676368713379,0.0
1659366397888267278,-0.4443855285644531,0.8496197462081909,0.0
1659366397944912672,-0.44091135263442993,0.8536757826805115,0.0
1659366397994463682,-0.43567487597465515,0.8597882986068726,0.0
1659366398038479089,-0.4321073293685913,0.863964319229126,0.0
1659366398086243152,-0.4265589118003845,0.8705093264579773,0.0
1659366398135447502,-0.422946959733963,0.8747804760932922,0.0
1659366398135566473,-0.41659921407699585,0.88227379322052,0.0
1659366398182743549,-0.4135870337486267,0.8857924342155457,0.0
1659366398239555120,-0.41010627150535583,0.8898094296455383,0.0
1659366398282105445,-0.4047282636165619,0.8960003852844238,0.0
1659366398330381631,-0.40069302916526794,0.9006420969963074,0.0
1659366398379041433,-0.3940264880657196,0.9083957076072693,0.0
1659366398422312498,-0.3900642693042755,0.9130998849868774,0.0
1659366398466349601,-0.3849503993988037,0.9192166328430176,0.0
1659366398510452747,-0.3812568783760071,0.9236176609992981,0.0
1659366398554333448,-0.37311553955078125,0.9332404136657715,0.0
1659366398605167150,-0.3688421845436096,0.9382449388504028,0.0
1659366398650226354,-0.36127808690071106,0.9471625089645386,0.0
1659366398694403648,-0.35696443915367126,0.9522987604141235,0.0
1659366398738237380,-0.3529261648654938,0.9571043848991394,0.0
1659366398786394596,-0.34744980931282043,0.9635777473449707,0.0
1659366398830161333,-0.34407925605773926,0.9675226211547852,0.0
1659366398874307155,-0.3374191224575043,0.9753150343894958,0.0
1659366398918582439,-0.33414167165756226,0.9792060852050781,0.0
1659366398962405681,-0.3299393653869629,0.9841713309288025,0.0
1659366399008596420,-0.3267002999782562,0.9878953695297241,0.0
1659366399054494380,-0.3215273916721344,0.9936936497688293,0.0
1659366399102123022,-0.3182067275047302,0.9973450899124146,0.0
1659366399146255016,-0.3114697337150574,1.0045944452285767,0.0
1659366399194339513,-0.30802759528160095,1.0082019567489624,0.0
1659366399243072032,-0.30285313725471497,1.0135496854782104,0.0
1659366399286689758,-0.2992303967475891,1.0172642469406128,0.0
1659366399331606864,-0.2927289307117462,1.0238276720046997,0.0
1659366399378724575,-0.2897593379020691,1.026764154434204,0.0
1659366399426832675,-0.28570038080215454,1.0307226181030273,0.0
1659366399470158100,-0.282945454120636,1.0333716869354248,0.0
1659366399514186143,-0.2817049026489258,1.0345278978347778,0.0
1659366399559774398,-0.28204360604286194,1.034223198890686,0.0
1659366399601922988,-0.28154823184013367,1.0346564054489136,0.0
1659366399646044254,-0.2802552878856659,1.0357537269592285,0.0
1659366399690214872,-0.2788059413433075,1.036940097808838,0.0
1659366399733825206,-0.27930203080177307,1.036547303199768,0.0
1659366399777885913,-0.28238826990127563,1.0341664552688599,0.0
1659366399831748008,-0.2849404215812683,1.0322540998458862,0.0
1659366399874712228,-0.28905364871025085,1.0293034315109253,0.0
1659366399920016527,-0.2922745645046234,1.0271081924438477,0.0
1659366399962195158,-0.2979623079299927,1.0234586000442505,0.0
1659366400014832019,-0.30167102813720703,1.021227478981018,0.0
1659366400058189630,-0.308790922164917,1.0172613859176636,0.0
1659366400112894296,-0.3126622438430786,1.0152701139450073,0.0
1659366400158496141,-0.31875044107437134,1.0123368501663208,0.0
1659366400202345371,-0.3233811557292938,1.0102300643920898,0.0
1659366400246770858,-0.33135920763015747,1.0068066120147705,0.0
1659366400290321111,-0.33650070428848267,1.0047353506088257,0.0
1659366400334604263,-0.3436223268508911,1.0020289421081543,0.0
1659366400378372907,-0.34817853569984436,1.0004128217697144,0.0
1659366400422537803,-0.35441091656684875,0.9983801245689392,0.0
1659366400466207742,-0.35868147015571594,0.9971126317977905,0.0
1659366400510623216,-0.3658328652381897,0.9952470660209656,0.0
1659366400554076671,-0.3702043890953064,0.9942672252655029,0.0
1659366400600407600,-0.3760940134525299,0.9931288957595825,0.0
1659366400646289110,-0.3804660141468048,0.9924182295799255,0.0
1659366400689730882,-0.3873436748981476,0.9915273189544678,0.0
1659366400733782768,-0.39227983355522156,0.991032600402832,0.0
1659366400777881145,-0.40197429060935974,0.9903379678726196,0.0
1659366400821959495,-0.4075118899345398,0.9900923371315002,0.0
1659366400865774393,-0.41586190462112427,0.9898870587348938,0.0
1659366400909881591,-0.4215819537639618,0.989844560623169,0.0
1659366400953875780,-0.43238887190818787,0.9899724721908569,0.0
1659366400998367547,-0.4382579028606415,0.990161657333374,0.0
1659366401041862964,-0.44692784547805786,0.9906107187271118,0.0
1659366401086089611,-0.452709436416626,0.9910210967063904,0.0
1659366401130795001,-0.4611819386482239,0.9917569756507874,0.0
1659366401173968315,-0.46694740653038025,0.9923524856567383,0.0
1659366401218071222,-0.4754885137081146,0.9934043884277344,0.0
1659366401261859178,-0.4815281331539154,0.9942596554756165,0.0
1659366401305676221,-0.49027764797210693,0.9956464767456055,0.0
1659366401349644184,-0.4960866868495941,0.996663510799408,0.0
1659366401393803834,-0.5043971538543701,0.9982134103775024,0.0
1659366401437804460,-0.5104567408561707,0.9994057416915894,0.0
1659366401481952905,-0.5202378034591675,1.0014759302139282,0.0
1659366401525714397,-0.5262590050697327,1.0028489828109741,0.0
1659366401572722673,-0.5375600457191467,1.005542516708374,0.0
1659366401620714902,-0.5436038374900818,1.0070394277572632,0.0
1659366401666220903,-0.5522509813308716,1.009287714958191,0.0
1659366401709913492,-0.5584036111831665,1.0109692811965942,0.0
1659366401758509635,-0.5676891803741455,1.0136640071868896,0.0
1659366401802435636,-0.5734248757362366,1.0154204368591309,0.0
1659366401848463296,-0.5845839977264404,1.0189989805221558,0.0
1659366401890776395,-0.5905595421791077,1.0210020542144775,0.0
1659366401934295654,-0.5985615849494934,1.0238059759140015,0.0
1659366401978009939,-0.6045022010803223,1.0259851217269897,0.0
1659366402022474527,-0.6135408878326416,1.0294181108474731,0.0
1659366402066187381,-0.6194362044334412,1.0317168235778809,0.0
1659366402110369205,-0.6284002065658569,1.035272240638733,0.0
1659366402154212951,-0.6343375444412231,1.0376709699630737,0.0
1659366402198397874,-0.6422840356826782,1.0409740209579468,0.0
1659366402242660760,-0.6482172608375549,1.0435144901275635,0.0
1659366402286444902,-0.6567463278770447,1.0472577810287476,0.0
1659366402330357313,-0.6626851558685303,1.049911618232727,0.0
1659366402374497175,-0.6714587807655334,1.0539138317108154,0.0
1659366402460102319,-0.6773988604545593,1.0566868782043457,0.0
1659366402460222244,-0.6854378581047058,1.0605275630950928,0.0
1659366402507487535,-0.6911157965660095,1.063320517539978,0.0
1659366402507768392,-0.6984098553657532,1.0670127868652344,0.0
1659366402554920673,-0.7039604783058167,1.0698894262313843,0.0
1659366402578168392,-0.7120068073272705,1.0741652250289917,0.0
1659366402633969306,-0.7176967263221741,1.0772651433944702,0.0
1659366402677963256,-0.7259945869445801,1.0819251537322998,0.0
1659366402724704980,-0.7314682006835938,1.0850999355316162,0.0
1659366402774859666,-0.7385243773460388,1.0892785787582397,0.0
1659366402820042610,-0.7438760995864868,1.0925102233886719,0.0
1659366402861612081,-0.7521306276321411,1.0975931882858276,0.0
1659366402905824184,-0.7573547959327698,1.1008869409561157,0.0
1659366402949785947,-0.7642682194709778,1.105391263961792,0.0
1659366402994264125,-0.7695833444595337,1.1089627742767334,0.0
1659366403037647724,-0.7776935696601868,1.1145453453063965,0.0
1659366403083427190,-0.7828810811042786,1.118168830871582,0.0
1659366403125701665,-0.7920411825180054,1.12459135055542,0.0
1659366403170513153,-0.7972236275672913,1.1282658576965332,0.0
1659366403216387271,-0.8042863011360168,1.1334010362625122,0.0
1659366403258293867,-0.80931556224823,1.1371570825576782,0.0
1659366403301706552,-0.8183943629264832,1.144118309020996,0.0
1659366403346033096,-0.8233141899108887,1.1479756832122803,0.0
1659366403390680551,-0.8299307823181152,1.153278112411499,0.0
1659366403433932304,-0.834879457950592,1.1573421955108643,0.0
1659366403477969408,-0.8425498604774475,1.1637545824050903,0.0
1659366403522467613,-0.8474748134613037,1.1679260730743408,0.0
1659366403566357135,-0.8566626310348511,1.175913691520691,0.0
1659366403611697912,-0.861467719078064,1.180222749710083,0.0
1659366403654458522,-0.8681408166885376,1.1863526105880737,0.0
1659366403699895143,-0.8728262186050415,1.1907546520233154,0.0
1659366403742319345,-0.8801953792572021,1.1978073120117188,0.0
1659366403786532163,-0.8848918676376343,1.202380895614624,0.0
1659366403829631090,-0.8933071494102478,1.2107532024383545,0.0
1659366403876551866,-0.8979443311691284,1.2154581546783447,0.0
1659366403921731948,-0.9052531719207764,1.2229669094085693,0.0
1659366403967285394,-0.909859299659729,1.227737545967102,0.0
1659366404009882926,-0.9170149564743042,1.2352182865142822,0.0
1659366404054120540,-0.9216021299362183,1.240077018737793,0.0
1659366404098060607,-0.930266797542572,1.2493356466293335,0.0
1659366404156135797,-0.9348025321960449,1.254207968711853,0.0
1659366404201878786,-0.9411905407905579,1.261125087738037,0.0
1659366404246182918,-0.9457478523254395,1.2661151885986328,0.0
1659366404290638685,-0.9542720913887024,1.2755032777786255,0.0
1659366404343145608,-0.9587931036949158,1.2804921865463257,0.0
1659366404386250019,-0.965404748916626,1.287856101989746,0.0
1659366404430550813,-0.9698821306228638,1.2929179668426514,0.0
1659366404474216938,-0.9765225052833557,1.3005603551864624,0.0
1659366404519026517,-0.9808345437049866,1.3055983781814575,0.0
1659366404564350366,-0.9890991449356079,1.3153157234191895,0.0
1659366404612606287,-0.9934120774269104,1.320419430732727,0.0
1659366404658433437,-0.9993487596511841,1.327530860900879,0.0
1659366404702463626,-1.0035964250564575,1.3326890468597412,0.0
1659366404746611595,-1.0104868412017822,1.3411136865615845,0.0
1659366404790067672,-1.014696478843689,1.3462703227996826,0.0
1659366404834235191,-1.0227851867675781,1.3561673164367676,0.0
1659366404878837823,-1.0272369384765625,1.3616163730621338,0.0
1659366404928099632,-1.0362719297409058,1.3727012872695923,0.0
1659366404983962059,-1.0407819747924805,1.3782334327697754,0.0
1659366405031874656,-1.0470178127288818,1.385918140411377,0.0
1659366405077632188,-1.0514980554580688,1.3914744853973389,0.0
1659366405122382879,-1.0574294328689575,1.398851990699768,0.0
1659366405165806293,-1.0617029666900635,1.4041848182678223,0.0
1659366405210304260,-1.0683437585830688,1.4125182628631592,0.0
1659366405258149623,-1.0726958513259888,1.4180150032043457,0.0
1659366405302459239,-1.079097867012024,1.4261500835418701,0.0
1659366405345793008,-1.0835000276565552,1.431768536567688,0.0
1659366405389895915,-1.0898436307907104,1.4398529529571533,0.0
1659366405440261125,-1.0941139459609985,1.4452853202819824,0.0
1659366405440385341,-1.0997114181518555,1.45244300365448,0.0
1659366405492373228,-1.1040737628936768,1.458060383796692,0.0
1659366405516212224,-1.110498070716858,1.4664344787597656,0.0
1659366405570826292,-1.1148113012313843,1.4721214771270752,0.0
1659366405617609977,-1.1209572553634644,1.4802305698394775,0.0
1659366405663085460,-1.1252597570419312,1.485893964767456,0.0
1659366405709807157,-1.1332738399505615,1.4964617490768433,0.0
1659366405757760524,-1.137556552886963,1.5021400451660156,0.0
1659366405801780223,-1.1436823606491089,1.510264277458191,0.0
1659366405930161714,-1.1479594707489014,1.5159151554107666,0.0
1659366405930331945,-1.1543793678283691,1.5243563652038574,0.0
1659366405934651613,-1.1586381196975708,1.5299257040023804,0.0
1659366405982339143,-1.1675540208816528,1.5415563583374023,0.0
1659366406038371324,-1.17174232006073,1.5470203161239624,0.0
1659366406086367607,-1.1778382062911987,1.554944634437561,0.0
1659366406130819797,-1.1820695400238037,1.560407280921936,0.0
1659366406174381256,-1.1885348558425903,1.5686213970184326,0.0
1659366406218412399,-1.1928564310073853,1.5740129947662354,0.0
1659366406266563177,-1.1994719505310059,1.58217191696167,0.0
1659366406310591936,-1.2037839889526367,1.5874409675598145,0.0
1659366406359055519,-1.211944341659546,1.5972460508346558,0.0
1659366406404803752,-1.216322660446167,1.6023939847946167,0.0
1659366406449628829,-1.2225749492645264,1.609602451324463,0.0
1659366406497996091,-1.227075457572937,1.6147115230560303,0.0
1659366406545929193,-1.234411597251892,1.6230231523513794,0.0
1659366406590053796,-1.2389791011810303,1.6282081604003906,0.0
1659366406633908033,-1.2477446794509888,1.6380938291549683,0.0
1659366406678908348,-1.2522332668304443,1.6431119441986084,0.0
1659366406721863508,-1.259109616279602,1.6507823467254639,0.0
1659366406771026372,-1.2638447284698486,1.6560553312301636,0.0
1659366406813750267,-1.270706295967102,1.6636369228363037,0.0
1659366406858444690,-1.2754849195480347,1.6688705682754517,0.0
1659366406902324199,-1.2845653295516968,1.6787103414535522,0.0
1659366406947751522,-1.2891789674758911,1.6836484670639038,0.0
1659366406990894317,-1.2948955297470093,1.6897034645080566,0.0
1659366407034622192,-1.299562931060791,1.6945908069610596,0.0
1659366407078037977,-1.3070762157440186,1.7023948431015015,0.0
1659366407122741460,-1.3118983507156372,1.7073792219161987,0.0
1659366407170105695,-1.3215256929397583,1.7171164751052856,0.0
1659366407216822624,-1.3265037536621094,1.7220174074172974,0.0
1659366407262399673,-1.3340039253234863,1.7292624711990356,0.0
1659366407306035757,-1.3389534950256348,1.7339744567871094,0.0
1659366407349957942,-1.346536636352539,1.7411694526672363,0.0
1659366407394508838,-1.3515903949737549,1.7459555864334106,0.0
1659366407438469648,-1.360964059829712,1.754719614982605,0.0
1659366407487893581,-1.3658757209777832,1.7592500448226929,0.0
1659366407537625312,-1.3729722499847412,1.7657796144485474,0.0
1659366407582061290,-1.37802255153656,1.770421028137207,0.0
1659366407625996589,-1.3860301971435547,1.7777169942855835,0.0
1659366407670024156,-1.3911818265914917,1.7823599576950073,0.0
1659366407713719606,-1.4010794162750244,1.7912262678146362,0.0
1659366407758755445,-1.4063314199447632,1.7959089279174805,0.0
1659366407806552171,-1.4135160446166992,1.8022651672363281,0.0
1659366407854310035,-1.418808102607727,1.806902527809143,0.0
1659366407898392915,-1.4266769886016846,1.813783884048462,0.0
1659366407942045688,-1.4319101572036743,1.818373203277588,0.0
1659366407986075162,-1.4422268867492676,1.8273383378982544,0.0
1659366408039208173,-1.4475750923156738,1.8319108486175537,0.0
1659366408082463979,-1.4558749198913574,1.8389902114868164,0.0
1659366408130367994,-1.4612587690353394,1.8435988426208496,0.0
1659366408174459934,-1.4689016342163086,1.850122332572937,0.0
1659366408218489170,-1.4741312265396118,1.8545608520507812,0.0
1659366408262371778,-1.4824213981628418,1.861494779586792,0.0
1659366408307660102,-1.4877971410751343,1.865916132926941,0.0
1659366408354558229,-1.497378945350647,1.8737103939056396,0.0
1659366408398182868,-1.502756118774414,1.8780499696731567,0.0
1659366408446588754,-1.5103791952133179,1.8841201066970825,0.0
1659366408494522094,-1.5158591270446777,1.8884117603302002,0.0
1659366408539374351,-1.5238661766052246,1.8946075439453125,0.0
1659366408583235502,-1.5291848182678223,1.8986941576004028,0.0
1659366408583417654,-1.536645531654358,1.9044378995895386,0.0
1659366408633781909,-1.5423177480697632,1.908812165260315,0.0
1659366408663005590,-1.5495120286941528,1.9143210649490356,0.0
1659366408717523574,-1.5551203489303589,1.9185705184936523,0.0
1659366408761903285,-1.5631040334701538,1.9245884418487549,0.0
1659366408805955886,-1.5686277151107788,1.9287399053573608,0.0
1659366408854461193,-1.5767267942428589,1.9347727298736572,0.0
1659366408898422002,-1.5824335813522339,1.9389749765396118,0.0
1659366408942452907,-1.5918484926223755,1.9458245038986206,0.0
1659366408986854314,-1.5975970029830933,1.9499692916870117,0.0
1659366409030901908,-1.6080154180526733,1.9574178457260132,0.0
1659366409081210136,-1.6137655973434448,1.9614732265472412,0.0
1659366409127088546,-1.6219391822814941,1.9671422243118286,0.0
1659366409172158956,-1.6278512477874756,1.9711862802505493,0.0
1659366409214715957,-1.6369235515594482,1.9774246215820312,0.0
1659366409262190341,-1.6428043842315674,1.9815140962600708,0.0
1659366409306447982,-1.6508044004440308,1.9870779514312744,0.0
1659366409350368976,-1.6567813158035278,1.991206407546997,0.0
1659366409394621133,-1.6653226613998413,1.9970554113388062,0.0
1659366409441382169,-1.6711217164993286,2.0009958744049072,0.0
1659366409487272977,-1.6816792488098145,2.008111000061035,0.0
1659366409534910202,-1.6875314712524414,2.0120177268981934,0.0
1659366409579249382,-1.6955596208572388,2.017268419265747,0.0
1659366409626382827,-1.7015541791915894,2.0210959911346436,0.0
1659366409670156478,-1.7104408740997314,2.026695966720581,0.0
1659366409719549417,-1.7164857387542725,2.030491352081299,0.0
1659366409720043182,-1.7259690761566162,2.0364737510681152,0.0
1659366409769268989,-1.7319810390472412,2.040273904800415,0.0
1659366409818944692,-1.743138074874878,2.0473508834838867,0.0
1659366409874977111,-1.749132513999939,2.0511786937713623,0.0
1659366409918668031,-1.757502555847168,2.056553363800049,0.0
1659366409962295770,-1.7633336782455444,2.060307502746582,0.0
1659366410006329536,-1.7720577716827393,2.065880298614502,0.0
1659366410051480770,-1.7777467966079712,2.0694806575775146,0.0
1659366410094528675,-1.7884224653244019,2.0762767791748047,0.0
1659366410149248600,-1.7944679260253906,2.0801656246185303,0.0
1659366410194478750,-1.8026916980743408,2.085486888885498,0.0
1659366410244239091,-1.8086602687835693,2.0893547534942627,0.0
1659366410288574695,-1.8182954788208008,2.0955698490142822,0.0
1659366410330218791,-1.8241722583770752,2.09934663772583,0.0
1659366410374506473,-1.8322370052337646,2.104541063308716,0.0
1659366410418418407,-1.8381463289260864,2.108360767364502,0.0
1659366410418559312,-1.8462923765182495,2.1136159896850586,0.0
1659366410474218606,-1.8522366285324097,2.1174283027648926,0.0
1659366410522700548,-1.8632460832595825,2.1244542598724365,0.0
1659366410578232049,-1.8692702054977417,2.128282308578491,0.0
1659366410626484394,-1.8786025047302246,2.134171962738037,0.0
1659366410672307968,-1.8846700191497803,2.1379787921905518,0.0
1659366410718665361,-1.89670991897583,2.145458221435547,0.0
1659366410766611099,-1.9027501344680786,2.149165153503418,0.0
1659366410810261487,-1.9111984968185425,2.1543192863464355,0.0
1659366410854812145,-1.9170397520065308,2.1578664779663086,0.0
1659366410915188789,-1.9283331632614136,2.164625644683838,0.0
1659366410967742204,-1.9345039129257202,2.1682629585266113,0.0
1659366411014169692,-1.942744255065918,2.173074245452881,0.0
1659366411058288097,-1.9489243030548096,2.176645278930664,0.0
1659366411102164983,-1.958487629890442,2.1822025775909424,0.0
1659366411146386861,-1.9645743370056152,2.1857829093933105,0.0
1659366411190059423,-1.9759081602096558,2.192373752593994,0.0
1659366411235329627,-1.9820629358291626,2.1958870887756348,0.0
1659366411278271675,-1.990678071975708,2.2007572650909424,0.0
1659366411322338342,-1.9968128204345703,2.2042033672332764,0.0
1659366411366234302,-2.0066728591918945,2.209751605987549,0.0
1659366411411083936,-2.0128915309906006,2.213254928588867,0.0
1659366411454422473,-2.0247490406036377,2.2198987007141113,0.0
1659366411498596429,-2.0309157371520996,2.223339557647705,0.0
1659366411542734861,-2.040215015411377,2.2285423278808594,0.0
1659366411589257478,-2.0464625358581543,2.232046127319336,0.0
1659366411634147167,-2.0550248622894287,2.2368035316467285,0.0
1659366411678146362,-2.0612215995788574,2.240190029144287,0.0
1659366411722247600,-2.0701639652252197,2.245043992996216,0.0
1659366411766251802,-2.076456308364868,2.248466730117798,0.0
1659366411810285806,-2.085387945175171,2.253340721130371,0.0
1659366411854387283,-2.0916526317596436,2.256761074066162,0.0
1659366411898122787,-2.0995984077453613,2.261063575744629,0.0
1659366411942379713,-2.1058478355407715,2.2644059658050537,0.0
1659366411990867137,-2.116016149520874,2.26981258392334,0.0
1659366412035159826,-2.12233567237854,2.2731845378875732,0.0
1659366412078131437,-2.133970260620117,2.2793915271759033,0.0
1659366412122169017,-2.1403462886810303,2.2827651500701904,0.0
1659366412166136264,-2.1495554447174072,2.2876031398773193,0.0
1659366412225104093,-2.1559202671051025,2.2909438610076904,0.0
1659366412271183252,-2.165715456008911,2.296135902404785,0.0
1659366412315001487,-2.171940326690674,2.2994704246520996,0.0
1659366412315239191,-2.180532932281494,2.3040664196014404,0.0
1659366412358942270,-2.186796188354492,2.307382822036743,0.0
1659366412382146835,-2.1952342987060547,2.311783790588379,0.0
1659366412437099933,-2.201555013656616,2.315044641494751,0.0
1659366412482479095,-2.2104597091674805,2.3196451663970947,0.0
1659366412527909040,-2.216856002807617,2.3229801654815674,0.0
1659366412574316740,-2.2284231185913086,2.3289895057678223,0.0
1659366412629637479,-2.234659194946289,2.332193613052368,0.0
1659366412674335241,-2.244020700454712,2.3370132446289062,0.0
1659366412718095541,-2.250270128250122,2.3402469158172607,0.0
1659366412762901306,-2.25996732711792,2.3452439308166504,0.0
1659366412810661792,-2.2662785053253174,2.34846830368042,0.0
1659366412854167699,-2.27812123298645,2.354550838470459,0.0
1659366412902108907,-2.284383773803711,2.357814073562622,0.0
1659366412946001052,-2.2930853366851807,2.3623666763305664,0.0
1659366412990747451,-2.2993905544281006,2.365657329559326,0.0
1659366413034331083,-2.309199094772339,2.370769500732422,0.0
1659366413078996896,-2.3154373168945312,2.3740246295928955,0.0
1659366413122587442,-2.327925682067871,2.3805665969848633,0.0
1659366413174253225,-2.334291696548462,2.3839049339294434,0.0
1659366413221663475,-2.343094825744629,2.388481378555298,0.0
1659366413266096115,-2.34932804107666,2.391690969467163,0.0
1659366413314261436,-2.35929012298584,2.396836757659912,0.0
1659366413358285427,-2.365713596343994,2.400174617767334,0.0
1659366413402503013,-2.37420654296875,2.4045798778533936,0.0
1659366413449325323,-2.380525588989258,2.407844066619873,0.0
1659366413494772434,-2.389338731765747,2.412346124649048,0.0
1659366413542550086,-2.3955273628234863,2.415476083755493,0.0
1659366413542732954,-2.4049038887023926,2.4202661514282227,0.0
1659366413590844869,-2.4112648963928223,2.4235591888427734,0.0
1659366413640011072,-2.423084259033203,2.4296317100524902,0.0
1659366413696310281,-2.4293129444122314,2.4327943325042725,0.0
1659366413746234893,-2.4382858276367188,2.437373399734497,0.0
1659366413790395021,-2.444700241088867,2.440673589706421,0.0
1659366413838189840,-2.4540390968322754,2.445481777191162,0.0
1659366413882544755,-2.4604098796844482,2.448756217956543,0.0
1659366413926201343,-2.4723949432373047,2.454949378967285,0.0
1659366413970459938,-2.4787511825561523,2.458251953125,0.0
1659366414014341592,-2.487302303314209,2.462709665298462,0.0
1659366414058400154,-2.4934897422790527,2.4659523963928223,0.0
1659366414106381416,-2.502744674682617,2.4708123207092285,0.0
1659366414150475740,-2.50872540473938,2.473958969116211,0.0
1659366414194834232,-2.517136812210083,2.4784107208251953,0.0
1659366414238479614,-2.5231881141662598,2.481640100479126,0.0
1659366414286282300,-2.5317976474761963,2.486311674118042,0.0
1659366414336206912,-2.5377368927001953,2.489588499069214,0.0
1659366414336732149,-2.546433448791504,2.494417190551758,0.0
1659366414383795261,-2.5523383617401123,2.497704029083252,0.0
1659366414406772851,-2.5605063438415527,2.5022850036621094,0.0
1659366414464085817,-2.566455602645874,2.505647897720337,0.0
1659366414514329195,-2.574779748916626,2.5104153156280518,0.0
1659366414558708429,-2.5805070400238037,2.5137579441070557,0.0
1659366414602545261,-2.588207721710205,2.518338441848755,0.0
1659366414646133184,-2.5938172340393066,2.521730899810791,0.0
1659366414690394639,-2.6021111011505127,2.5267493724823,0.0
1659366414734354496,-2.60774827003479,2.5301449298858643,0.0
1659366414778241872,-2.6184513568878174,2.5366578102111816,0.0
1659366414840856313,-2.6241772174835205,2.5401992797851562,0.0
1659366414886214256,-2.6320929527282715,2.545156240463257,0.0
1659366414930729389,-2.637547254562378,2.548607110977173,0.0
1659366414978266000,-2.646152973175049,2.5541300773620605,0.0
1659366415027146816,-2.6516590118408203,2.557734251022339,0.0
1659366415027546882,-2.6590137481689453,2.5626723766326904,0.0
1659366415074950933,-2.6643881797790527,2.5663814544677734,0.0
1659366415098929166,-2.6721832752227783,2.571884870529175,0.0
1659366415155148506,-2.6774890422821045,2.5756916999816895,0.0
1659366415199170827,-2.6853208541870117,2.5813615322113037,0.0
1659366415248218774,-2.6906538009643555,2.5852603912353516,0.0
1659366415294624805,-2.7003109455108643,2.592463731765747,0.0
1659366415339950799,-2.705512285232544,2.596411943435669,0.0
1659366415386551380,-2.716038942337036,2.6046040058135986,0.0
1659366415439612627,-2.7210514545440674,2.6086294651031494,0.0
1659366415486278057,-2.728107213973999,2.6143951416015625,0.0
1659366415537003040,-2.732980489730835,2.618431329727173,0.0
1659366415582297086,-2.739548683166504,2.623912811279297,0.0
1659366415626058578,-2.744472026824951,2.628047227859497,0.0
1659366415670532703,-2.752403736114502,2.6348562240600586,0.0
1659366415714776277,-2.7569775581359863,2.63889217376709,0.0
1659366415758716583,-2.7647526264190674,2.6459171772003174,0.0
1659366415802315711,-2.768878936767578,2.649731397628784,0.0
1659366415850345611,-2.7745306491851807,2.6551008224487305,0.0
1659366415894126176,-2.7785303592681885,2.6590113639831543,0.0
1659366415939558744,-2.786247968673706,2.6668283939361572,0.0
1659366415988900184,-2.7903714179992676,2.6711502075195312,0.0
1659366416038512468,-2.7959272861480713,2.6771130561828613,0.0
1659366416088798046,-2.800196647644043,2.6817831993103027,0.0
1659366416150215864,-2.806997060775757,2.689351797103882,0.0
1659366416198523283,-2.8112404346466064,2.694181442260742,0.0
1659366416242973089,-2.8189473152160645,2.703143358230591,0.0
1659366416286363363,-2.8228564262390137,2.7077598571777344,0.0
1659366416286483287,-2.828636884689331,2.714704990386963,0.0
1659366416337204456,-2.8325490951538086,2.7195162773132324,0.0
1659366416361276149,-2.837592124938965,2.725918769836426,0.0
1659366416416895627,-2.8412375450134277,2.7307145595550537,0.0
1659366416466525077,-2.846261739730835,2.7375447750091553,0.0
1659366416514168262,-2.849731683731079,2.7424068450927734,0.0
1659366416558395624,-2.8562564849853516,2.751865863800049,0.0
1659366416603997707,-2.859604835510254,2.756903886795044,0.0
1659366416646283864,-2.864628791809082,2.7647171020507812,0.0
1659366416690856933,-2.867887496948242,2.7699332237243652,0.0
1659366416734768629,-2.8738174438476562,2.779716968536377,0.0
1659366416789692878,-2.8769400119781494,2.7850451469421387,0.0
1659366416857187986,-2.881042242050171,2.792233467102051,0.0
1659366416958031415,-2.8839540481567383,2.797477960586548,0.0
1659366416958247900,-2.887998342514038,2.8050167560577393,0.0
1659366417037070751,-2.8907558917999268,2.8103439807891846,0.0
1659366417037368535,-2.8942601680755615,2.8174209594726562,0.0
1659366417041041374,-2.8969478607177734,2.8230655193328857,0.0
1659366417072336673,-2.900399684906006,2.8305323123931885,0.0
1659366417121645927,-2.902993679046631,2.836331605911255,0.0
1659366417166108131,-2.906665563583374,2.8447813987731934,0.0
1659366417215173006,-2.9091055393218994,2.8505373001098633,0.0
1659366417261723995,-2.9125404357910156,2.8588948249816895,0.0
1659366417306335210,-2.914867639541626,2.8647518157958984,0.0
1659366417354901552,-2.9193663597106934,2.8764450550079346,0.0
1659366417402350425,-2.921492338180542,2.882162570953369,0.0
1659366417462158918,-2.9249515533447266,2.891785144805908,0.0
1659366417510620594,-2.9270215034484863,2.897737979888916,0.0
1659366417554193973,-2.9310102462768555,2.909507989883423,0.0
1659366417598317384,-2.933002471923828,2.915513753890991,0.0
1659366417646085262,-2.935946464538574,2.9245104789733887,0.0
1659366417690780878,-2.9379332065582275,2.930677890777588,0.0
1659366417734596252,-2.94061279296875,2.9392542839050293,0.0
1659366417787067174,-2.9424424171447754,2.945338010787964,0.0
1659366417787147998,-2.9449424743652344,2.9538893699645996,0.0
1659366417834542274,-2.9467098712921143,2.9600706100463867,0.0
1659366417861717700,-2.949119806289673,2.9687793254852295,0.0
1659366417914457321,-2.950824499130249,2.975135564804077,0.0
1659366417962436676,-2.9531400203704834,2.984079122543335,0.0
1659366418011588096,-2.954718589782715,2.9904415607452393,0.0
1659366418062694072,-2.9567787647247314,2.9991354942321777,0.0
1659366418110189199,-2.9581682682037354,3.0052828788757324,0.0
1659366418158718824,-2.960681200027466,3.0169622898101807,0.0
1659366418206194400,-2.9593772888183594,3.01053786277771,0.0
1659366418250409841,-2.9610087871551514,3.0189616680145264,0.0
1659366418295191287,-2.9621431827545166,3.0251352787017822,0.0
1659366418295280933,-2.963805913925171,3.0347113609313965,0.0
1659366418351284265,-2.9647879600524902,3.0406291484832764,0.0
1659366418402688741,-2.9662225246429443,3.0496530532836914,0.0
1659366418460317850,-2.966709852218628,3.052522659301758,0.0
1659366418505762338,-2.965888500213623,3.0486605167388916,0.0
1659366418549844980,-2.9668242931365967,3.052366018295288,0.0
1659366418593888998,-2.9686803817749023,3.0592055320739746,0.0
1659366418638349533,-2.9702019691467285,3.0645620822906494,0.0
1659366418686688661,-2.97295880317688,3.0739614963531494,0.0
1659366418730227708,-2.9745616912841797,3.079373359680176,0.0
