%time,field.x,field.y,field.z
18398000000,-2.000021064759219,-0.4999893349777568,-0.0010013929453900547
18432000000,-2.0000210680744606,-0.49998931546828174,-0.001001392945419538
18467000000,-2.0000210712922084,-0.49998929653257207,-0.0010013929454481471
18497000000,-2.000021074509971,-0.49998927759682044,-0.0010013929454767527
18526000000,-2.0000210778252554,-0.4999892580872144,-0.0010013929455062291
18564000000,-2.000021081043046,-0.4999892391513778,-0.0010013929455348451
18598000000,-2.0000210842608492,-0.4999892202154992,-0.0010013929455634542
18630000000,-2.000021087576176,-0.49998920070576225,-0.0010013929455929202
18664000000,-2.0000210907940064,-0.49998918176979845,-0.0010013929456215466
18702000000,-2.00002109401185,-0.4999891628337929,-0.0010013929456501348
18742000000,-2.000021097327218,-0.49998914332392497,-0.0010013929456796147
18785000000,-2.000021100545089,-0.4999891243878341,-0.0010013929457082342
18819000000,-2.000021103762973,-0.4999891054517012,-0.0010013929457368537
18850000000,-2.0000211070783833,-0.49998908594170227,-0.001001392945766344
18884000000,-2.0000211102962964,-0.49998906700548434,-0.0010013929457949426
18919000000,-2.0000211135142227,-0.4999890480692245,-0.0010013929458235517
18959000000,-2.000021116829676,-0.49998902855909455,-0.001001392945853035
18996000000,-2.0000211200476294,-0.4999890096227495,-0.0010013929458816476
19036000000,-2.0000211232655962,-0.49998899068636254,-0.0010013929459102497
19036000000,-2.000021126581091,-0.49998897117610175,-0.001001392945939733
19066000000,-2.0000211297990855,-0.4999889522396295,-0.0010013929459683525
19095000000,-2.000021133017093,-0.49998893330311545,-0.001001392945996965
19128000000,-2.00002113633263,-0.4999889137927236,-0.0010013929460264553
19164000000,-2.000021139550664,-0.49998889485612436,-0.001001392946055061
19198000000,-2.0000211427687127,-0.49998887591948316,-0.001001392946083677
19232000000,-2.000590290273682,-0.499988802281181,-0.0010018929954563605
19263000000,-2.0021986107608387,-0.4999890619924199,-0.001001959096642236
19302000000,-2.004849438135517,-0.49998952076934555,-0.0010020554727878835
19331000000,-2.008515292891707,-0.499993520413916,-0.0010019221957063597
19364000000,-2.0119193290120516,-0.5000117045650917,-0.0010008551324610995
19397000000,-2.0152738667930237,-0.5000427398170774,-0.0010020362719201127
19431000000,-2.0191820016914885,-0.5001099011160896,-0.0010015742156758885
19464000000,-2.0229750552763357,-0.5002027416744408,-0.001001715629116634
19497000000,-2.026963613185544,-0.5003080934940295,-0.001002181148092498
19530000000,-2.031418645774839,-0.5004474129991736,-0.0010022021237285836
19564000000,-2.035617509642342,-0.5006083382469068,-0.0010009498055161964
19598000000,-2.039701836457429,-0.5007999695849947,-0.0010021708008521937
19631000000,-2.043948013243449,-0.50103435494535,-0.0010021337774121716
19663000000,-2.0479302320226633,-0.5012861252870481,-0.001001614725974393
19697000000,-2.0516755027777243,-0.5015556799426021,-0.0010015977909618133
19734000000,-2.0552788376337547,-0.5018468430774496,-0.0010015939628804822
19775000000,-2.058529310657341,-0.5021391053053691,-0.001001599954905858
19797000000,-2.0615454496052945,-0.502440112705616,-0.0010014886778167247
19831000000,-2.0643984819843535,-0.5027553784204205,-0.0010004560367696605
19867000000,-2.06684054199899,-0.5030627232731443,-0.0010004527899900376
19905000000,-2.0688665989031505,-0.5033530716516174,-0.0010004545412630773
19939000000,-2.0704280445870613,-0.5036097028189934,-0.0010004656147282569
19964000000,-2.071350894284515,-0.5037841704687406,-0.001000483178520424
19997000000,-2.071706166491051,-0.5038633498729177,-0.001000612315371456
20031000000,-2.071506771244285,-0.5038182508769797,-0.001000662069141664
20064000000,-2.0708799179458928,-0.5036487530018038,-0.0010008099295920614
20097000000,-2.0697789041319057,-0.5033076898712339,-0.001000666618975677
20131000000,-2.067976690175563,-0.5026836609863555,-0.0010007670334019787
20164000000,-2.065880734759834,-0.5018946563586559,-0.0010009209580944464
20197000000,-2.0633744693586644,-0.500896576467665,-0.0010010685180595162
20233000000,-2.0602357284295074,-0.49958724708115654,-0.0010012280242228978
20268000000,-2.056738029871621,-0.49807474138442265,-0.0010012186096217505
20297000000,-2.052838189722583,-0.4963581379423557,-0.0010008195281526328
20335000000,-2.048349606262551,-0.49438234660869895,-0.0010010778040735156
20364000000,-2.044263900048877,-0.49259496873988384,-0.0010022233707051298
20397000000,-2.0408705140812664,-0.4911058277137059,-0.0010014603882593648
20431000000,-2.03725188631309,-0.4895028835184429,-0.0010011176710966324
20462000000,-2.034034421754959,-0.48805630412692097,-0.0010017891385225124
20497000000,-2.0309689641387547,-0.48665230732717324,-0.0010013232540554903
20531000000,-2.027662775823432,-0.48510104382240365,-0.0010015036464938037
20567000000,-2.0244030169406657,-0.4835384387354379,-0.0010015880403888497
20602000000,-2.0206697434631904,-0.48173744251212447,-0.0010015830758841743
20637000000,-2.0162137754154625,-0.4795680557827169,-0.0010017457391679682
20668000000,-2.011514404530651,-0.4772324926487195,-0.0010017601393325845
20695000000,-2.0067896876030025,-0.4748163541486893,-0.0010018704076167687
20731000000,-2.0019542728170485,-0.47227018703172785,-0.0010020753799668894
20766000000,-1.9972028216394404,-0.46968968954952245,-0.0010010278073935598
20803000000,-1.992315951738542,-0.4669299716402478,-0.0010011140794029122
20831000000,-1.9871664769007533,-0.4638915692586505,-0.0010011628679112462
20864000000,-1.9820696530020838,-0.46075282976097964,-0.001000662339083476
20893000000,-1.9768712238369448,-0.4574390643457583,-0.0010010166394658453
20931000000,-1.9713922846226037,-0.45381041545909134,-0.0010009698489128055
20964000000,-1.965828922488923,-0.4499578099408364,-0.0010009804468031763
20998000000,-1.9601520994495707,-0.44582230380663235,-0.0010012722600199093
21031000000,-1.9544100085373628,-0.44140722134924154,-0.0010012720367523
21064000000,-1.9491989919938935,-0.4371716634140286,-0.0010011944214451847
21097000000,-1.9442667470190675,-0.43289832803618516,-0.001001335103510012
21131000000,-1.9393289582132824,-0.4283326035290439,-0.0010014412224743328
21163000000,-1.9345070557568296,-0.42358551169524267,-0.0010016374801804472
21197000000,-1.929622820665013,-0.4185194115056802,-0.0010017860361727395
21232000000,-1.924743697047513,-0.41319555854717527,-0.001001100388610239
21265000000,-1.920134690038234,-0.4079008591877599,-0.0010015180165949718
21299000000,-1.9156602227417443,-0.4024824659803237,-0.0010015675339609606
21340000000,-1.9111991062307059,-0.39677974849318204,-0.001001618370266421
21364000000,-1.9071763827342063,-0.39135790674998977,-0.001001070235803269
21397000000,-1.9033785256305684,-0.38597464323711533,-0.001001939495890846
21431000000,-1.899616295251446,-0.3803511690730344,-0.0010013665213610308
21464000000,-1.8960590550555296,-0.3747254930519941,-0.001000799650897246
21497000000,-1.892592138096465,-0.36890645551618323,-0.0010008645226788175
21531000000,-1.8890775515432054,-0.36265243564902083,-0.0010013839972124183
21564000000,-1.885755071661062,-0.35641365278956355,-0.0010017567070499493
21597000000,-1.882573101366319,-0.3501256636785401,-0.0010010270290759585
21631000000,-1.879426983928078,-0.3435736296788507,-0.0010014674124875778
21664000000,-1.8764885041506956,-0.3371231530738623,-0.0010013294582585444
21704000000,-1.8736686590018228,-0.330616430516625,-0.0010013140978214416
21733000000,-1.8708893105009279,-0.32385790259458325,-0.0010013085031942114
21764000000,-1.868309881443533,-0.31724166984246954,-0.0010013358185156362
21797000000,-1.86584725535657,-0.31057933868048593,-0.0010013860459722433
21831000000,-1.8634331429270203,-0.30366930129315556,-0.0010014627615826596
21864000000,-1.8612272848184752,-0.29694420121588805,-0.001001560970609841
21901000000,-1.859142464602335,-0.29015493555189054,-0.0010017059162463655
21935000000,-1.8570611196644318,-0.2830695829785046,-0.001001928084639326
21967000000,-1.8551154369004028,-0.2761712960010863,-0.0010021757896936483
21997000000,-1.853248333213092,-0.26928343728739623,-0.0010015644341959708
22031000000,-1.851399888555238,-0.2621771856928368,-0.0010013061966819801
22064000000,-1.8496690811763894,-0.2552384881486862,-0.0010017555871315864
22097000000,-1.8479905533303713,-0.24825770234459163,-0.0010015667416924286
22133000000,-1.8463225736357645,-0.24105015697322013,-0.0010014705830273009
22166000000,-1.8448364045504804,-0.2343646899811691,-0.0010012861188620943
22204000000,-1.843434772530353,-0.22776849638567653,-0.0010013947848690058
22239000000,-1.8420456242387397,-0.2209556348420425,-0.0010013815215862663
22264000000,-1.8406957919162183,-0.21403942522578992,-0.0010014239659923985
22297000000,-1.8393796761067258,-0.20696910431589338,-0.0010014683273383354
22333000000,-1.8380796178807115,-0.19967125180238818,-0.0010015706641016732
22365000000,-1.8368678571130828,-0.192569753849385,-0.001001695954189235
22403000000,-1.8357032279317238,-0.1854618592701616,-0.0010019269663356194
22431000000,-1.8345561166424988,-0.17816193027491015,-0.0010013676474381929
22464000000,-1.833483730007348,-0.17106294859422583,-0.0010015826348856102
22497000000,-1.832451459709338,-0.16393325025640101,-0.001001777031192714
22532000000,-1.8314355928045705,-0.15658372516276928,-0.0010019352142336783
22564000000,-1.8304961265287902,-0.14945403958682216,-0.0010017094283671993
22600000000,-1.8295980858647667,-0.1423068468370151,-0.0010016433063897677
22631000000,-1.8287181326478223,-0.13493847579400056,-0.0010015330639266892
22664000000,-1.8279040359973553,-0.1277733256646854,-0.001001470770330106
22696000000,-1.8271264412174053,-0.12060242366964222,-0.0010014475961826613
22745000000,-1.8263635327991345,-0.1132088076981876,-0.001001461405825483
22771000000,-1.8256592178257531,-0.10602563237010736,-0.0010015117927938133
22797000000,-1.824989858647996,-0.09883847560299282,-0.0010015878120160394
22831000000,-1.8243368812768308,-0.0914306650607874,-0.0010017386397567288
22864000000,-1.8237344867463263,-0.08423496591192847,-0.0010014546010123603
22904000000,-1.823156474716595,-0.07706828551659108,-0.0010012134400604472
22931000000,-1.8225813218576172,-0.06964431831752341,-0.001001660243205374
22963000000,-1.8220627382014905,-0.0625366480312034,-0.001001046548566236
22994000000,-1.8216070430213027,-0.055714413626849354,-0.001001868885049835
23031000000,-1.8211722568169415,-0.048733269884086175,-0.0010019186583362198
23064000000,-1.8207776985230164,-0.04186604571670579,-0.0010008142571256914
23097000000,-1.8204107200230948,-0.03486664473054638,-0.001000806662932622
23130000000,-1.8200443726669238,-0.02744643225043549,-0.0010015371753102041
23164000000,-1.8196969361669404,-0.020206093614735642,-0.0010015142632729575
23195000000,-1.819357110942899,-0.012964115944612616,-0.0010015070404973576
23231000000,-1.8190149362608736,-0.00550109472546758,-0.0010015426764835751
23264000000,-1.8186898163040048,0.0017453174373735867,-0.001001607354884717
23297000000,-1.8183709178068481,0.008991481282004714,-0.0010017601928258742
23331000000,-1.8180485620411255,0.016435796881131098,-0.0010013621545046786
23363000000,-1.8177371363315833,0.023644736639679698,-0.0010011781110956866
23397000000,-1.817425015814442,0.030892404046031222,-0.0010016042067053886
23431000000,-1.8171067773574803,0.03836335000415734,-0.0010016395758521389
23465000000,-1.8168033922018225,0.045611267247648225,-0.0010016522710024935
23497000000,-1.8165074217629866,0.052860742586258794,-0.0010017558417015418
23530000000,-1.8162093839688906,0.06032392285236351,-0.001001665667478252
23564000000,-1.8159264910729627,0.06756955354377646,-0.0010016131363747433
23599000000,-1.8156484267824116,0.07481569852831187,-0.0010016154763525416
23635000000,-1.8153671346807572,0.08228222853156476,-0.001001548639202477
23664000000,-1.815114996066523,0.08909775102150332,-0.0010020387038271739
23695000000,-1.8148769571540322,0.09582431481067821,-0.00100151918093919
23731000000,-1.814632987477406,0.10284902314026019,-0.001001582141084676
23764000000,-1.8144098825835016,0.1095954690818742,-0.0010017473066836168
23801000000,-1.8141992496594137,0.11658518472390328,-0.0010015395245752332
23832000000,-1.8139709224514216,0.12385584259458927,-0.0010011555685793157
23864000000,-1.813750845435571,0.13058709090495224,-0.0010011838228809154
23901000000,-1.813538362741726,0.13727654527726452,-0.0010016512723739109
23931000000,-1.8133174511704617,0.14427921309886188,-0.00100165858548713
23964000000,-1.8131043380554508,0.15107578042179606,-0.0010017090101401942
23997000000,-1.8128988454044208,0.15791035815257962,-0.0010012243383186042
24035000000,-1.8127138263092892,0.1649946172395422,-0.0010008202391278455
24062000000,-1.8125628615996825,0.17195921749853313,-0.0010008190819716795
24097000000,-1.812427124537972,0.1791246228665318,-0.0010015708634789448
24131000000,-1.8122911972504623,0.18659701678596174,-0.0010015572905666091
24164000000,-1.8121613467561029,0.19385493813075597,-0.0010015461919109583
24197000000,-1.8120317002451072,0.20111384749737546,-0.001001571772354444
24231000000,-1.8118987114646383,0.20859303515286448,-0.0010016394515068236
24264000000,-1.8117699337939261,0.21584932987362138,-0.0010018371153415473
24300000000,-1.8116397644987485,0.22306919443897524,-0.001001146592392508
24331000000,-1.8115002135292169,0.2305150944778506,-0.0010012853006685432
24365000000,-1.8113713993304386,0.23741984692743673,-0.0010015600947767024
24397000000,-1.811251217175364,0.24419147132353716,-0.0010016135056597798
24429000000,-1.8111262848783456,0.25122452708074056,-0.0010016887963870368
24470000000,-1.8110054569522798,0.2577726234200229,-0.0010010368831489883
24509000000,-1.8108765544914833,0.264151708840234,-0.0010013778977328823
24545000000,-1.8107404608111384,0.27068948888072913,-0.0010021588034166105
24576000000,-1.8106133548141359,0.27717624346051567,-0.001001382214971553
24598000000,-1.8105184643791217,0.28406860036515175,-0.0010008511989189131
24630000000,-1.8104564865924782,0.29146229388811373,-0.0010015521983532637
24664000000,-1.8104097481378056,0.2987177333143941,-0.0010015162099948592
24697000000,-1.8103586810778811,0.3059843742933308,-0.0010016193023482597
24731000000,-1.8103001523434137,0.31347135960146566,-0.001001693492457316
24764000000,-1.8102366708477953,0.3207432753430017,-0.001001580125177537
24797000000,-1.8101658429099048,0.32800950574632054,-0.0010014949646456953
24831000000,-1.8100843336177523,0.33549735913463075,-0.0010015718877527668
24866000000,-1.809998118507276,0.3427648402235122,-0.0010015788495589678
24900000000,-1.809906216046381,0.3500333293421987,-0.0010016452784901465
24935000000,-1.8098054085577286,0.357521862529504,-0.0010017086022354946
24961000000,-1.8097017014941605,0.3647891911430594,-0.0010017592774488465
24997000000,-1.8095882606779363,0.3719414217435227,-0.001000959230439375
25031000000,-1.8094492651457414,0.3793080386299221,-0.0010008656818648806
25064000000,-1.8092922306450763,0.38624977927551113,-0.001001191421661704
25097000000,-1.80911416059475,0.39310085915412796,-0.0010015114382507448
25130000000,-1.808907800897066,0.4001595272668763,-0.00100153491223047
25171000000,-1.8086748521379272,0.40731109224353845,-0.0010015725358310627
25202000000,-1.8084059190708195,0.4146076033748894,-0.0010015468961380967
25230000000,-1.8080951433279076,0.4221216958716338,-0.0010018382434606558
25264000000,-1.8077600944564474,0.42939534411151414,-0.0010016244122322548
25292000000,-1.8073901477169994,0.4366222791698533,-0.0010011989828905866
25331000000,-1.8069691834611283,0.44411445977653013,-0.0010016849095637152
25371000000,-1.806528951329217,0.45139777742511805,-0.0010017050946116886
25397000000,-1.8060600595909917,0.45867895660712943,-0.0010017406830047614
25430000000,-1.805547658256005,0.46617756688310746,-0.0010018042253204622
25468000000,-1.8050217573641605,0.4734588438994685,-0.0010018315947071983
25506000000,-1.804474356744866,0.4807211584630758,-0.001001659538670558
25538000000,-1.803886303586363,0.48820436250436455,-0.0010016024444652223
25567000000,-1.8032999459139725,0.49544945967195586,-0.0010015203104311136
25603000000,-1.8027058815242638,0.5026940671565321,-0.0010015094385565637
25632000000,-1.8020856286482545,0.5101588167129655,-0.0010015303073065349
25664000000,-1.80147568645742,0.5174042243053678,-0.001001580835689752
25705000000,-1.8008569588792107,0.524651130434967,-0.0010016763857428924
25748000000,-1.8002099057866139,0.5321136525436423,-0.0010018877862328253
25781000000,-1.7996034256067595,0.5390719286400754,-0.001001735344678411
25808000000,-1.7990256333437713,0.5458722178199822,-0.0010013586284001869
25843000000,-1.7984149526947015,0.5529028819973106,-0.00100170433113754
25873000000,-1.797815694065616,0.5596981113185734,-0.0010006454439089908
25895000000,-1.7972320395451817,0.5665230426437141,-0.0010019455310429845
25931000000,-1.7966427833816847,0.573626528828971,-0.0010009183019592284
25962000000,-1.796091137537701,0.5803747187043993,-0.0010021102012106563
25997000000,-1.7955498261630318,0.5870650129798584,-0.0010009885825959658
26031000000,-1.7949729212036412,0.5940653708278637,-0.0010015750186753367
26064000000,-1.7944168976068253,0.6008109846209141,-0.001001554228865286
26098000000,-1.793871580842061,0.6077140709779089,-0.0010010719813098937
26131000000,-1.7932699672117283,0.6151888063978522,-0.0010015518218868362
26164000000,-1.792660662669695,0.622454902792559,-0.0010016149616724063
26197000000,-1.7920269573726144,0.629718841681376,-0.001001727212799411
26231000000,-1.791348902530901,0.6371945681967027,-0.0010018995207762976
26264000000,-1.7906983307849589,0.6441613507994726,-0.0010016876865492179
26300000000,-1.7900612336383526,0.6509559053077777,-0.0010016037607690105
26331000000,-1.789380683980419,0.6579880148925643,-0.0010017187553593085
26364000000,-1.7886791805700646,0.6649923919425262,-0.0010019810285524892
26397000000,-1.7879352370835884,0.6721617948323296,-0.0010020387313639904
26432000000,-1.7871316565457775,0.6795766526206866,-0.0010009097571031834
26469000000,-1.7863050353379168,0.686833441156189,-0.0010016127393239899
26499000000,-1.7854323036213338,0.694094128714972,-0.0010015763705940525
26534000000,-1.784485860839919,0.7015699254045586,-0.0010015048470314106
26566000000,-1.7835314076380495,0.7088006127398452,-0.001001477996672516
26599000000,-1.7825498228293326,0.7160282675551404,-0.0010014947895083497
26633000000,-1.781510032595507,0.7234723398746753,-0.0010015581418248536
26664000000,-1.7804613070449433,0.7307190935952507,-0.0010016559935498472
26696000000,-1.7793640813199165,0.7379589507174952,-0.0010017828746573462
26731000000,-1.7781836856080655,0.745406235235655,-0.0010020090628634626
26765000000,-1.7769797234140583,0.7526418490024511,-0.0010014933329125057
26798000000,-1.7757135462902773,0.759855299795855,-0.0010017754718139767
26831000000,-1.7743417641820034,0.7672878364539559,-0.0010018982594838279
26865000000,-1.7729752152054674,0.7743082919449487,-0.0010019312585598482
26897000000,-1.771575173455553,0.7810230576940879,-0.0010021846722904314
26934000000,-1.7701018549676897,0.787659916248229,-0.0010013806291373148
26968000000,-1.7686522616557288,0.7939338392935638,-0.0010018226335356678
26997000000,-1.7671578547519415,0.8004106523782627,-0.0010008857967969548
27031000000,-1.7655017831494455,0.8075500766663768,-0.0010013713716231672
27064000000,-1.7639081677357016,0.8142690743476954,-0.001001843180468337
27094000000,-1.7623313241294445,0.8208308269353481,-0.00100144529885704
27131000000,-1.7606545141463983,0.8276625889913507,-0.0010015429078583486
27164000000,-1.7590477674990679,0.8341267502148731,-0.00100149920709304
27191000000,-1.7574663643627406,0.8405782924636477,-0.0010018247191341915
27233000000,-1.7557079913055962,0.8477201227676884,-0.0010018155187499732
27271000000,-1.7539751459170065,0.8546141139017916,-0.0010009727842937959
27300000000,-1.7522864855870952,0.8612377035034972,-0.001001600837610462
27333000000,-1.7505372678272557,0.8680173441149959,-0.001002013065577758
27364000000,-1.7488068916401924,0.8746581678721003,-0.0010005396937256932
27397000000,-1.7470153970317475,0.8815105928095321,-0.001000863948321707
27435000000,-1.7451247294027283,0.8887409294714879,-0.0010015449990956882
27464000000,-1.743392441359987,0.8953394767520315,-0.0010019500696150166
27499000000,-1.7416670650470718,0.9018656472209917,-0.001000920421423128
27530000000,-1.7397298949681121,0.9090551383867665,-0.00100142586120959
27565000000,-1.7377486637116437,0.9161413324938409,-0.0010014588980569727
27598000000,-1.735685324200926,0.9232098603941016,-0.0010015078759317633
27631000000,-1.7334749070374442,0.9304688192939967,-0.0010016041002812483
27662000000,-1.7313033905386028,0.937364128167514,-0.0010013535887618795
27697000000,-1.7291083355361874,0.9442483277596228,-0.0010018159776589257
27731000000,-1.7267896616293963,0.9514088895201579,-0.0010019932942481706
27764000000,-1.7245634942678645,0.9581872014158189,-0.0010006718201672794
27797000000,-1.7223444702008686,0.9648269527688946,-0.0010020436551705057
27831000000,-1.7200230129032223,0.9716611758339049,-0.001000688218679463
27864000000,-1.7176743139104675,0.9784201189827731,-0.001000921854892832
27897000000,-1.7152202416224134,0.9853188634864547,-0.001001608480099267
27927000000,-1.7126316450395227,0.9924120691551602,-0.0010015118766104648
27964000000,-1.7100719683986738,0.9992656095351509,-0.0010014569470110056
27996000000,-1.7074669039206773,1.0061037523530945,-0.0010014191827689804
28031000000,-1.7047356300427843,1.01313228650031,-0.001001427917836764
28064000000,-1.702024876221473,1.0199526904029341,-0.0010014897948041404
28097000000,-1.6992514254748918,1.0267519985866602,-0.0010015756222839407
28131000000,-1.6963295061433092,1.0337321722368478,-0.001001711466825931
28164000000,-1.6935616842327137,1.0401785869708589,-0.0010011711710500373
28197000000,-1.6907830626256717,1.0464923137490916,-0.001002003139182698
28230000000,-1.6878576018133684,1.0529820407049941,-0.0010021241289270184
28264000000,-1.684944438050205,1.059301753674935,-0.0010012222835961114
28295000000,-1.6819447207034854,1.0656933202183307,-0.0010012904111006277
28341000000,-1.6787371943729812,1.0723690021328944,-0.0010013799344719652
28379000000,-1.6755080958157642,1.0788908946978362,-0.0010012043949983833
28414000000,-1.672172836826866,1.0854356269324705,-0.0010015069812020251
28440000000,-1.6686569405802119,1.0921493825068063,-0.0010014834781816064
28476000000,-1.6654099480219122,1.0981923461024035,-0.0010017009084802263
28513000000,-1.662155752691416,1.1041130712057516,-0.0010014875677407213
28547000000,-1.6586579253465765,1.1103266208754952,-0.0010015075675685152
28580000000,-1.655440251189306,1.1159067825588724,-0.0010013512335264804
28603000000,-1.6522215210272584,1.1213570533843886,-0.0010016244200835994
28631000000,-1.64881743866627,1.1269956145489903,-0.0010017435198461065
28664000000,-1.6454537852813493,1.1324693269126118,-0.0010010635503112444
28698000000,-1.642015130469812,1.138047094095946,-0.001002026849817081
28730000000,-1.638437730285761,1.1438594689491886,-0.0010010335089227496
28764000000,-1.6349587940206334,1.1495122283695924,-0.0010010319685911026
28797000000,-1.6313903033571298,1.155296389758616,-0.0010011134290073553
28831000000,-1.6275363016590925,1.1614897329472988,-0.0010012932659344241
28864000000,-1.623823508119896,1.1673739230421565,-0.0010024532407526543
28897000000,-1.620159087533853,1.1731368537545317,-0.001001976765670931
28934000000,-1.6163140607359539,1.1790805142576088,-0.001001550551753539
28971000000,-1.612416836290244,1.1849788159289987,-0.0010011074652628953
28998000000,-1.608351348188489,1.1910093375157331,-0.0010015385116128317
29027000000,-1.6040861689698114,1.1972354618501602,-0.0010015437403351722
29064000000,-1.5998855383047423,1.2032598586483843,-0.0010016508096424258
29097000000,-1.5956249898235029,1.2092469582441603,-0.001001749303009749
29131000000,-1.591176244712791,1.2153714904517752,-0.0010018610927245535
29164000000,-1.5868055792446316,1.221278162346886,-0.0010016200417809693
29197000000,-1.5824116728491557,1.2271263499543583,-0.0010016090865069688
29231000000,-1.5778355551358039,1.2331266148491935,-0.0010017136324313447
29264000000,-1.5733736983391946,1.2389033136434904,-0.0010016364101649508
29297000000,-1.5688904934302252,1.244659087418802,-0.0010016333620232222
29331000000,-1.564246962158742,1.2505703583666394,-0.0010016672316892627
29364000000,-1.559733135196635,1.256274249662408,-0.0010018013275385936
29398000000,-1.5552144819643359,1.2619513464748038,-0.0010010779891764868
29435000000,-1.5505368204556955,1.2677890790997604,-0.0010014311247730015
29464000000,-1.5462152385676837,1.273156992137434,-0.0010018526471503413
29497000000,-1.5423329218558728,1.2779911518773852,-0.0010014390425465529
29531000000,-1.5382607417767848,1.283099946843906,-0.0010016442471960513
29564000000,-1.534209794341344,1.288208639630991,-0.0010016551854174077
29598000000,-1.5300859830859697,1.2934538752690572,-0.0010018855896292249
29633000000,-1.5257495179581995,1.2990047776465057,-0.001001983088498186
29666000000,-1.521524398934803,1.3044368458185704,-0.0010008694911544692
29697000000,-1.5172869610207311,1.309909104740681,-0.001000869537897603
29737000000,-1.5128238205927582,1.315685785407142,-0.0010009205201090068
29771000000,-1.508647550517977,1.3210794634934084,-0.0010020714568704375
29799000000,-1.5045294410513603,1.326383165299571,-0.0010016278091676822
29831000000,-1.5001989848742323,1.3319309951681069,-0.0010016336061899125
29865000000,-1.4958354715136102,1.3374785023688298,-0.0010017873782015053
29894000000,-1.4913789874876424,1.3430683502938814,-0.0010011772223622803
29938000000,-1.4867506563270596,1.348787347355927,-0.0010011395626060952
29971000000,-1.4822268971319066,1.354306546052155,-0.0010011910796738736
29999000000,-1.4776028387549567,1.3599085497978136,-0.0010016055289837865
30037000000,-1.4728138003056321,1.365683162724289,-0.0010016987138722726
30064000000,-1.4681705077224625,1.3712677215932718,-0.0010017107050690824
30095000000,-1.46353525989012,1.3768505465641772,-0.0010018545373402764
30135000000,-1.458775927075261,1.3825911987942177,-0.0010014852324551037
30171000000,-1.4543684575309495,1.3879036218213447,-0.0010022102123286546
30200000000,-1.4501135305531851,1.3930017198827473,-0.0010014662274696676
30231000000,-1.4456716383689268,1.3983420558969097,-0.0010016475391208812
30264000000,-1.4411578471542181,1.4037820672392423,-0.001001067018631608
30297000000,-1.4365116894011274,1.409375565222288,-0.0010016005537869833
30331000000,-1.431717474756047,1.415132351056495,-0.0010016614484951655
30365000000,-1.427053923517186,1.420711178283085,-0.0010018095336892935
30398000000,-1.4223978799701789,1.4262483941100603,-0.001001115583342295
30434000000,-1.417566175884489,1.4319566336783298,-0.0010015585495143815
30464000000,-1.4128697603129405,1.4374847771149866,-0.001001562867201683
30498000000,-1.4081678116509213,1.44301841084023,-0.0010016491834411306
30536000000,-1.4033229569685723,1.4487196113627319,-0.0010017253243339852
30564000000,-1.3986114922967574,1.4542567809274805,-0.0010018880490700634
30597000000,-1.3938941480806788,1.4597862590735127,-0.0010019506313652636
30631000000,-1.3890427885331769,1.4654578558208988,-0.0010011665318186945
30672000000,-1.3843084065081483,1.4709749039365518,-0.0010016327883267603
30701000000,-1.3795571594817089,1.4764874689746081,-0.0010015867138082994
30731000000,-1.374648640881041,1.4821570891444515,-0.0010015545682664218
30763000000,-1.3698921977309972,1.4876373449152576,-0.00100154261709973
30798000000,-1.3651361632414751,1.4931204033490182,-0.0010015846799985642
30831000000,-1.360238581060518,1.4987707598029616,-0.0010017390311884665
30864000000,-1.3557099539493669,1.5040113678158198,-0.001001902551017432
30895000000,-1.351312425560632,1.5091574357852011,-0.0010016236724925617
30934000000,-1.3467559257019055,1.5145051262532583,-0.0010015522965334187
30968000000,-1.342155779467965,1.5199043610821772,-0.0010014879229786715
30997000000,-1.337424898425719,1.5254376240580652,-0.001001711117715593
31031000000,-1.3325393717037204,1.5311278384600473,-0.0010018099230519363
31065000000,-1.3277877215410598,1.536650644493524,-0.0010015219072385916
31097000000,-1.323081485250703,1.5421355853273664,-0.0010012561604736923
31131000000,-1.3182317667832386,1.5478065520509872,-0.0010016231213188023
31164000000,-1.3135464555904668,1.5533106895752486,-0.001001570191449308
31197000000,-1.3088801815062008,1.5588305360502563,-0.001001537225171576
31231000000,-1.304091453826399,1.5645351827920877,-0.0010015415299853732
31263000000,-1.2996888215783378,1.5698229563006834,-0.0010012546159269935
31295000000,-1.295365170476655,1.5750559655575598,-0.0010016977431184758
31330000000,-1.2909219785565582,1.5804630932356416,-0.001001784705691771
31368000000,-1.286491369915791,1.585867407301178,-0.0010011199255815922
31403000000,-1.28193815402981,1.5913885525822116,-0.001001157486112715
31433000000,-1.277165203683201,1.5971506284011376,-0.0010016018252431112
31464000000,-1.2725187270681655,1.602745268585415,-0.0010016727741741782
31497000000,-1.2678830855966126,1.608323605548124,-0.0010017554183001098
31531000000,-1.2631185268402412,1.6140740881464963,-0.0010018270015725445
31564000000,-1.2585054698143983,1.6196663501301216,-0.001001558411461486
31600000000,-1.2539260606805838,1.6252544896535082,-0.0010016794497351537
31639000000,-1.2492252460877191,1.6310308144424135,-0.0010016365959293165
31674000000,-1.2449180128361905,1.6363555567430494,-0.0010020276547523452
31700000000,-1.2407159442452573,1.6415704101222695,-0.0010015776518285148
31730000000,-1.2363393372640423,1.6470344568222588,-0.0010015883441432394
31764000000,-1.2319674846953188,1.6525170456591531,-0.0010014129539256018
31798000000,-1.2274123220396003,1.658204807610446,-0.001001802389105317
31830000000,-1.2227204567980643,1.6640210493517174,-0.0010011355806719621
31864000000,-1.2183872077694438,1.6693586972386922,-0.0010019125865783456
31897000000,-1.214144556953911,1.6745802308883935,-0.0010016485967900002
31931000000,-1.2096742821281208,1.6800488678602976,-0.001001611489598292
31964000000,-1.205559459542118,1.6850478452333701,-0.0010010051723560627
32000000000,-1.201747144495748,1.6896456848030008,-0.0010010810566818441
32031000000,-1.1980218237580536,1.6941337464980677,-0.001000996298931467
32064000000,-1.1943575187147284,1.6985758442884613,-0.0010017635995550021
32102000000,-1.190553743280411,1.7032657878419177,-0.0010009006436437831
32139000000,-1.1866669939646008,1.7081621208030757,-0.0010008439028084022
32166000000,-1.1828334167242132,1.713093550408846,-0.0010008665065386474
32197000000,-1.1788860406746542,1.718259636245443,-0.0010009344617878842
32233000000,-1.1746202255169034,1.7239003951230896,-0.0010010978711571528
32272000000,-1.1702583664423707,1.7296761933794071,-0.00100160811479243
32298000000,-1.16587160263345,1.7354720942639574,-0.0010017381097248632
32331000000,-1.1613578213620084,1.7414203479088315,-0.0010012744231912146
32364000000,-1.1572037892420597,1.7468855739217442,-0.001001940650399144
32398000000,-1.153152452890547,1.752242845863572,-0.0010015829190441472
32431000000,-1.148910815344403,1.7578540587338292,-0.0010015531129975719
32465000000,-1.1446593047658158,1.7634779259134934,-0.0010013536817371944
32499000000,-1.140305469135492,1.7692581142051709,-0.0010017022499091248
32531000000,-1.1358362377594013,1.7752260385276282,-0.0010018141722263098
32564000000,-1.1316052345339118,1.7809033119983797,-0.0010009142888797035
32596000000,-1.1274402142089148,1.7865130578435415,-0.001002095859451567
32631000000,-1.1232657203618304,1.7921748896804057,-0.0010011526468630752
32664000000,-1.1191424913584818,1.79783098233112,-0.0010015766616327804
32697000000,-1.1149594772082088,1.8036673307292879,-0.0010015890277053525
32731000000,-1.1107037301291813,1.8097188329656424,-0.001001613625980044
32764000000,-1.1066560830471908,1.8155951517686477,-0.0010017524052733338
32796000000,-1.102680088385394,1.8215062214669735,-0.0010010865567517506
32840000000,-1.0986443107754003,1.8276498060574595,-0.0010014512358771134
32874000000,-1.0950174075431238,1.8333138169951975,-0.0010019750228841794
32917000000,-1.091619844656747,1.838776880081044,-0.0010013863709149723
32949000000,-1.0880498077977514,1.84463784105986,-0.0010013887533263897
32986000000,-1.0844866097491501,1.8506184214070152,-0.0010015353778177645
33011000000,-1.080827395603087,1.8568427887426797,-0.001001605353649411
33044000000,-1.0770882937821287,1.8632739699355827,-0.0010017164592878124
33075000000,-1.0736555289795813,1.869233116578981,-0.0010010292921134138
33109000000,-1.070478988003861,1.8747382284345682,-0.0010009909310370706
33131000000,-1.0672551031322013,1.8802898608992629,-0.0010022089427235287
33164000000,-1.0641057581897855,1.8857007507582475,-0.0010013661256058001
33194000000,-1.0609458695236642,1.8911524052365016,-0.001001779756665596
33231000000,-1.0577025175254715,1.89677385766774,-0.0010018048563006851
33264000000,-1.054700683506864,1.902006042009396,-0.001001742032384654
33297000000,-1.0519773313567513,1.9068290087342947,-0.0010017428185116611
33331000000,-1.049326129306473,1.9116403955309615,-0.0010018600725267626
33363000000,-1.0468522022772508,1.9162293224467761,-0.001001479592599771
33396000000,-1.0442874485210183,1.9210754714665776,-0.0010012697255560657
33433000000,-1.0415653694880669,1.9262702033759738,-0.0010014013714533532
33464000000,-1.0391721286222706,1.9308767944678946,-0.0010016266427416258
33498000000,-1.0368920234348,1.9353125779627127,-0.0010013650408883454
33531000000,-1.0347663253691461,1.93947236864667,-0.0010017842398826263
33564000000,-1.0331775116978548,1.9425964103117153,-0.0010017065052580036
33596000000,-1.0320490228601358,1.9448216070204547,-0.0010016660679910867
33636000000,-1.0313630841254795,1.946174779442248,-0.0010016484266209547
33670000000,-1.031153941241824,1.946587217097759,-0.001001373300918828
33709000000,-1.0311525081097621,1.9465899191164904,-0.001001426874686854
33731000000,-1.0311518676733684,1.9465912159432879,-0.0010014282744611643
33763000000,-1.0311512511688223,1.9465924654906923,-0.0010014302596882928
33804000000,-1.0311506393971301,1.9465937063318965,-0.0010014321402219695
33831000000,-1.0311500137659373,1.9465949761889085,-0.0010014339820953386
33863000000,-1.0311494104306598,1.9465962007530733,-0.0010014356434305469
33897000000,-1.0311488107519498,1.9465974180747263,-0.0010014371949433332
33931000000,-1.0311481965212665,1.9465986652311829,-0.0010014386899348839
33964000000,-1.0311476036562917,1.9465998693148983,-0.001001440047917402
33997000000,-1.0311470138381953,1.9466010675155907,-0.0010014413245694569
34031000000,-1.0313299559199223,1.9462415230359698,-0.0010014598603709755
34064000000,-1.0318659972964388,1.9451776748511191,-0.0010017268438210249
34102000000,-1.0328380025389745,1.9432317634997958,-0.0010018187340723496
34131000000,-1.0342953530798693,1.940286839933138,-0.001001942020196267
34166000000,-1.0361461058621924,1.9365082439542451,-0.001002090592715301
34199000000,-1.0384055266782994,1.9318372258701966,-0.00100224881701734
34231000000,-1.0411119870010972,1.9261478341470553,-0.0010023357643184766
34264000000,-1.0439507497578917,1.9200357977024416,-0.0010018037696212859
34297000000,-1.0467432223747484,1.913838204797691,-0.0010018800932886408
34332000000,-1.0495442223767577,1.9074214326888903,-0.0010020866811508572
34364000000,-1.052155142270885,1.9012508219867736,-0.0010011284288790646
34400000000,-1.0546734397795765,1.895131571906722,-0.001000642483769
34431000000,-1.0572372683771343,1.888707699421652,-0.0010007827265852212
34464000000,-1.0597086216414506,1.8822923065566668,-0.0010017877193177448
34496000000,-1.0621649589815114,1.8756153148421268,-0.0010013782703333293
34531000000,-1.0646674831489702,1.8683818829862229,-0.0010015835362252763
34564000000,-1.0668903210919891,1.8615445376241142,-0.001001274316137158
34597000000,-1.0689436063772082,1.854942915972783,-0.001001445744151827
34631000000,-1.0710846406124872,1.8477483772355632,-0.0010014835560098537
34664000000,-1.073099778813544,1.8406720414417677,-0.0010015096283796168
34696000000,-1.075040405893356,1.8335765612367574,-0.0010015974974785444
34731000000,-1.0768486087829876,1.8266607087032796,-0.0010009715665118407
34764000000,-1.0784322441976728,1.8202928266183322,-0.0010016648799840884
34797000000,-1.079938101487089,1.8139849606170324,-0.0010018693673510097
34831000000,-1.081469704337283,1.8073263419767727,-0.001001354298184879
34866000000,-1.082984574069735,1.8005964310709646,-0.0010013080059562245
34899000000,-1.0845168644204075,1.793622418474535,-0.0010015671008045852
34935000000,-1.0860404779747483,1.786424742806961,-0.0010019721116401765
34964000000,-1.08742005928635,1.7796351754957602,-0.0010013348216490955
34996000000,-1.0887334893018767,1.7728811829825575,-0.0010015416463085673
35031000000,-1.0900324871860214,1.765934267211026,-0.0010012475004574813
35071000000,-1.0913074736146269,1.7589633961460858,-0.0010013282034226044
35097000000,-1.0926089615632504,1.7518247723087303,-0.00100143928541499
35131000000,-1.0938856483326644,1.74480936449921,-0.0010014807535482645
35165000000,-1.0951250802753931,1.7380241077478802,-0.0010017074849972413
35197000000,-1.0964671841189921,1.7309789081942375,-0.0010015755309252146
35230000000,-1.097833974102269,1.724115536398186,-0.0010004899108689153
35264000000,-1.09908451901173,1.7179598359703736,-0.0010008561527214757
35308000000,-1.100326953186317,1.7119590604533856,-0.0010009113751023799
35330000000,-1.1016206746572816,1.7058705510293333,-0.0010009963994983585
35363000000,-1.1029211663694423,1.6999369406582254,-0.0010021796924339806
35397000000,-1.1042494656999167,1.6941101444392923,-0.0010021553245937037
35431000000,-1.1056165061271506,1.6883901138109154,-0.0010020130372673242
35464000000,-1.1069177516127098,1.6832194272102714,-0.001002042831194351
35500000000,-1.108165830635775,1.6785431339801054,-0.001001943541601033
35539000000,-1.1093934270364583,1.674227623271715,-0.0010017377066352876
35566000000,-1.1105433352271676,1.6704855372490597,-0.0010013569441816063
35596000000,-1.1117327180837635,1.6669269757668534,-0.00100153320541237
35631000000,-1.113049085071005,1.6632913937204226,-0.0010014883497109425
35664000000,-1.114385479433876,1.659836661425739,-0.0010011462833642223
35699000000,-1.1155606873109394,1.6568931379440643,-0.0010013714146347372
35731000000,-1.1164007750855292,1.654838622509365,-0.0010014221461353522
35764000000,-1.1172331675701495,1.6528520844283345,-0.0010015173272291747
35795000000,-1.118435200932096,1.6500501583690281,-0.0010016649669348059
35831000000,-1.1199142458986442,1.646727847005423,-0.001001287881526848
35864000000,-1.121477542964679,1.6433879575937729,-0.0010013973394710392
35897000000,-1.123105307619213,1.6400783590945622,-0.0010014099145520955
35933000000,-1.1248492279759452,1.6367014207772155,-0.001001429861734307
35964000000,-1.1263746727146657,1.6338860255903622,-0.001001007963719009
35997000000,-1.1275347668431699,1.6318488622700833,-0.0010007790320897027
36033000000,-1.1282898912029353,1.6305949892689822,-0.001000856548843361
36065000000,-1.1286092231551446,1.6301002589386442,-0.0010009100116039095
36097000000,-1.128533728169685,1.6302220208985463,-0.0010009901851773598
36131000000,-1.1280021162134075,1.6309710613148694,-0.0010010929468680894
36164000000,-1.1270017197076685,1.632281080341086,-0.0010012144943313296
36196000000,-1.1254889886621553,1.6341254654578135,-0.001001446365571007
36231000000,-1.1234256438331187,1.636483738462522,-0.0010015774751769603
36265000000,-1.1209980313389787,1.639083336640773,-0.0010017522639393338
36297000000,-1.1182171394581373,1.6418888018385627,-0.001000535446441811
36331000000,-1.1150314586220367,1.644947829928146,-0.0010007406993396938
36364000000,-1.1115348045232536,1.6481825635696414,-0.0010007553194597597
36397000000,-1.1075815007130976,1.6517335563340323,-0.0010009622751186963
36436000000,-1.1037086061837504,1.6551046245509644,-0.001002078570886241
36467000000,-1.1004043070337943,1.6578730109416389,-0.0010013631378202915
36507000000,-1.097139137025081,1.6604762528223957,-0.0010014483342353012
36532000000,-1.0933556615554216,1.6633359217925818,-0.0010013148309710243
36563000000,-1.0889523226810311,1.6664884849755373,-0.0010015290930774703
36597000000,-1.0838705911860977,1.6699306754959988,-0.0010017702638729607
36631000000,-1.0786335121251671,1.6732700185399474,-0.0010016419376016397
36664000000,-1.0735250610215672,1.676322619392771,-0.0010021334111505152
36696000000,-1.0681943210326788,1.6793009485581873,-0.0010022498032700097
36731000000,-1.0624918009206625,1.6822643330862688,-0.0010012116536525124
36769000000,-1.0566621894202535,1.6851043590015597,-0.0010011503054001558
36801000000,-1.050537570481389,1.6878958712989305,-0.0010012696244185992
36835000000,-1.0438858540656097,1.6906910761697105,-0.0010019119310596472
36869000000,-1.0372557369107398,1.6932140667844326,-0.00100190723845104
36901000000,-1.030564751360935,1.6955003902583927,-0.0010016222419666973
36931000000,-1.0236068548138038,1.6976070076639183,-0.0010012839858961828
36964000000,-1.0168004749470323,1.6994132624907954,-0.0010013919760509075
36999000000,-1.0096788633263811,1.7010510085308688,-0.00100162803065185
37031000000,-1.002021896238097,1.7025324274045246,-0.0010021015091599209
37064000000,-0.9946902699654537,1.7036794811613818,-0.001002508669367179
37097000000,-0.9874707408711396,1.7045438327472546,-0.0010023319243067028
37131000000,-0.9801706911674948,1.7051641405897515,-0.001001686103496758
37163000000,-0.9727765224419652,1.7055432009025597,-0.0010012911666076839
37197000000,-0.9652069368662007,1.7056910201905662,-0.0010015134720334357
37231000000,-0.9574241976799962,1.705582852166317,-0.0010015357061987813
37264000000,-0.9498980542208474,1.705234085364113,-0.0010015598285659823
37297000000,-0.9423854609132565,1.7046561442121377,-0.0010016523889977494
37330000000,-0.9350531494610876,1.7038666601620762,-0.0010014013086549513
37364000000,-0.9284044803478422,1.702955731339455,-0.0010018913995099195
37397000000,-0.9218177090495017,1.7018607940008328,-0.001002035502301945
37432000000,-0.9149020482114495,1.7005125216467165,-0.0010016374517787495
37465000000,-0.9081324060398029,1.6990284003397278,-0.0010010492176786012
37497000000,-0.9013272681220488,1.6973711250288697,-0.001001863268377038
37531000000,-0.8943585348019835,1.6954977788841483,-0.001001788801065849
37565000000,-0.8874021712821654,1.6934432599359106,-0.0010015476235065261
37595000000,-0.8802688553486336,1.6911245542333289,-0.0010018534258569994
37631000000,-0.8732347665182174,1.6886259649747684,-0.0010016498838580495
37664000000,-0.8666139532250431,1.686083815158524,-0.0010014246028542569
37698000000,-0.8600966459806285,1.6833859785536547,-0.0010015265366552818
37731000000,-0.8532822720325226,1.6803472059624274,-0.00100149264147242
37764000000,-0.8465801088133262,1.6771335470095206,-0.0010018724399244554
37801000000,-0.8399153095039107,1.6737221401551023,-0.0010020058856405195
37830000000,-0.8331538878234739,1.6700343299669589,-0.0010015543357630129
37867000000,-0.8267309245317774,1.6663187764898915,-0.0010022208618899985
37897000000,-0.8203979717011598,1.6624742295791792,-0.0010016088903626666
37936000000,-0.8139358047310993,1.6583759028083263,-0.001001528530506713
37964000000,-0.8077400990190663,1.654278030084267,-0.0010014864936942376
37997000000,-0.8016219067137093,1.650063225948124,-0.001001493394121776
38031000000,-0.7953899895795746,1.645581650332769,-0.0010015591473354069
38064000000,-0.7894340937595791,1.641099884409788,-0.0010016778082398738
38097000000,-0.7835741744997529,1.636491386621673,-0.0010018295657006002
38130000000,-0.7776409377373483,1.6316136669660344,-0.0010019985428258264
38166000000,-0.7719951470523873,1.6267708550884465,-0.0010021171759974287
38196000000,-0.7664568889844598,1.6218312240562092,-0.0010018983454584997
38230000000,-0.7608487032864493,1.6166318190208064,-0.001002130626807228
38264000000,-0.7555154386037276,1.6114956717826783,-0.0010018730614664469
38297000000,-0.7503041169019513,1.6062806497786566,-0.0010012406393788247
38331000000,-0.7450134297885256,1.6007757606078759,-0.0010016507950955204
38364000000,-0.7399696284698328,1.5953229701770426,-0.0010015412882358014
38400000000,-0.7350295022513478,1.589774716821839,-0.0010015253587531865
38431000000,-0.7300499903198808,1.58396045102256,-0.0010015545439905037
38468000000,-0.7253265675720638,1.5782264732685816,-0.001001628463558505
38497000000,-0.7207107654832641,1.572404222584863,-0.0010017468931103161
38532000000,-0.7160703879694734,1.5663166503658652,-0.0010018586471169204
38564000000,-0.711684606364662,1.560338269175516,-0.001002038500974807
38597000000,-0.7074138384131782,1.5543008802260114,-0.0010013034364522201
38631000000,-0.7031142278569442,1.5479957562505864,-0.0010016829856476991
38665000000,-0.6990446971612612,1.5418072474158968,-0.0010016480575574561
38697000000,-0.6950775992002004,1.5355517258525662,-0.0010016082277337773
38738000000,-0.6912755856587145,1.5293346582880931,-0.0010016244333081077
38771000000,-0.6877318486901324,1.5233327439889108,-0.001001622468913877
38797000000,-0.6842793235314738,1.5172776403823383,-0.0010016881448136616
38831000000,-0.6806916490572588,1.510735934332389,-0.0010018925952925868
38865000000,-0.6773295167065938,1.5043069882190707,-0.0010013322434586636
38898000000,-0.6741146715174723,1.4978830106059235,-0.001001414263019841
38935000000,-0.6708853746210778,1.4911495323926736,-0.001001525351811649
38965000000,-0.6677952168326867,1.4844571569768628,-0.0010019985380634137
38997000000,-0.6648010945841389,1.477737699294563,-0.0010015046317934442
39031000000,-0.6618105123455654,1.4707765551958019,-0.0010016027610171632
39064000000,-0.6589910448812238,1.4639665773825292,-0.001001605321506685
39097000000,-0.6562577140149238,1.4571217189924615,-0.0010015195639892366
39131000000,-0.653575121029656,1.450104596225252,-0.0010015399561132503
39163000000,-0.6511678259231329,1.4434684508541527,-0.0010014687763919596
39198000000,-0.6488818612600863,1.43691811906785,-0.001001465823687965
39231000000,-0.6466071679799228,1.430140369022349,-0.0010015307205297821
39264000000,-0.6443823899953469,1.4232322565419704,-0.0010016391487267101
39305000000,-0.6422103337960311,1.4161768417191851,-0.001001794105365713
39341000000,-0.6400689191478269,1.4089012288217246,-0.001001946401785813
39372000000,-0.6380684284835813,1.4018200494859754,-0.001002099561118821
39397000000,-0.6361461572138303,1.3947258427695164,-0.0010023273366990097
39437000000,-0.6342541195361296,1.387443459098846,-0.0010009503685141294
39474000000,-0.6324908096450353,1.380319366390163,-0.0010018878021220944
39513000000,-0.6308049294603334,1.3731557272331834,-0.0010016608003482058
39549000000,-0.6292430834106334,1.3661630108976637,-0.001002307161525915
39573000000,-0.6278282034376247,1.3594932851161545,-0.0010014559177915078
39604000000,-0.6264643748193611,1.3527059788905196,-0.0010014534236535873
39640000000,-0.6252067435474808,1.346094423608717,-0.0010014629110602843
39676000000,-0.6240625872701295,1.3398145764640774,-0.0010014515467142368
39708000000,-0.6229635413004634,1.3335255608678527,-0.0010015051504125745
39739000000,-0.6218078294897079,1.326617722371084,-0.0010015915610473887
39765000000,-0.6206545163804174,1.319421348645022,-0.0010017810579004902
39797000000,-0.6195573383742361,1.3121590304118613,-0.0010019057955331229
39831000000,-0.6185210168285054,1.3048416975310562,-0.001001048311703872
39864000000,-0.6175957532266566,1.2978688178806232,-0.001002342094841721
39898000000,-0.6167355927993469,1.291015260273895,-0.0010013424679068302
39933000000,-0.6158803104661096,1.2838478116270922,-0.0010012387402155189
39966000000,-0.6150707200082017,1.2766494565043616,-0.0010016267199622654
39997000000,-0.6143165530252072,1.269384669980899,-0.001001397630191584
40032000000,-0.6135953190326545,1.2619078080740405,-0.0010015486952142626
40067000000,-0.6129327768899709,1.2546335678464295,-0.0010014915291026924
40098000000,-0.6123078705866062,1.2473548339269651,-0.0010014732263103968
40134000000,-0.6117034597884512,1.2398509645575302,-0.0010015013448804073
40165000000,-0.6111530900426345,1.2325707238661832,-0.0010015624403189698
40198000000,-0.6106347305805261,1.225287077279498,-0.0010016665925195942
40231000000,-0.6101596570649638,1.21810668938657,-0.0010017565085704838
40264000000,-0.6097488168629073,1.211232803765719,-0.0010019054138366464
40298000000,-0.6093812289260492,1.204364349168399,-0.0010021014973124083
40332000000,-0.6090299847706103,1.1971252169201765,-0.001000867451310044
40366000000,-0.6086945670410259,1.1899979382862043,-0.0010009819892482091
40397000000,-0.6083851983540416,1.1827229758495192,-0.0010016181662881388
40428000000,-0.608109736563936,1.1751944096697802,-0.0010016183202251408
40464000000,-0.6078861891398281,1.1678870062669682,-0.0010016490427981958
40500000000,-0.6077071927332542,1.1605812001534919,-0.0010015563279078023
40535000000,-0.607565603041615,1.153055657526567,-0.0010015267314884592
40573000000,-0.6074667797845731,1.1457501508501935,-0.0010015474026658922
40601000000,-0.6074060473872397,1.1384432195685414,-0.0010015811689369422
40631000000,-0.6073824855624922,1.130915706423604,-0.0010016517524622237
40665000000,-0.6073964950655866,1.1236091471531797,-0.0010017495967063403
40697000000,-0.607446761074981,1.1163037334021364,-0.0010018576303271153
40731000000,-0.6075331272080655,1.1087969163695675,-0.001002081172616201
40765000000,-0.6076439095537849,1.1015524974619895,-0.0010009630005854177
40797000000,-0.607782173556477,1.0942751269756594,-0.0010017553809303914
40831000000,-0.6079549124909285,1.0867639664378979,-0.0010015766682491475
40868000000,-0.6081504241310312,1.079473340233388,-0.0010015530671456004
40907000000,-0.6083734141109239,1.072182853728398,-0.0010015547873428038
40931000000,-0.6086236957106985,1.064706564653437,-0.0010016366027148435
40966000000,-0.6088765547535393,1.0574572978395507,-0.0010016493552372704
40997000000,-0.6091420622407654,1.0502448255170485,-0.0010010952832330763
41031000000,-0.6094439984955677,1.0427783526270438,-0.001001966475363835
41064000000,-0.6097653013088952,1.0358286955311762,-0.0010015235617894837
41097000000,-0.6100997531005042,1.0289905877590546,-0.0010016115081991454
41131000000,-0.6104766173894286,1.021657077498538,-0.0010015248762418154
41164000000,-0.6108693492233824,1.0143835267061923,-0.0010017572893309644
41197000000,-0.6112800549434726,1.007112252436266,-0.0010018040386770774
41231000000,-0.6117226438171443,0.9996304855840643,-0.0010015528320789571
41266000000,-0.6121569016174784,0.9926987325244951,-0.0010021398055164894
41297000000,-0.6125984336795026,0.9861926687710519,-0.0010012826452531244
41327000000,-0.6130610448735299,0.9796624948432417,-0.0010015984258637603
41364000000,-0.6135250338117055,0.9733262584946837,-0.001001600563140869
41397000000,-0.6140038950008327,0.9669906216674994,-0.0010016198602813345
41431000000,-0.6145436337012563,0.9601644353157848,-0.0010018124073838536
41464000000,-0.6151186540662179,0.9533994282772887,-0.001001856961652215
41497000000,-0.6157322506394945,0.9466699527230654,-0.001001163997192911
41531000000,-0.6164227024939962,0.9396421197992224,-0.0010011994430388013
41564000000,-0.6171523016965555,0.9327012292463626,-0.0010012827781832115
41597000000,-0.617934859856213,0.9255624028044438,-0.0010015897699377045
41631000000,-0.6187410683799864,0.9183436087554082,-0.001001026802572403
41664000000,-0.619503473009884,0.9115615560245092,-0.0010018194681125636
41698000000,-0.6202685627346265,0.9047825667102539,-0.001001795975878822
41731000000,-0.6210447713076308,0.8979882671535947,-0.0010021245851797103
41764000000,-0.6217807721558114,0.8916391885510433,-0.0010014421349357587
41800000000,-0.6225170507867115,0.8853322645649883,-0.0010016037278812
41831000000,-0.6233182563466495,0.8785036929267707,-0.0010010419291308047
41864000000,-0.6241605432469826,0.871353532968883,-0.0010015861314963542
41897000000,-0.6250103646489644,0.864143129836018,-0.0010016098424317846
41931000000,-0.6258857564343523,0.8567146765092832,-0.0010017136074317416
41966000000,-0.6267337781404462,0.8495175422727338,-0.0010017385497857155
41997000000,-0.6275811381662015,0.8423580238722391,-0.0010011262326699542
42031000000,-0.6284620694364501,0.8349472605625867,-0.001001585015715855
42064000000,-0.629317980447816,0.8277385528406707,-0.0010015991583808906
42097000000,-0.6301726694636273,0.8205289104912952,-0.0010016567261423859
42131000000,-0.6310507286589175,0.8131019341784056,-0.0010016955292045104
42173000000,-0.6318992795961753,0.8058935854931488,-0.001001793052350007
42204000000,-0.6327442429257553,0.7986929867120772,-0.0010015532348078351
42241000000,-0.6335908980927933,0.791485680305643,-0.0010021354523042855
42276000000,-0.6343849817847664,0.7847104293888113,-0.0010016091961864114
42303000000,-0.6351739318725167,0.7779381929097507,-0.001001583741526129
42331000000,-0.6359819089803126,0.7709590035155114,-0.0010015807792717497
42364000000,-0.6367522597314139,0.7642168020186013,-0.001001595102362668
42397000000,-0.6375049279035098,0.7574740680823806,-0.001001650058518759
42431000000,-0.6382917650387667,0.7503232544745078,-0.0010018222091627768
42470000000,-0.6390571236257967,0.7434174578047212,-0.0010011268437016274
42497000000,-0.6398287417289892,0.7364921237084894,-0.0010011380366181516
42537000000,-0.6406354855594951,0.7292280653326239,-0.001001205837518608
42565000000,-0.6414157371530047,0.722042891038929,-0.0010016030265410751
42597000000,-0.6421726583213714,0.7148506972344466,-0.0010016569578545145
42631000000,-0.6429357744260528,0.7074247566770335,-0.001001741829503057
42665000000,-0.6436711917563009,0.7002050183721916,-0.0010018043748318932
42701000000,-0.6444002984814163,0.6929937001445148,-0.0010015850996819738
42732000000,-0.6451449828028878,0.6855599970439816,-0.0010016764638292215
42764000000,-0.6458623203147943,0.6783427570568618,-0.0010016398094491001
42797000000,-0.6465753902872209,0.6711241258934902,-0.0010016091003850341
42830000000,-0.6472721181095399,0.6640001357211021,-0.0010016186057505774
42865000000,-0.6479276166433816,0.6572022972918307,-0.0010016450599570938
42898000000,-0.6485792023496814,0.6504138555268126,-0.0010018215282246098
42931000000,-0.6492429855299424,0.6434803103158461,-0.001001116588021319
42965000000,-0.6498878669002713,0.6367459806189408,-0.0010011849552910672
42997000000,-0.6505330711864385,0.6299790145529424,-0.0010015266666899315
43033000000,-0.6511903500798432,0.6229616207618164,-0.0010012284192833197
43068000000,-0.6518158969101302,0.6158882733190911,-0.0010016160941814164
43098000000,-0.6523915994820245,0.6087244612131543,-0.0010016384690419745
43131000000,-0.6529268891685479,0.6013284798239792,-0.0010017673717699592
43164000000,-0.6533953038326001,0.5941434303107259,-0.0010019005717133642
43198000000,-0.6538129816693476,0.5869678327653409,-0.0010014393779407237
43231000000,-0.6541807988731194,0.5798876138696775,-0.0010020378780921275
43264000000,-0.6544993544096814,0.5732209240021519,-0.001001653961597529
43300000000,-0.6547787972644566,0.5664659272178395,-0.0010016717436844604
43333000000,-0.6550321789165232,0.5594324249735734,-0.001001736127318454
43367000000,-0.6552728906549147,0.5525631869804841,-0.0010018450902226916
43397000000,-0.6555086325201706,0.5457221120139821,-0.0010010929986781943
43432000000,-0.6557654030912667,0.538583599633664,-0.001001254660630703
43465000000,-0.6560527993920091,0.5315737189159846,-0.0010011071513186184
43495000000,-0.6563705367650688,0.5243668450313087,-0.0010015325595366664
43531000000,-0.6566899247444312,0.5173200210709705,-0.0010019246387953824
43567000000,-0.6570131739882318,0.5106217126072244,-0.0010016273904089913
43597000000,-0.6573500465951042,0.503803940692178,-0.0010016849542972134
43631000000,-0.6577090462154515,0.4965284660874593,-0.0010018101389426513
43666000000,-0.658041003431856,0.48930432014012115,-0.0010019136965244632
43704000000,-0.658344430553372,0.4820921026326191,-0.0010015161661014217
43740000000,-0.6586280179249212,0.47465182648879484,-0.001001670500291145
43764000000,-0.6588762555137366,0.467430243257276,-0.0010017254137672064
43797000000,-0.6590977977791459,0.46020812054787863,-0.001001711902116495
43832000000,-0.6592977349267772,0.4527687197473791,-0.0010018649812687762
43864000000,-0.6594741583629158,0.4454858677410051,-0.0010019066969242547
43897000000,-0.6596509344825253,0.4382291450007117,-0.0010013417858682101
43935000000,-0.6598420772883197,0.43074104000691876,-0.0010014611105449121
43964000000,-0.6600372702119518,0.42347243891337666,-0.0010014608253361146
43997000000,-0.6602420348111833,0.4162028098783322,-0.0010014972482288512
44031000000,-0.6604514342208991,0.40917621258642034,-0.0010019091030583314
44064000000,-0.6606732066477103,0.4024610799712495,-0.001001673798822468
44099000000,-0.6609094114597133,0.3956264724788321,-0.0010017214139737517
44139000000,-0.6611667466055964,0.3887658279751702,-0.0010015846824551755
44175000000,-0.6614702249248094,0.38205394522406383,-0.0010010001465117595
44197000000,-0.6618066223519814,0.3749896216646833,-0.0010008908188970586
44232000000,-0.6621443571093236,0.36793929840119105,-0.001002009757034461
44264000000,-0.6624792237908452,0.36124830438480815,-0.0010015902264234738
44306000000,-0.6628227414411776,0.354468237125125,-0.001001661330068914
44340000000,-0.6631568819427893,0.3478047903640137,-0.0010012711588635488
44367000000,-0.663469071467909,0.34148311421094224,-0.0010018107658698386
44399000000,-0.6637810574811537,0.33519537184371817,-0.0010011359396450044
44431000000,-0.6641052907388945,0.3287477874962121,-0.0010011658955550486
44470000000,-0.6644226090882674,0.3224628966962949,-0.0010014952887895424
44502000000,-0.6647401570023758,0.3161776365325823,-0.0010014998532093533
44536000000,-0.6650455333084697,0.31014894716563074,-0.0010016597741025063
44564000000,-0.6653015076725043,0.30511767532900574,-0.001001549060356096
44597000000,-0.6655333253299079,0.3006931960945258,-0.0010016351801983708
44631000000,-0.665787761020189,0.295896300338856,-0.0010016145213720302
44667000000,-0.6660584472697758,0.29069045072454824,-0.0010017089020436173
44700000000,-0.6663259910705738,0.2850224903005574,-0.0010018613926604802
44736000000,-0.6665552371264709,0.2788299492720915,-0.001000820381303183
44770000000,-0.666701850173917,0.27266371590378913,-0.0010008497172549272
44797000000,-0.6667822732161762,0.26625992878238663,-0.0010009012187871605
44830000000,-0.6668204107620854,0.2594323414787179,-0.001001356369583796
44864000000,-0.666848678656885,0.2526656833551129,-0.001001639418283063
44900000000,-0.6668721837863175,0.24589925235175836,-0.0010017223549001995
44930000000,-0.6669001945495947,0.2386996700753301,-0.0010010838157597374
44964000000,-0.6669521716431478,0.2315862164269186,-0.0010010662408623493
44997000000,-0.6670251708018958,0.22435895359661118,-0.001001652797183037
45031000000,-0.6671054631512665,0.21720386259693955,-0.0010015675001426479
45063000000,-0.6671883592668979,0.21037411285604007,-0.0010015752384256935
45097000000,-0.6672778701700918,0.2035435179876598,-0.0010016403593117833
45129000000,-0.6673754633045339,0.19682632467336603,-0.0010013612972473163
45164000000,-0.6674785420815377,0.19046886773422325,-0.0010017520553491366
45197000000,-0.6675889131507518,0.18411306624370327,-0.0010018157128549691
45231000000,-0.6677080940514202,0.17735104953976902,-0.0010008053810836616
45264000000,-0.6678053086967937,0.17048446326239053,-0.0010008644375092725
45298000000,-0.6678901164241161,0.16335569599170324,-0.0010012335676124057
45334000000,-0.6679826336247452,0.15586847887882968,-0.001001610988161046
45364000000,-0.6680727007204599,0.1489063593224932,-0.0010015143904967827
45398000000,-0.6681664496942928,0.14208703061899575,-0.0010017365166216999
45431000000,-0.6682807682700843,0.13487330555304408,-0.0010011066096684597
45465000000,-0.6684203733820369,0.12779354544327085,-0.0010010808017977546
