%time,field.x,field.y,field.z
1659368835934789657,0.9822245240211487,2.7864322662353516,0.0
1659368835992606401,0.9822154641151428,2.7864086627960205,0.0
1659368836019924640,0.9822154641151428,2.7864086627960205,0.0
1659368836075221061,0.9822154641151428,2.7864086627960205,0.0
1659368836098624944,0.9822245240211487,2.7864322662353516,0.0
1659368836153386831,0.9822154641151428,2.7864086627960205,0.0
1659368836182094097,0.9822154641151428,2.7864086627960205,0.0
1659368836238731622,0.9822245240211487,2.7864322662353516,0.0
1659368836285729169,0.9822245240211487,2.7864322662353516,0.0
1659368836344604492,0.9822154641151428,2.7864086627960205,0.0
1659368836368835210,0.9822154641151428,2.7864086627960205,0.0
1659368836429209947,0.9822154641151428,2.7864086627960205,0.0
1659368836479178905,0.9822245240211487,2.7864322662353516,0.0
1659368836523687839,0.9822154641151428,2.7864086627960205,0.0
1659368836566358804,0.9822154641151428,2.7864086627960205,0.0
1659368836612488269,0.9822154641151428,2.7864086627960205,0.0
1659368836657853126,0.9822154641151428,2.7864086627960205,0.0
1659368836701905488,0.9822245240211487,2.7864322662353516,0.0
1659368836745697259,0.9822154641151428,2.7864086627960205,0.0
1659368836795159101,0.9822154641151428,2.7864086627960205,0.0
1659368836839586019,0.9822154641151428,2.7864086627960205,0.0
1659368836882376909,0.9822245240211487,2.7864322662353516,0.0
1659368836882523298,0.9822245240211487,2.7864322662353516,0.0
1659368836934545755,0.9822154641151428,2.7864086627960205,0.0
1659368836980020284,0.9822154641151428,2.7864086627960205,0.0
1659368837036294221,0.9822245240211487,2.7864322662353516,0.0
1659368837081961870,0.9822154641151428,2.7864086627960205,0.0
1659368837126996755,0.9822154641151428,2.7864086627960205,0.0
1659368837169754266,0.9822154641151428,2.7864086627960205,0.0
1659368837214657068,0.9822245240211487,2.7864322662353516,0.0
1659368837257600069,0.9822154641151428,2.7864086627960205,0.0
1659368837313706159,0.9822154641151428,2.7864086627960205,0.0
1659368837358983278,0.9822154641151428,2.7864086627960205,0.0
1659368837403560161,0.9822245240211487,2.7864322662353516,0.0
1659368837446459531,0.9822154641151428,2.7864086627960205,0.0
1659368837490081548,0.9822245240211487,2.7864322662353516,0.0
1659368837534763813,0.9822154641151428,2.7864086627960205,0.0
1659368837581296682,0.9822154641151428,2.7864086627960205,0.0
1659368837626119375,0.9822245240211487,2.7864322662353516,0.0
1659368837672300815,0.9822154641151428,2.7864086627960205,0.0
1659368837718023777,0.9822154641151428,2.7864086627960205,0.0
1659368837780687332,0.9822154641151428,2.7864086627960205,0.0
1659368837826427221,0.9822245240211487,2.7864322662353516,0.0
1659368837870292425,0.9822154641151428,2.7864086627960205,0.0
1659368837914019823,0.9822245240211487,2.7864322662353516,0.0
1659368837958883523,0.9822154641151428,2.7864086627960205,0.0
1659368838002330303,0.9822245240211487,2.7864322662353516,0.0
1659368838047142982,0.9822154641151428,2.7864086627960205,0.0
1659368838047213315,0.9822245240211487,2.7864322662353516,0.0
1659368838098553419,0.9822245240211487,2.7864322662353516,0.0
1659368838127343177,0.9822245240211487,2.7864322662353516,0.0
1659368838183454036,0.9822154641151428,2.7864086627960205,0.0
1659368838226796627,0.9822245240211487,2.7864322662353516,0.0
1659368838278205394,0.9822154641151428,2.7864086627960205,0.0
1659368838323824644,0.9822154641151428,2.7864086627960205,0.0
1659368838380869388,0.9822245240211487,2.7864322662353516,0.0
1659368838426237344,0.9822154641151428,2.7864086627960205,0.0
1659368838471438646,0.9822154641151428,2.7864086627960205,0.0
1659368838515265226,0.9822154641151428,2.7864086627960205,0.0
1659368838568079710,0.9822245240211487,2.7864322662353516,0.0
1659368838614388942,0.9822154641151428,2.7864086627960205,0.0
1659368838657953739,0.9822245240211487,2.7864322662353516,0.0
1659368838702499151,0.9822245240211487,2.7864322662353516,0.0
1659368838746241569,0.9822245240211487,2.7864322662353516,0.0
1659368838790427207,0.9822154641151428,2.7864086627960205,0.0
1659368838835349321,0.9822154641151428,2.7864086627960205,0.0
1659368838878623723,0.9822154641151428,2.7864086627960205,0.0
1659368838922754287,0.9822245240211487,2.7864322662353516,0.0
1659368838966579914,0.9822154641151428,2.7864086627960205,0.0
1659368839010219812,0.9822154641151428,2.7864086627960205,0.0
1659368839054378032,0.9822154641151428,2.7864086627960205,0.0
1659368839099156141,0.9822154641151428,2.7864086627960205,0.0
1659368839146353244,0.9822245240211487,2.7864322662353516,0.0
1659368839193227767,0.9822154641151428,2.7864086627960205,0.0
1659368839243679285,0.9822154641151428,2.7864086627960205,0.0
1659368839243767499,0.9822154641151428,2.7864086627960205,0.0
1659368839295844316,0.9822154641151428,2.7864086627960205,0.0
1659368839326161384,0.9822154641151428,2.7864086627960205,0.0
1659368839387442827,0.9822245240211487,2.7864322662353516,0.0
1659368839434215307,0.9822154641151428,2.7864086627960205,0.0
1659368839482384920,0.9822245240211487,2.7864322662353516,0.0
1659368839530324459,0.9822154641151428,2.7864086627960205,0.0
1659368839574512958,0.9822245240211487,2.7864322662353516,0.0
1659368839618324279,0.9822154641151428,2.7864086627960205,0.0
1659368839666493892,0.9822154641151428,2.7864086627960205,0.0
1659368839710177421,0.9822154641151428,2.7864086627960205,0.0
1659368839758556127,0.9822154641151428,2.7864086627960205,0.0
1659368839809171199,0.9822154641151428,2.7864086627960205,0.0
1659368839858642339,0.9822154641151428,2.7864086627960205,0.0
1659368839906141996,0.9822154641151428,2.7864086627960205,0.0
1659368839955008268,0.9822245240211487,2.7864322662353516,0.0
1659368839955096006,0.9822154641151428,2.7864086627960205,0.0
1659368839998322486,0.9822154641151428,2.7864086627960205,0.0
1659368840034161806,0.9822154641151428,2.7864086627960205,0.0
1659368840088936090,0.9822154641151428,2.7864086627960205,0.0
1659368840134382247,0.9822245240211487,2.7864322662353516,0.0
1659368840179807424,0.9822245240211487,2.7864322662353516,0.0
1659368840222315311,0.9822154641151428,2.7864086627960205,0.0
1659368840266320943,0.9822154641151428,2.7864086627960205,0.0
1659368840319713354,0.9822154641151428,2.7864086627960205,0.0
1659368840368739366,0.9822245240211487,2.7864322662353516,0.0
1659368840414343118,0.9822154641151428,2.7864086627960205,0.0
1659368840460551261,0.9822245240211487,2.7864322662353516,0.0
1659368840506450653,0.9822245240211487,2.7864322662353516,0.0
1659368840550578355,0.9822154641151428,2.7864086627960205,0.0
1659368840598592042,0.9822154641151428,2.7864086627960205,0.0
1659368840642154455,0.9822245240211487,2.7864322662353516,0.0
1659368840686550617,0.9822154641151428,2.7864086627960205,0.0
1659368840732484340,0.9822245240211487,2.7864322662353516,0.0
1659368840732566356,0.9822245240211487,2.7864322662353516,0.0
1659368840782626628,0.9822245240211487,2.7864322662353516,0.0
1659368840810975074,0.9822154641151428,2.7864086627960205,0.0
1659368840867277145,0.9822154641151428,2.7864086627960205,0.0
1659368840910534620,0.9822245240211487,2.7864322662353516,0.0
1659368840956086635,0.9822154641151428,2.7864086627960205,0.0
1659368841008492708,0.9822245240211487,2.7864322662353516,0.0
1659368841054283618,0.9822154641151428,2.7864086627960205,0.0
1659368841102232217,0.9822154641151428,2.7864086627960205,0.0
1659368841150314569,0.9822154641151428,2.7864086627960205,0.0
1659368841198349714,0.9822154641151428,2.7864086627960205,0.0
1659368841247835636,0.9822154641151428,2.7864086627960205,0.0
1659368841247974395,0.9822154641151428,2.7864086627960205,0.0
1659368841298362016,0.9822245240211487,2.7864322662353516,0.0
1659368841326302766,0.9822154641151428,2.7864086627960205,0.0
1659368841386017084,0.9822154641151428,2.7864086627960205,0.0
1659368841434212446,0.9822154641151428,2.7864086627960205,0.0
1659368841483827829,0.9822154641151428,2.7864086627960205,0.0
1659368841530241250,0.9822245240211487,2.7864322662353516,0.0
1659368841578228712,0.9822154641151428,2.7864086627960205,0.0
1659368841622164249,0.9822245240211487,2.7864322662353516,0.0
1659368841670694351,0.9822245240211487,2.7864322662353516,0.0
1659368841718894243,0.9822154641151428,2.7864086627960205,0.0
1659368841763866186,0.9822245240211487,2.7864322662353516,0.0
1659368841811568021,0.9822154641151428,2.7864086627960205,0.0
1659368841857767343,0.9822154641151428,2.7864086627960205,0.0
1659368841902096271,0.9822154641151428,2.7864086627960205,0.0
1659368841946782112,0.9822154641151428,2.7864086627960205,0.0
1659368841990124464,0.9822154641151428,2.7864086627960205,0.0
1659368842036433219,0.9822154641151428,2.7864086627960205,0.0
1659368842083019733,0.9822154641151428,2.7864086627960205,0.0
1659368842126789808,0.9822245240211487,2.7864322662353516,0.0
1659368842170301437,0.9822154641151428,2.7864086627960205,0.0
1659368842218197584,0.9822154641151428,2.7864086627960205,0.0
1659368842265649557,0.9822154641151428,2.7864086627960205,0.0
1659368842310290098,0.9822154641151428,2.7864086627960205,0.0
1659368842354564666,0.9822245240211487,2.7864322662353516,0.0
1659368842402128934,0.9822154641151428,2.7864086627960205,0.0
1659368842446474075,0.9822154641151428,2.7864086627960205,0.0
1659368842490277290,0.9822154641151428,2.7864086627960205,0.0
1659368842534461498,0.9822154641151428,2.7864086627960205,0.0
1659368842578651428,0.9822154641151428,2.7864086627960205,0.0
1659368842622225999,0.9822154641151428,2.7864086627960205,0.0
1659368842666340827,0.9822245240211487,2.7864322662353516,0.0
1659368842714625597,0.9822245240211487,2.7864322662353516,0.0
1659368842762311458,0.9822154641151428,2.7864086627960205,0.0
1659368842806514978,0.9822245240211487,2.7864322662353516,0.0
1659368842855767488,0.9822245240211487,2.7864322662353516,0.0
1659368842855895519,0.9822245240211487,2.7864322662353516,0.0
1659368842908960342,0.9822245240211487,2.7864322662353516,0.0
1659368842937877655,0.9822245240211487,2.7864322662353516,0.0
1659368842993697881,0.9822154641151428,2.7864086627960205,0.0
1659368843039502382,0.9822154641151428,2.7864086627960205,0.0
1659368843096919536,0.9822154641151428,2.7864086627960205,0.0
1659368843142369031,0.9822245240211487,2.7864322662353516,0.0
1659368843190871238,0.9822245240211487,2.7864322662353516,0.0
1659368843234462261,0.9822245240211487,2.7864322662353516,0.0
1659368843278851985,0.9822154641151428,2.7864086627960205,0.0
1659368843322782039,0.9822154641151428,2.7864086627960205,0.0
1659368843366142511,0.9822154641151428,2.7864086627960205,0.0
1659368843412486553,0.9822154641151428,2.7864086627960205,0.0
1659368843457729816,0.9822245240211487,2.7864322662353516,0.0
1659368843501997709,0.9822245240211487,2.7864322662353516,0.0
1659368843546339511,0.9822154641151428,2.7864086627960205,0.0
1659368843546502828,0.9822245240211487,2.7864322662353516,0.0
1659368843598582267,0.9822154641151428,2.7864086627960205,0.0
1659368843644088029,0.9822154641151428,2.7864086627960205,0.0
1659368843699751377,0.9822154641151428,2.7864086627960205,0.0
1659368843741697788,0.9822245240211487,2.7864322662353516,0.0
1659368843785807371,0.9822245240211487,2.7864322662353516,0.0
1659368843829892396,0.9822154641151428,2.7864086627960205,0.0
1659368843873896598,0.9822154641151428,2.7864086627960205,0.0
1659368843917782545,0.9822245240211487,2.7864322662353516,0.0
1659368843963257074,0.9822245240211487,2.7864322662353516,0.0
1659368844008046865,0.9822154641151428,2.7864086627960205,0.0
1659368844054729461,0.9822154641151428,2.7864086627960205,0.0
1659368844102710485,0.9822245240211487,2.7864322662353516,0.0
1659368844146607637,0.9822154641151428,2.7864086627960205,0.0
1659368844190389156,0.9822154641151428,2.7864086627960205,0.0
1659368844239337921,0.9822154641151428,2.7864086627960205,0.0
1659368844282249927,0.9822154641151428,2.7864086627960205,0.0
1659368844326457500,0.9822245240211487,2.7864322662353516,0.0
1659368844370454072,0.9822154641151428,2.7864086627960205,0.0
1659368844421531438,0.9822154641151428,2.7864086627960205,0.0
1659368844466891050,0.9822154641151428,2.7864086627960205,0.0
1659368844514157056,0.9822245240211487,2.7864322662353516,0.0
1659368844562731027,0.9822245240211487,2.7864322662353516,0.0
1659368844611578941,0.9822245240211487,2.7864322662353516,0.0
1659368844612109661,0.9822245240211487,2.7864322662353516,0.0
1659368844659772157,0.9822154641151428,2.7864086627960205,0.0
1659368844692537784,0.9822245240211487,2.7864322662353516,0.0
1659368844747811317,0.9822154641151428,2.7864086627960205,0.0
1659368844790107965,0.9822245240211487,2.7864322662353516,0.0
1659368844835198163,0.9822245240211487,2.7864322662353516,0.0
1659368844882452249,0.9822245240211487,2.7864322662353516,0.0
1659368844930276393,0.9822245240211487,2.7864322662353516,0.0
1659368844974598407,0.9822154641151428,2.7864086627960205,0.0
1659368845023616790,0.9822154641151428,2.7864086627960205,0.0
1659368845066547870,0.9822154641151428,2.7864086627960205,0.0
1659368845114346027,0.9822154641151428,2.7864086627960205,0.0
1659368845158361196,0.9822245240211487,2.7864322662353516,0.0
1659368845206888914,0.9822154641151428,2.7864086627960205,0.0
1659368845250395536,0.9822154641151428,2.7864086627960205,0.0
1659368845294326782,0.9822154641151428,2.7864086627960205,0.0
1659368845342213630,0.9822154641151428,2.7864086627960205,0.0
1659368845386251211,0.9822154641151428,2.7864086627960205,0.0
1659368845430295705,0.9822154641151428,2.7864086627960205,0.0
1659368845478701829,0.9822154641151428,2.7864086627960205,0.0
1659368845478797197,0.9822154641151428,2.7864086627960205,0.0
1659368845534752845,0.9822245240211487,2.7864322662353516,0.0
1659368845579895734,0.9822154641151428,2.7864086627960205,0.0
1659368845636853694,0.9822154641151428,2.7864086627960205,0.0
1659368845682535409,0.9822154641151428,2.7864086627960205,0.0
1659368845726523637,0.9822154641151428,2.7864086627960205,0.0
1659368845770290374,0.9822245240211487,2.7864322662353516,0.0
1659368845814682960,0.9822245240211487,2.7864322662353516,0.0
1659368845862561941,0.9822154641151428,2.7864086627960205,0.0
1659368845907961845,0.9822154641151428,2.7864086627960205,0.0
1659368845955042362,0.9822245240211487,2.7864322662353516,0.0
1659368845998985052,0.9822245240211487,2.7864322662353516,0.0
1659368846042669296,0.9822154641151428,2.7864086627960205,0.0
1659368846085906744,0.9822154641151428,2.7864086627960205,0.0
1659368846134714603,0.9822154641151428,2.7864086627960205,0.0
1659368846135179281,0.9822245240211487,2.7864322662353516,0.0
1659368846189294099,0.9822154641151428,2.7864086627960205,0.0
1659368846206984996,0.9822154641151428,2.7864086627960205,0.0
1659368846262515783,0.9822245240211487,2.7864322662353516,0.0
1659368846310483455,0.9822154641151428,2.7864086627960205,0.0
1659368846363885402,0.9822154641151428,2.7864086627960205,0.0
1659368846413781642,0.9822245240211487,2.7864322662353516,0.0
1659368846458394765,0.9822154641151428,2.7864086627960205,0.0
1659368846501798868,0.9822154641151428,2.7864086627960205,0.0
1659368846545789718,0.9822245240211487,2.7864322662353516,0.0
1659368846590657711,0.9822245240211487,2.7864322662353516,0.0
1659368846634252071,0.9822154641151428,2.7864086627960205,0.0
1659368846680809736,0.9822154641151428,2.7864086627960205,0.0
1659368846681011915,0.9822245240211487,2.7864322662353516,0.0
1659368846727855920,0.9822154641151428,2.7864086627960205,0.0
1659368846756345510,0.9822154641151428,2.7864086627960205,0.0
1659368846812643289,0.9822245240211487,2.7864322662353516,0.0
1659368846858352899,0.9822245240211487,2.7864322662353516,0.0
1659368846903850317,0.9822154641151428,2.7864086627960205,0.0
1659368846945999383,0.9822154641151428,2.7864086627960205,0.0
1659368846993785858,0.9822154641151428,2.7864086627960205,0.0
1659368847043694734,0.9822154641151428,2.7864086627960205,0.0
1659368847100340127,0.9822245240211487,2.7864322662353516,0.0
1659368847150398254,0.9822154641151428,2.7864086627960205,0.0
1659368847194755792,0.9822154641151428,2.7864086627960205,0.0
1659368847243271827,0.9822154641151428,2.7864086627960205,0.0
1659368847295716285,0.9822245240211487,2.7864322662353516,0.0
1659368847342314720,0.9822245240211487,2.7864322662353516,0.0
1659368847390202283,0.9822154641151428,2.7864086627960205,0.0
1659368847475489616,0.9822154641151428,2.7864086627960205,0.0
1659368847475691318,0.9822154641151428,2.7864086627960205,0.0
1659368847537276268,0.9822245240211487,2.7864322662353516,0.0
1659368847547319650,0.9822245240211487,2.7864322662353516,0.0
1659368847605094671,0.9822154641151428,2.7864086627960205,0.0
1659368847669502258,0.9822245240211487,2.7864322662353516,0.0
1659368847714366674,0.9822245240211487,2.7864322662353516,0.0
1659368847762571811,0.9822154641151428,2.7864086627960205,0.0
1659368847806935071,0.9822154641151428,2.7864086627960205,0.0
1659368847853327274,0.9822245240211487,2.7864322662353516,0.0
1659368847853502988,0.9822334051132202,2.7864558696746826,0.0
1659368847902729034,0.9822505116462708,2.786503553390503,0.0
1659368847930349826,0.9822583794593811,2.786527633666992,0.0
1659368847985301971,0.9822654724121094,2.7865519523620605,0.0
1659368848033860683,0.9822776913642883,2.7866010665893555,0.0
1659368848088994026,0.9822826385498047,2.786625862121582,0.0
1659368848134927511,0.9822905659675598,2.7866759300231934,0.0
1659368848182629823,0.9823026657104492,2.786776542663574,0.0
1659368848226223945,0.9823105335235596,2.786877393722534,0.0
1659368848270323038,0.9823123216629028,2.7869279384613037,0.0
1659368848314080953,0.9823123216629028,2.7869279384613037,0.0
1659368848358587503,0.9823111295700073,2.7869532108306885,0.0
1659368848409339904,0.9823111295700073,2.7869532108306885,0.0
1659368848459511756,0.9823111295700073,2.7869532108306885,0.0
1659368848502450466,0.9823017120361328,2.7870030403137207,0.0
1659368848547991514,0.9823017120361328,2.7870030403137207,0.0
1659368848590996742,0.9823083877563477,2.7869787216186523,0.0
1659368848638384580,0.9823237061500549,2.786930561065674,0.0
1659368848682262897,0.9823237061500549,2.786930561065674,0.0
1659368848726388931,0.9823142290115356,2.786953926086426,0.0
1659368848770151138,0.9823142290115356,2.786953926086426,0.0
1659368848814975261,0.9823482632637024,2.786885976791382,0.0
1659368848858170986,0.9823482632637024,2.786885976791382,0.0
1659368848906728982,0.9823351502418518,2.78690767288208,0.0
1659368848954169034,0.9823490977287292,2.78688645362854,0.0
1659368849002646446,0.9823490977287292,2.78688645362854,0.0
1659368849002726078,0.9823179841041565,2.78692626953125,0.0
1659368849052347898,0.982334315776825,2.7869069576263428,0.0
1659368849075309276,0.9823514223098755,2.786888360977173,0.0
1659368849130218744,0.9823514223098755,2.786888360977173,0.0
1659368849178080797,0.9823885560035706,2.7868540287017822,0.0
1659368849231552362,0.9823885560035706,2.7868540287017822,0.0
1659368849274152994,0.9824284911155701,2.78682279586792,0.0
1659368849319852352,0.9824078679084778,2.786837577819824,0.0
1659368849363875389,0.982386589050293,2.786851167678833,0.0
1659368849414584636,0.9823646545410156,2.7868638038635254,0.0
1659368849462313890,0.9823870062828064,2.7868518829345703,0.0
1659368849506599426,0.9823414087295532,2.7868738174438477,0.0
1659368849555795907,0.9823646545410156,2.7868638038635254,0.0
1659368849597890615,0.9823646545410156,2.7868638038635254,0.0
1659368849646053075,0.9823887348175049,2.786855936050415,0.0
1659368849694185733,0.9824374914169312,2.7868423461914062,0.0
1659368849742489099,0.9824374914169312,2.7868423461914062,0.0
1659368849790499925,0.9824623465538025,2.786837577819824,0.0
1659368849837856769,0.982512354850769,2.786829948425293,0.0
1659368849883719444,0.9823866486549377,2.786844491958618,0.0
1659368849926309347,0.9824624061584473,2.786839485168457,0.0
1659368849970923662,0.982411801815033,2.7868404388427734,0.0
1659368850018250703,0.9825383424758911,2.7868430614471436,0.0
1659368850063142299,0.9825636148452759,2.786844491958618,0.0
1659368850106874227,0.9825887680053711,2.7868471145629883,0.0
1659368850152508258,0.9825887680053711,2.7868471145629883,0.0
1659368850202601671,0.9826136827468872,2.786851644515991,0.0
1659368850246518373,0.9826136827468872,2.786851644515991,0.0
1659368850294561386,0.9825891852378845,2.7868452072143555,0.0
1659368850294717788,0.9826134443283081,2.7868523597717285,0.0
1659368850342206954,0.9825654029846191,2.7868363857269287,0.0
1659368850357182025,0.9826127290725708,2.7868545055389404,0.0
1659368850410242319,0.982566237449646,2.786834478378296,0.0
1659368850460168361,0.982611894607544,2.7868564128875732,0.0
1659368850501966476,0.9825226068496704,2.786808729171753,0.0
1659368850547237396,0.9825444221496582,2.7868216037750244,0.0
1659368850590676784,0.9824807047843933,2.78678035736084,0.0
1659368850634356498,0.9824190139770508,2.786736011505127,0.0
1659368850678387403,0.9823991060256958,2.7867202758789062,0.0
1659368850726564407,0.9823798537254333,2.7867038249969482,0.0
1659368850774711608,0.9823426604270935,2.7866694927215576,0.0
1659368850818739891,0.9823426604270935,2.7866694927215576,0.0
1659368850868919372,0.9823082089424133,2.7866322994232178,0.0
1659368850914308786,0.982324481010437,2.786651611328125,0.0
1659368850962448358,0.982309103012085,2.7866315841674805,0.0
1659368851006356477,0.9822945594787598,2.7866108417510986,0.0
1659368851054156064,0.9823082089424133,2.7866320610046387,0.0
1659368851098395109,0.9823465943336487,2.7866976261138916,0.0
1659368851142362356,0.9823107123374939,2.786630630493164,0.0
1659368851186367988,0.982332706451416,2.7866761684417725,0.0
1659368851230144500,0.9823426604270935,2.7866995334625244,0.0
1659368851277468204,0.9823426604270935,2.7866995334625244,0.0
1659368851322298288,0.9823426604270935,2.7866995334625244,0.0
1659368851367182016,0.9823426604270935,2.7866995334625244,0.0
1659368851410347223,0.9823426604270935,2.7866995334625244,0.0
1659368851454521417,0.9823376536369324,2.786674737930298,0.0
1659368851502107858,0.9823296666145325,2.7866246700286865,0.0
1659368851547347307,0.9823269248008728,2.7865993976593018,0.0
1659368851590138435,0.9823330044746399,2.786700487136841,0.0
1659368851638969421,0.9823346138000488,2.786776304244995,0.0
1659368851691039085,0.9823337197303772,2.7868268489837646,0.0
1659368851691166639,0.9823322892189026,2.7868521213531494,0.0
1659368851738829851,0.9823299646377563,2.786877393722534,0.0
1659368851766685485,0.9823266267776489,2.78690242767334,0.0
1659368851822719812,0.9823266267776489,2.78690242767334,0.0
1659368851871178150,0.9823378920555115,2.786853075027466,0.0
1659368851923198461,0.9823241829872131,2.7869017124176025,0.0
1659368851966821193,0.9823397994041443,2.786853551864624,0.0
1659368852014417409,0.9823397994041443,2.786853551864624,0.0
1659368852061926126,0.9823397994041443,2.786853551864624,0.0
1659368852106447935,0.9823397994041443,2.786853551864624,0.0
1659368852167294979,0.9823516011238098,2.7868311405181885,0.0
1659368852240823507,0.9823516011238098,2.7868311405181885,0.0
1659368852240931749,0.9823378920555115,2.7868523597717285,0.0
1659368852286603212,0.9823378920555115,2.7868523597717285,0.0
1659368852301649093,0.982353150844574,2.786832094192505,0.0
1659368852356828212,0.9823211431503296,2.7868711948394775,0.0
1659368852405728578,0.9822708964347839,2.786928176879883,0.0
1659368852454264879,0.9822708964347839,2.786928176879883,0.0
1659368852505509853,0.9821987152099609,2.786999225616455,0.0
1659368852555960416,0.9822360277175903,2.7869648933410645,0.0
1659368852556392192,0.9821780920028687,2.7870140075683594,0.0
1659368852608409404,0.9821181893348694,2.7870607376098633,0.0
1659368852642144203,0.9821387529373169,2.787045955657959,0.0
1659368852700301170,0.9821810126304626,2.787018060684204,0.0
1659368852750298261,0.9822027087211609,2.7870049476623535,0.0
1659368852795184850,0.9822027087211609,2.7870049476623535,0.0
1659368852838855743,0.9821574687957764,2.787027597427368,0.0
1659368852886492967,0.9821804761886597,2.7870171070098877,0.0
1659368852937894582,0.9821570515632629,2.7870266437530518,0.0
1659368853029751062,0.9821332097053528,2.7870352268218994,0.0
1659368853029896020,0.9821816086769104,2.787020444869995,0.0
1659368853092276811,0.9822061061859131,2.7870142459869385,0.0
1659368853092433691,0.9822061061859131,2.7870142459869385,0.0
1659368853142613172,0.9822061061859131,2.7870142459869385,0.0
1659368853173582553,0.982256293296814,2.7870075702667236,0.0
1659368853229798078,0.982231080532074,2.7870097160339355,0.0
1659368853274393796,0.9823322296142578,2.7870047092437744,0.0
1659368853318238258,0.9823322296142578,2.7870047092437744,0.0
1659368853362257957,0.9824081063270569,2.7870070934295654,0.0
1659368853406622648,0.9824081063270569,2.7870070934295654,0.0
1659368853453400850,0.9824584126472473,2.787012815475464,0.0
1659368853498128652,0.9824084043502808,2.7870051860809326,0.0
1659368853542115926,0.9824580550193787,2.787015199661255,0.0
1659368853588035583,0.9825072288513184,2.787027359008789,0.0
1659368853636508464,0.9824829697608948,2.787020206451416,0.0
1659368853684914588,0.9824351668357849,2.787003517150879,0.0
1659368853736217021,0.9824351668357849,2.787003517150879,0.0
1659368853786077737,0.9824119210243225,2.7869935035705566,0.0
1659368853830435514,0.9824119210243225,2.7869935035705566,0.0
1659368853874181270,0.9824565649032593,2.787017345428467,0.0
1659368853918529033,0.9825000762939453,2.787043333053589,0.0
1659368853962742328,0.9825000762939453,2.787043333053589,0.0
1659368854010589599,0.9824795126914978,2.7870285511016846,0.0
1659368854056681871,0.9824795126914978,2.7870285511016846,0.0
1659368854106499671,0.982498824596405,2.7870450019836426,0.0
1659368854154879570,0.9824244976043701,2.7869763374328613,0.0
1659368854199977397,0.9824424982070923,2.786994218826294,0.0
1659368854200427293,0.9824076890945435,2.7869575023651123,0.0
1659368854252995252,0.9824579358100891,2.7870144844055176,0.0
1659368854263921976,0.9823784828186035,2.7869160175323486,0.0
1659368854323340654,0.9823634624481201,2.786895513534546,0.0
1659368854370675086,0.9823775291442871,2.786916494369507,0.0
1659368854415744304,0.9823643565177917,2.7868947982788086,0.0
1659368854462799072,0.9823523163795471,2.786872625350952,0.0
1659368854514046669,0.9823741912841797,2.7869184017181396,0.0
1659368854558419942,0.9824038147926331,2.7869882583618164,0.0
1659368854603111505,0.9824038147926331,2.7869882583618164,0.0
1659368854646628618,0.9824274182319641,2.787060499191284,0.0
1659368854701716184,0.9824343323707581,2.7870848178863525,0.0
1659368854747262477,0.9824464917182922,2.7871339321136475,0.0
1659368854791848182,0.9824308156967163,2.7870595455169678,0.0
1659368854836456537,0.9824264645576477,2.787034511566162,0.0
1659368854884964704,0.982412576675415,2.7869341373443604,0.0
1659368854930217504,0.982412576675415,2.7869341373443604,0.0
1659368854978115797,0.982412576675415,2.7869341373443604,0.0
1659368855026699542,0.9824105501174927,2.786883592605591,0.0
1659368855070456027,0.9824105501174927,2.786883592605591,0.0
1659368855118539571,0.98241126537323,2.786858320236206,0.0
1659368855163154840,0.9824146032333374,2.7868077754974365,0.0
1659368855206313610,0.9824076294898987,2.7868833541870117,0.0
1659368855257810592,0.9824132323265076,2.7868330478668213,0.0
1659368855306418895,0.9824192523956299,2.786782741546631,0.0
1659368855355391263,0.982422411441803,2.786757707595825,0.0
1659368855355787992,0.9824256300926208,2.7867326736450195,0.0
1659368855401481866,0.9824256300926208,2.7867326736450195,0.0
1659368855428078174,0.9824289083480835,2.786707639694214,0.0
1659368855480091094,0.9824289083480835,2.786707639694214,0.0
1659368855526371479,0.9824289083480835,2.786707639694214,0.0
1659368855577444553,0.9824321866035461,2.786682605743408,0.0
1659368855622498750,0.9824289083480835,2.786707639694214,0.0
1659368855666167020,0.9824321866035461,2.786682605743408,0.0
1659368855710464477,0.9824289083480835,2.786707639694214,0.0
1659368855754168510,0.9824289083480835,2.786707639694214,0.0
1659368855798632144,0.9824321866035461,2.786682605743408,0.0
1659368855842397689,0.9824321866035461,2.786682605743408,0.0
1659368855886561393,0.9824289083480835,2.786707639694214,0.0
1659368855934638738,0.9824289083480835,2.786707639694214,0.0
1659368855978136301,0.9824289083480835,2.786707639694214,0.0
1659368856022970438,0.9824289083480835,2.786707639694214,0.0
1659368856023194313,0.9824321866035461,2.786682605743408,0.0
1659368856093312978,0.9824321866035461,2.786682605743408,0.0
1659368856104757547,0.9824289083480835,2.786707639694214,0.0
1659368856159001111,0.9824289083480835,2.786707639694214,0.0
1659368856204351186,0.9824321866035461,2.786682605743408,0.0
1659368856261637926,0.9824321866035461,2.786682605743408,0.0
1659368856306235074,0.9824321866035461,2.786682605743408,0.0
1659368856350463628,0.9824321866035461,2.786682605743408,0.0
1659368856397441864,0.9824321866035461,2.786682605743408,0.0
1659368856443658590,0.9824321866035461,2.786682605743408,0.0
1659368856489987373,0.9824321866035461,2.786682605743408,0.0
1659368856534590721,0.9824321866035461,2.786682605743408,0.0
1659368856582200527,0.9824321866035461,2.786682605743408,0.0
1659368856626396894,0.9824289083480835,2.786707639694214,0.0
1659368856670181989,0.9824321866035461,2.786682605743408,0.0
1659368856715581893,0.9824321866035461,2.786682605743408,0.0
1659368856758294820,0.9824321866035461,2.786682605743408,0.0
1659368856802139043,0.9824289083480835,2.786707639694214,0.0
1659368856846498966,0.9824321866035461,2.786682605743408,0.0
1659368856890841245,0.9824321866035461,2.786682605743408,0.0
1659368856934589862,0.9824321866035461,2.786682605743408,0.0
1659368856978298664,0.9824321866035461,2.786682605743408,0.0
1659368857026335477,0.9824321866035461,2.786682605743408,0.0
1659368857071117639,0.9824321866035461,2.786682605743408,0.0
1659368857118474721,0.9824321866035461,2.786682605743408,0.0
1659368857166140556,0.9824321866035461,2.786682605743408,0.0
1659368857210566759,0.9824321866035461,2.786682605743408,0.0
1659368857254523277,0.9824321866035461,2.786682605743408,0.0
1659368857254657745,0.9824321866035461,2.786682605743408,0.0
1659368857303728580,0.9824321866035461,2.786682605743408,0.0
1659368857361024618,0.9824321866035461,2.786682605743408,0.0
1659368857406269788,0.9824321866035461,2.786682605743408,0.0
1659368857454210758,0.9824289083480835,2.786707639694214,0.0
1659368857498342752,0.9824321866035461,2.786682605743408,0.0
1659368857542118310,0.9824321866035461,2.786682605743408,0.0
1659368857587041854,0.9824321866035461,2.786682605743408,0.0
1659368857630295515,0.9824321866035461,2.786682605743408,0.0
1659368857678506612,0.9824321866035461,2.786682605743408,0.0
1659368857722180604,0.9824321866035461,2.786682605743408,0.0
1659368857770732402,0.9824321866035461,2.786682605743408,0.0
1659368857770920038,0.9824321866035461,2.786682605743408,0.0
1659368857818084239,0.9824321866035461,2.786682605743408,0.0
1659368857855378866,0.9824321866035461,2.786682605743408,0.0
1659368857911978721,0.9824321866035461,2.786682605743408,0.0
1659368857959174394,0.9824321866035461,2.786682605743408,0.0
1659368858002474546,0.9824321866035461,2.786682605743408,0.0
1659368858050796985,0.9824321866035461,2.786682605743408,0.0
1659368858094831705,0.9824321866035461,2.786682605743408,0.0
1659368858142707347,0.9824321866035461,2.786682605743408,0.0
1659368858185960769,0.9824321866035461,2.786682605743408,0.0
1659368858230337619,0.9824321866035461,2.786682605743408,0.0
1659368858274887084,0.9824321866035461,2.786682605743408,0.0
1659368858275038242,0.9824321866035461,2.786682605743408,0.0
1659368858318439483,0.9824321866035461,2.786682605743408,0.0
1659368858347260236,0.9824321866035461,2.786682605743408,0.0
1659368858396171092,0.9824354648590088,2.7866575717926025,0.0
1659368858446605920,0.9824321866035461,2.786682605743408,0.0
1659368858568072795,0.9824321866035461,2.786682605743408,0.0
1659368858568214893,0.9824321866035461,2.786682605743408,0.0
1659368858615915536,0.9824321866035461,2.786682605743408,0.0
1659368858616062164,0.9824321866035461,2.786682605743408,0.0
1659368858662326574,0.9824321866035461,2.786682605743408,0.0
1659368858708521127,0.9824321866035461,2.786682605743408,0.0
1659368858758158445,0.9824321866035461,2.786682605743408,0.0
1659368858802401542,0.9824321866035461,2.786682605743408,0.0
1659368858846550226,0.9824321866035461,2.786682605743408,0.0
1659368858894120931,0.9824321866035461,2.786682605743408,0.0
1659368858943199634,0.9824321866035461,2.786682605743408,0.0
1659368858943284749,0.9824321866035461,2.786682605743408,0.0
1659368858989474534,0.9824321866035461,2.786682605743408,0.0
1659368859022118330,0.9824321866035461,2.786682605743408,0.0
1659368859072937011,0.9824321866035461,2.786682605743408,0.0
1659368859122146129,0.9824321866035461,2.786682605743408,0.0
1659368859170338630,0.9824321866035461,2.786682605743408,0.0
1659368859218369722,0.9824321866035461,2.786682605743408,0.0
1659368859265567302,0.9824321866035461,2.786682605743408,0.0
1659368859310136318,0.9824321866035461,2.786682605743408,0.0
1659368859358754158,0.9824321866035461,2.786682605743408,0.0
1659368859406738996,0.9824321866035461,2.786682605743408,0.0
1659368859451499700,0.9824321866035461,2.786682605743408,0.0
1659368859451614618,0.9824321866035461,2.786682605743408,0.0
1659368859499891996,0.9824321866035461,2.786682605743408,0.0
1659368859553398132,0.9824321866035461,2.786682605743408,0.0
1659368859602327585,0.9824321866035461,2.786682605743408,0.0
1659368859646314382,0.9824321866035461,2.786682605743408,0.0
1659368859694084644,0.9824321866035461,2.786682605743408,0.0
1659368859742262601,0.9824321866035461,2.786682605743408,0.0
1659368859786581754,0.9824321866035461,2.786682605743408,0.0
1659368859832171440,0.9824321866035461,2.786682605743408,0.0
1659368859832562208,0.9824321866035461,2.786682605743408,0.0
1659368859880073308,0.9824321866035461,2.786682605743408,0.0
1659368859930151224,0.9824321866035461,2.786682605743408,0.0
1659368859984576225,0.9824321866035461,2.786682605743408,0.0
1659368860027267694,0.9824321866035461,2.786682605743408,0.0
1659368860074260950,0.9824321866035461,2.786682605743408,0.0
1659368860119261026,0.9824321866035461,2.786682605743408,0.0
1659368860163273572,0.9824321866035461,2.786682605743408,0.0
1659368860206462860,0.9824321866035461,2.786682605743408,0.0
1659368860254716396,0.9824321866035461,2.786682605743408,0.0
1659368860298808336,0.9824321866035461,2.786682605743408,0.0
1659368860298986196,0.9824321866035461,2.786682605743408,0.0
1659368860342601776,0.9824321866035461,2.786682605743408,0.0
1659368860392544984,0.9824321866035461,2.786682605743408,0.0
1659368860441395759,0.9824321866035461,2.786682605743408,0.0
1659368860486362695,0.9824321866035461,2.786682605743408,0.0
1659368860530328273,0.9824321866035461,2.786682605743408,0.0
1659368860574372291,0.9824321866035461,2.786682605743408,0.0
1659368860618481159,0.9824321866035461,2.786682605743408,0.0
1659368860662285089,0.9824321866035461,2.786682605743408,0.0
1659368860710179328,0.9824321866035461,2.786682605743408,0.0
1659368860758880138,0.9824321866035461,2.786682605743408,0.0
1659368860759046316,0.9824321866035461,2.786682605743408,0.0
1659368860807482004,0.9824321866035461,2.786682605743408,0.0
1659368860858355045,0.9824321866035461,2.786682605743408,0.0
1659368860908318281,0.9824321866035461,2.786682605743408,0.0
1659368860958228826,0.9824321866035461,2.786682605743408,0.0
1659368861007030487,0.9824321866035461,2.786682605743408,0.0
1659368861051146984,0.9824321866035461,2.786682605743408,0.0
1659368861094126701,0.9824321866035461,2.786682605743408,0.0
1659368861142985582,0.9824321866035461,2.786682605743408,0.0
1659368861190241098,0.9824321866035461,2.786682605743408,0.0
1659368861238569259,0.9824321866035461,2.786682605743408,0.0
1659368861282284021,0.9824321866035461,2.786682605743408,0.0
1659368861330645084,0.9824321866035461,2.786682605743408,0.0
1659368861378119707,0.9824321866035461,2.786682605743408,0.0
1659368861422779560,0.9824321866035461,2.786682605743408,0.0
1659368861467840433,0.9824321866035461,2.786682605743408,0.0
1659368861468377113,0.9824321866035461,2.786682605743408,0.0
1659368861520366907,0.9824321866035461,2.786682605743408,0.0
1659368861539106845,0.9824321866035461,2.786682605743408,0.0
1659368861590542793,0.9824321866035461,2.786682605743408,0.0
1659368861640626192,0.9824321866035461,2.786682605743408,0.0
1659368861691730976,0.9824321866035461,2.786682605743408,0.0
1659368861738287448,0.9824321866035461,2.786682605743408,0.0
1659368861782272100,0.9824321866035461,2.786682605743408,0.0
1659368861830384731,0.9824321866035461,2.786682605743408,0.0
1659368861878840208,0.9824321866035461,2.786682605743408,0.0
1659368861922059535,0.9824321866035461,2.786682605743408,0.0
1659368861966560602,0.9824321866035461,2.786682605743408,0.0
1659368862010252952,0.9824321866035461,2.786682605743408,0.0
1659368862055819511,0.9824321866035461,2.786682605743408,0.0
1659368862098565101,0.9824321866035461,2.786682605743408,0.0
1659368862142379045,0.9824321866035461,2.786682605743408,0.0
1659368862186236381,0.9824321866035461,2.786682605743408,0.0
1659368862235447883,0.9824321866035461,2.786682605743408,0.0
1659368862282656431,0.9824321866035461,2.786682605743408,0.0
1659368862329924583,0.9824321866035461,2.786682605743408,0.0
1659368862378242015,0.9824321866035461,2.786682605743408,0.0
1659368862378330707,0.9824321866035461,2.786682605743408,0.0
1659368862428179740,0.9824321866035461,2.786682605743408,0.0
1659368862451467514,0.9824321866035461,2.786682605743408,0.0
1659368862503278732,0.9824321866035461,2.786682605743408,0.0
1659368862550409555,0.9824321866035461,2.786682605743408,0.0
1659368862597990036,0.9824321866035461,2.786682605743408,0.0
1659368862645896434,0.9824321866035461,2.786682605743408,0.0
1659368862697086095,0.9824321866035461,2.786682605743408,0.0
1659368862741845607,0.9824321866035461,2.786682605743408,0.0
1659368862785770416,0.9824321866035461,2.786682605743408,0.0
1659368862833867788,0.9824321866035461,2.786682605743408,0.0
1659368862883493900,0.9824321866035461,2.786682605743408,0.0
1659368862926048994,0.9824321866035461,2.786682605743408,0.0
1659368862973752498,0.9824321866035461,2.786682605743408,0.0
1659368863018483400,0.9824321866035461,2.786682605743408,0.0
1659368863062024116,0.9824321866035461,2.786682605743408,0.0
1659368863105877161,0.9824321866035461,2.786682605743408,0.0
1659368863149699687,0.9824321866035461,2.786682605743408,0.0
1659368863197820901,0.9824321866035461,2.786682605743408,0.0
1659368863241715431,0.9824321866035461,2.786682605743408,0.0
1659368863285867929,0.9824321866035461,2.786682605743408,0.0
1659368863330169439,0.9824321866035461,2.786682605743408,0.0
1659368863378255844,0.9824321866035461,2.786682605743408,0.0
1659368863426234006,0.9824321866035461,2.786682605743408,0.0
1659368863426479578,0.9824321866035461,2.786682605743408,0.0
1659368863474143743,0.9824321866035461,2.786682605743408,0.0
1659368863495798110,0.9824321866035461,2.786682605743408,0.0
1659368863546261548,0.9824321866035461,2.786682605743408,0.0
1659368863593867778,0.9824321866035461,2.786682605743408,0.0
1659368863640340566,0.9824321866035461,2.786682605743408,0.0
1659368863685766220,0.9824321866035461,2.786682605743408,0.0
1659368863729827404,0.9824321866035461,2.786682605743408,0.0
1659368863774104356,0.9824321866035461,2.786682605743408,0.0
1659368863818703889,0.9824321866035461,2.786682605743408,0.0
1659368863862481117,0.9824321866035461,2.786682605743408,0.0
1659368863910252094,0.9824321866035461,2.786682605743408,0.0
1659368863954531431,0.9824321866035461,2.786682605743408,0.0
1659368864002520799,0.9824321866035461,2.786682605743408,0.0
1659368864002621412,0.9824321866035461,2.786682605743408,0.0
1659368864050744295,0.9824321866035461,2.786682605743408,0.0
1659368864108297824,0.9824321866035461,2.786682605743408,0.0
1659368864154185056,0.9824321866035461,2.786682605743408,0.0
1659368864198329925,0.9824321866035461,2.786682605743408,0.0
1659368864246279954,0.9824321866035461,2.786682605743408,0.0
1659368864290870666,0.9824321866035461,2.786682605743408,0.0
1659368864335496902,0.9824321866035461,2.786682605743408,0.0
1659368864335927724,0.9824321866035461,2.786682605743408,0.0
1659368864383947610,0.9824321866035461,2.786682605743408,0.0
1659368864404798746,0.9824321866035461,2.786682605743408,0.0
1659368864454062700,0.9824321866035461,2.786682605743408,0.0
1659368864502454519,0.9824321866035461,2.786682605743408,0.0
1659368864550334930,0.9824321866035461,2.786682605743408,0.0
1659368864600063085,0.9824321866035461,2.786682605743408,0.0
1659368864655118942,0.9824321866035461,2.786682605743408,0.0
1659368864698126077,0.9824321866035461,2.786682605743408,0.0
1659368864742278099,0.9824321866035461,2.786682605743408,0.0
1659368864794325828,0.9824321866035461,2.786682605743408,0.0
1659368864839383602,0.9824321866035461,2.786682605743408,0.0
1659368864891550779,0.9824289083480835,2.786707639694214,0.0
1659368864934297800,0.9824289083480835,2.786707639694214,0.0
1659368864982363939,0.982421338558197,2.786757707595825,0.0
1659368865026191711,0.9824259877204895,2.7867329120635986,0.0
1659368865070678949,0.9824203252792358,2.786757469177246,0.0
1659368865114140748,0.9824071526527405,2.786806344985962,0.0
1659368865162145853,0.982414722442627,2.7867822647094727,0.0
1659368865206369161,0.9824060797691345,2.786806106567383,0.0
1659368865255992650,0.9824157953262329,2.786782741546631,0.0
1659368865306803703,0.9823838472366333,2.786851644515991,0.0
1659368865349918365,0.9823838472366333,2.786851644515991,0.0
1659368865393894910,0.9823838472366333,2.786851644515991,0.0
1659368865437793016,0.9824493527412415,2.786743402481079,0.0
1659368865489251613,0.982435405254364,2.786764621734619,0.0
1659368865489369153,0.9824501276016235,2.7867441177368164,0.0
1659368865534745693,0.9824191331863403,2.7867841720581055,0.0
1659368865571176290,0.9824355244636536,2.7867648601531982,0.0
1659368865625251293,0.9824355244636536,2.7867648601531982,0.0
1659368865676592826,0.9823629260063171,2.7868354320526123,0.0
1659368865726979732,0.9823060631752014,2.7868857383728027,0.0
1659368865770574808,0.9822864532470703,2.7869017124176025,0.0
1659368865819856643,0.9821851849555969,2.786977529525757,0.0
1659368865865218400,0.9821851849555969,2.786977529525757,0.0
1659368865910427808,0.98212069272995,2.787017583847046,0.0
1659368865954342842,0.9821866750717163,2.786979913711548,0.0
1659368865998354434,0.9821866750717163,2.786979913711548,0.0
1659368866046902894,0.9820947647094727,2.787022352218628,0.0
1659368866095910549,0.9821182489395142,2.787012815475464,0.0
1659368866142091751,0.9820467829704285,2.787038564682007,0.0
1659368866186835289,0.9820467829704285,2.787038564682007,0.0
1659368866230256080,0.9820711612701416,2.787031650543213,0.0
1659368866278321981,0.9820711612701416,2.787031650543213,0.0
1659368866329400777,0.9820960164070129,2.787026882171631,0.0
1659368866378355741,0.9820458292961121,2.787033796310425,0.0
1659368866426281452,0.9821717143058777,2.787020683288574,0.0
1659368866470096588,0.9821717143058777,2.787020683288574,0.0
1659368866518172979,0.9821211099624634,2.7870218753814697,0.0
1659368866518303394,0.9821211099624634,2.7870218753814697,0.0
1659368866562633037,0.9820958375930786,2.787019968032837,0.0
1659368866610022068,0.9821209907531738,2.787022829055786,0.0
1659368866663014888,0.9821959733963013,2.787034749984741,0.0
1659368866710324525,0.9822456240653992,2.7870445251464844,0.0
1659368866759274959,0.9822456240653992,2.7870445251464844,0.0
1659368866802320718,0.9822700023651123,2.7870514392852783,0.0
1659368866846586465,0.9822700023651123,2.7870514392852783,0.0
1659368866890417098,0.9822936654090881,2.787060499191284,0.0
1659368866937304496,0.9822471737861633,2.7870404720306396,0.0
1659368866986501932,0.9822471737861633,2.7870404720306396,0.0
1659368867030253887,0.9822471737861633,2.7870404720306396,0.0
1659368867074547529,0.9822254776954651,2.787027597427368,0.0
1659368867118039846,0.9821833372116089,2.7869997024536133,0.0
1659368867166253805,0.9821833372116089,2.7869997024536133,0.0
1659368867210310459,0.9821833372116089,2.7869997024536133,0.0
1659368867254566192,0.9822214245796204,2.7870330810546875,0.0
1659368867303239107,0.9822214245796204,2.7870330810546875,0.0
1659368867359133481,0.9822038412094116,2.787014961242676,0.0
1659368867406367063,0.9822205305099487,2.787034034729004,0.0
1659368867450563430,0.9822682738304138,2.787093162536621,0.0
1659368867497173309,0.982283353805542,2.7871134281158447,0.0
1659368867542496681,0.9823261499404907,2.7871761322021484,0.0
1659368867587421894,0.9823126792907715,2.7871546745300293,0.0
1659368867587552547,0.9823253154754639,2.7871766090393066,0.0
1659368867635860443,0.9823371171951294,2.787199020385742,0.0
1659368867662053346,0.9823262095451355,2.7871761322021484,0.0
1659368867712419271,0.9823062419891357,2.7871296405792236,0.0
1659368867758112430,0.9823062419891357,2.7871296405792236,0.0
1659368867804957628,0.9823062419891357,2.7871296405792236,0.0
1659368867866215467,0.9823199510574341,2.7871782779693604,0.0
1659368867910945177,0.9823256731033325,2.787202835083008,0.0
1659368867958153486,0.9823208451271057,2.7871780395507812,0.0
1659368868007025480,0.9823247790336609,2.787203073501587,0.0
1659368868054075241,0.9823276996612549,2.7872281074523926,0.0
1659368868102418422,0.9823276996612549,2.7872281074523926,0.0
1659368868146700382,0.9823269844055176,2.787202835083008,0.0
1659368868194465875,0.9823269844055176,2.787202835083008,0.0
1659368868239362239,0.982328474521637,2.787177562713623,0.0
1659368868282695770,0.9823383092880249,2.787076711654663,0.0
1659368868330195188,0.9823383092880249,2.787076711654663,0.0
1659368868377571105,0.9823430180549622,2.7870519161224365,0.0
1659368868421975851,0.9823485016822815,2.78702712059021,0.0
1659368868466613769,0.982361376285553,2.786978244781494,0.0
1659368868513380527,0.9823834300041199,2.786905527114868,0.0
1659368868513563632,0.9823917746543884,2.786881685256958,0.0
1659368868558394432,0.9824011325836182,2.786858081817627,0.0
1659368868614031791,0.9824112057685852,2.786834955215454,0.0
1659368868658453702,0.9824112057685852,2.786834955215454,0.0
1659368868706100225,0.9824228882789612,2.7868125438690186,0.0
1659368868750230312,0.9823847413063049,2.7868781089782715,0.0
1659368868794608354,0.9823847413063049,2.7868781089782715,0.0
1659368868838119029,0.9823265671730042,2.786961078643799,0.0
1659368868882714271,0.9823112487792969,2.7869813442230225,0.0
1659368868926766633,0.9823594093322754,2.7869226932525635,0.0
1659368868927000045,0.9823088645935059,2.7869794368743896,0.0
1659368868976914882,0.9823088645935059,2.7869794368743896,0.0
1659368869022229909,0.9822903275489807,2.786996603012085,0.0
1659368869073654890,0.9822516441345215,2.787029266357422,0.0
1659368869118253707,0.9822516441345215,2.787029266357422,0.0
1659368869174617528,0.982231080532074,2.787044048309326,0.0
1659368869218529939,0.9822099804878235,2.787058115005493,0.0
1659368869262253999,0.9821667671203613,2.7870843410491943,0.0
1659368869306187868,0.9821445345878601,2.7870965003967285,0.0
1659368869350437164,0.9821901917457581,2.787074565887451,0.0
1659368869402347326,0.9821670651435852,2.7870848178863525,0.0
1659368869446469068,0.9821906089782715,2.7870755195617676,0.0
1659368869490085124,0.9821189045906067,2.7871005535125732,0.0
1659368869624212741,0.9821189045906067,2.7871005535125732,0.0
1659368869624457120,0.9821434020996094,2.7870943546295166,0.0
1659368869674248218,0.9821186065673828,2.787099599838257,0.0
1659368869674487590,0.9821186065673828,2.787099599838257,0.0
1659368869678332328,0.9821688532829285,2.7870936393737793,0.0
1659368869730273246,0.9821688532829285,2.7870936393737793,0.0
1659368869778796911,0.9822447299957275,2.787090539932251,0.0
1659368869823041439,0.9821687936782837,2.78709077835083,0.0
1659368869870325565,0.9821940660476685,2.7870917320251465,0.0
1659368869916186571,0.9821688532829285,2.7870898246765137,0.0
1659368869962372541,0.982118546962738,2.7870841026306152,0.0
1659368870006597042,0.9820685386657715,2.787076473236084,0.0
1659368870050472259,0.9820437431335449,2.787071466445923,0.0
1659368870094396591,0.9820683598518372,2.7870774269104004,0.0
1659368870142180919,0.9820926785469055,2.7870843410491943,0.0
1659368870186359882,0.9820926785469055,2.7870843410491943,0.0
1659368870230165958,0.9820926785469055,2.7870843410491943,0.0
1659368870274559736,0.9820693731307983,2.787074565887451,0.0
1659368870318424224,0.982001006603241,2.787041425704956,0.0
1659368870363314628,0.9820677042007446,2.7870776653289795,0.0
1659368870406085014,0.982024073600769,2.7870519161224365,0.0
1659368870450171470,0.9820452928543091,2.7870657444000244,0.0
1659368870498227119,0.982024610042572,2.787051200866699,0.0
1659368870542270898,0.981984555721283,2.787020206451416,0.0
1659368870586941480,0.982042670249939,2.787069082260132,0.0
1659368870634371995,0.9819684028625488,2.7870001792907715,0.0
1659368870682196140,0.9819684028625488,2.7870001792907715,0.0
1659368870726568222,0.9820022583007812,2.7870378494262695,0.0
1659368870774255275,0.9820022583007812,2.7870378494262695,0.0
1659368870822471380,0.9820022583007812,2.7870378494262695,0.0
1659368870866713285,0.9820166230201721,2.7870585918426514,0.0
1659368870912321329,0.9820567965507507,2.787122964859009,0.0
1659368870958498954,0.9821189641952515,2.7872331142425537,0.0
1659368871002282381,0.9821304678916931,2.7872557640075684,0.0
1659368871051159143,0.9821725487709045,2.7873477935791016,0.0
1659368871098166942,0.9821630120277405,2.7873244285583496,0.0
1659368871146894693,0.9821970462799072,2.7874197959899902,0.0
1659368871146965265,0.9821744561195374,2.7873473167419434,0.0
1659368871191701173,0.9821678996086121,2.787322759628296,0.0
1659368871228171586,0.9821732640266418,2.7873475551605225,0.0
1659368871277183532,0.9821690320968628,2.787322521209717,0.0
1659368871329772710,0.9821659326553345,2.787297487258911,0.0
1659368871382287263,0.9821678996086121,2.787322759628296,0.0
1659368871426340341,0.9821650385856628,2.7872469425201416,0.0
1659368871470696687,0.9821649193763733,2.7872722148895264,0.0
1659368871518056154,0.9821661710739136,2.7872469425201416,0.0
1659368871567128181,0.9821661710739136,2.7872469425201416,0.0
1659368871611161708,0.9821698665618896,2.787221908569336,0.0
1659368871656486511,0.9821698665618896,2.787221908569336,0.0
1659368871713491439,0.982158362865448,2.78727126121521,0.0
1659368871758625030,0.982132613658905,2.7873692512512207,0.0
1659368871801913738,0.9821533560752869,2.7872962951660156,0.0
1659368871846465110,0.9821460247039795,2.787320613861084,0.0
1659368871894260883,0.9821460247039795,2.787320613861084,0.0
1659368871938425779,0.9821614027023315,2.7872724533081055,0.0
1659368871986184120,0.9821691513061523,2.787248373031616,0.0
1659368872044718503,0.9821768999099731,2.787224292755127,0.0
1659368872090687274,0.9821768999099731,2.787224292755127,0.0
1659368872134530544,0.9821691513061523,2.787248373031616,0.0
1659368872182206630,0.9821768999099731,2.787224292755127,0.0
1659368872227393865,0.9821768999099731,2.787224292755127,0.0
1659368872274080991,0.9821768999099731,2.787224292755127,0.0
1659368872318413496,0.9821768999099731,2.787224292755127,0.0
1659368872362387180,0.9821768999099731,2.787224292755127,0.0
1659368872410558462,0.9821768999099731,2.787224292755127,0.0
1659368872454591512,0.9821768999099731,2.787224292755127,0.0
1659368872498446226,0.9821768999099731,2.787224292755127,0.0
1659368872546866416,0.9821768999099731,2.787224292755127,0.0
1659368872547019243,0.9821768999099731,2.787224292755127,0.0
1659368872594691514,0.9821691513061523,2.787248373031616,0.0
1659368872623112201,0.9821768999099731,2.787224292755127,0.0
1659368872679499626,0.9821691513061523,2.787248373031616,0.0
1659368872732151985,0.9821768999099731,2.787224292755127,0.0
1659368872781978845,0.9821691513061523,2.787248373031616,0.0
1659368872826671838,0.9821768999099731,2.787224292755127,0.0
1659368872871021032,0.9821691513061523,2.787248373031616,0.0
1659368872918165683,0.9821768999099731,2.787224292755127,0.0
1659368872962245225,0.9821768999099731,2.787224292755127,0.0
1659368873006610155,0.9821691513061523,2.787248373031616,0.0
1659368873050515890,0.9821768999099731,2.787224292755127,0.0
1659368873105625152,0.9821691513061523,2.787248373031616,0.0
1659368873154727458,0.9821768999099731,2.787224292755127,0.0
1659368873198544740,0.9821768999099731,2.787224292755127,0.0
1659368873242202520,0.9821691513061523,2.787248373031616,0.0
1659368873287479877,0.9821691513061523,2.787248373031616,0.0
1659368873287578344,0.9821768999099731,2.787224292755127,0.0
1659368873330366134,0.9821691513061523,2.787248373031616,0.0
1659368873385328054,0.9821691513061523,2.787248373031616,0.0
1659368873434516191,0.9821768999099731,2.787224292755127,0.0
1659368873478818655,0.9821768999099731,2.787224292755127,0.0
1659368873522140264,0.9821691513061523,2.787248373031616,0.0
1659368873567163944,0.9821691513061523,2.787248373031616,0.0
1659368873611067295,0.9821768999099731,2.787224292755127,0.0
1659368873611166238,0.9821768999099731,2.787224292755127,0.0
1659368873659701347,0.9821768999099731,2.787224292755127,0.0
1659368873710177898,0.9821768999099731,2.787224292755127,0.0
1659368873760922193,0.9821768999099731,2.787224292755127,0.0
1659368873806720018,0.9821768999099731,2.787224292755127,0.0
1659368873854170560,0.9821691513061523,2.787248373031616,0.0
1659368873898583650,0.9821691513061523,2.787248373031616,0.0
1659368873942163228,0.9821691513061523,2.787248373031616,0.0
1659368873986508607,0.9821691513061523,2.787248373031616,0.0
1659368874034114122,0.9821691513061523,2.787248373031616,0.0
1659368874082671880,0.9821768999099731,2.787224292755127,0.0
1659368874082798957,0.9821691513061523,2.787248373031616,0.0
1659368874130499601,0.9821768999099731,2.787224292755127,0.0
1659368874154006481,0.9821691513061523,2.787248373031616,0.0
1659368874202863216,0.9821768999099731,2.787224292755127,0.0
1659368874255232572,0.9821768999099731,2.787224292755127,0.0
1659368874304699659,0.9821691513061523,2.787248373031616,0.0
1659368874350402593,0.9821768999099731,2.787224292755127,0.0
1659368874406281948,0.9821768999099731,2.787224292755127,0.0
1659368874450406074,0.9821768999099731,2.787224292755127,0.0
1659368874494348764,0.9821691513061523,2.787248373031616,0.0
1659368874538816213,0.9821768999099731,2.787224292755127,0.0
1659368874538947582,0.9821691513061523,2.787248373031616,0.0
1659368874584612369,0.9821691513061523,2.787248373031616,0.0
1659368874640893936,0.9821691513061523,2.787248373031616,0.0
1659368874686187267,0.9821691513061523,2.787248373031616,0.0
1659368874734935045,0.9821691513061523,2.787248373031616,0.0
1659368874734997987,0.9821768999099731,2.787224292755127,0.0
1659368874783127784,0.9821768999099731,2.787224292755127,0.0
1659368874840023756,0.9821691513061523,2.787248373031616,0.0
1659368874885882616,0.9821691513061523,2.787248373031616,0.0
1659368874932619571,0.9821768999099731,2.787224292755127,0.0
1659368874978164672,0.9821691513061523,2.787248373031616,0.0
1659368875025887489,0.9821768999099731,2.787224292755127,0.0
1659368875070196628,0.9821768999099731,2.787224292755127,0.0
1659368875070391178,0.9821768999099731,2.787224292755127,0.0
1659368875114395618,0.9821691513061523,2.787248373031616,0.0
1659368875156720399,0.9821691513061523,2.787248373031616,0.0
1659368875213475465,0.9821768999099731,2.787224292755127,0.0
1659368875262109756,0.9821768999099731,2.787224292755127,0.0
1659368875305783510,0.9821768999099731,2.787224292755127,0.0
1659368875349929332,0.9821768999099731,2.787224292755127,0.0
1659368875393796682,0.9821768999099731,2.787224292755127,0.0
1659368875437819957,0.9821691513061523,2.787248373031616,0.0
1659368875485716581,0.9821691513061523,2.787248373031616,0.0
1659368875530024051,0.9821768999099731,2.787224292755127,0.0
1659368875530128717,0.9821691513061523,2.787248373031616,0.0
1659368875574113130,0.9821691513061523,2.787248373031616,0.0
1659368875605638742,0.9821768999099731,2.787224292755127,0.0
1659368875662781238,0.9821768999099731,2.787224292755127,0.0
1659368875714307785,0.9821768999099731,2.787224292755127,0.0
1659368875758791208,0.9821768999099731,2.787224292755127,0.0
1659368875806890010,0.9821691513061523,2.787248373031616,0.0
1659368875853897809,0.9821768999099731,2.787224292755127,0.0
1659368875898407697,0.9821768999099731,2.787224292755127,0.0
1659368875943591117,0.9821691513061523,2.787248373031616,0.0
1659368875943681001,0.9821768999099731,2.787224292755127,0.0
1659368875992400884,0.9821768999099731,2.787224292755127,0.0
1659368876043543815,0.9821691513061523,2.787248373031616,0.0
1659368876098648548,0.9821768999099731,2.787224292755127,0.0
1659368876143277168,0.9821691513061523,2.787248373031616,0.0
1659368876186316013,0.9821768999099731,2.787224292755127,0.0
1659368876234779834,0.9821768999099731,2.787224292755127,0.0
1659368876282163858,0.9821768999099731,2.787224292755127,0.0
1659368876327677249,0.9821768999099731,2.787224292755127,0.0
1659368876370520114,0.9821768999099731,2.787224292755127,0.0
1659368876413753747,0.9821691513061523,2.787248373031616,0.0
1659368876462185144,0.9821691513061523,2.787248373031616,0.0
1659368876510356903,0.9821768999099731,2.787224292755127,0.0
1659368876558127880,0.9821768999099731,2.787224292755127,0.0
1659368876602547645,0.9821691513061523,2.787248373031616,0.0
1659368876651002407,0.9821691513061523,2.787248373031616,0.0
1659368876694370031,0.9821768999099731,2.787224292755127,0.0
1659368876738867044,0.9821691513061523,2.787248373031616,0.0
1659368876738970279,0.9821768999099731,2.787224292755127,0.0
1659368876789449930,0.9821768999099731,2.787224292755127,0.0
1659368876817236423,0.9821768999099731,2.787224292755127,0.0
1659368876871096134,0.9821691513061523,2.787248373031616,0.0
1659368876915128946,0.9821691513061523,2.787248373031616,0.0
1659368876958184480,0.9821768999099731,2.787224292755127,0.0
1659368877006888151,0.9821768999099731,2.787224292755127,0.0
1659368877051345825,0.9821768999099731,2.787224292755127,0.0
1659368877094304084,0.9821691513061523,2.787248373031616,0.0
1659368877138369560,0.9821768999099731,2.787224292755127,0.0
1659368877185570716,0.9821768999099731,2.787224292755127,0.0
1659368877230434894,0.9821768999099731,2.787224292755127,0.0
1659368877274489164,0.9821768999099731,2.787224292755127,0.0
1659368877322345495,0.9821691513061523,2.787248373031616,0.0
1659368877371005296,0.9821768999099731,2.787224292755127,0.0
1659368877371149063,0.9821691513061523,2.787248373031616,0.0
1659368877417159318,0.9821768999099731,2.787224292755127,0.0
1659368877445750236,0.9821691513061523,2.787248373031616,0.0
1659368877500785112,0.9821691513061523,2.787248373031616,0.0
1659368877550848245,0.9821768999099731,2.787224292755127,0.0
1659368877595442771,0.9821768999099731,2.787224292755127,0.0
1659368877638613700,0.9821691513061523,2.787248373031616,0.0
1659368877682177305,0.9821691513061523,2.787248373031616,0.0
1659368877733662366,0.9821691513061523,2.787248373031616,0.0
1659368877778284549,0.9821768999099731,2.787224292755127,0.0
1659368877822779178,0.9821691513061523,2.787248373031616,0.0
1659368877866841554,0.9821768999099731,2.787224292755127,0.0
1659368877914537429,0.9821768999099731,2.787224292755127,0.0
1659368877963148593,0.9821768999099731,2.787224292755127,0.0
1659368877963351726,0.9821691513061523,2.787248373031616,0.0
1659368878014516830,0.9821691513061523,2.787248373031616,0.0
1659368878037320613,0.9821768999099731,2.787224292755127,0.0
1659368878093096733,0.9821768999099731,2.787224292755127,0.0
1659368878142121076,0.9821691513061523,2.787248373031616,0.0
1659368878187025308,0.9821768999099731,2.787224292755127,0.0
1659368878230191946,0.9821691513061523,2.787248373031616,0.0
1659368878275008201,0.9821691513061523,2.787248373031616,0.0
1659368878337467670,0.9821768999099731,2.787224292755127,0.0
1659368878382417917,0.9821768999099731,2.787224292755127,0.0
1659368878426773786,0.9821768999099731,2.787224292755127,0.0
1659368878474343061,0.9821768999099731,2.787224292755127,0.0
