%time,field.x,field.y,field.z
30587000000,-2.0000222357357225,-0.49998244651455986,-0.0010013929558109341
30624000000,-2.00002223905603,-0.4999824269893632,-0.0010013929558405146
30653000000,-2.000022242278695,-0.4999824080383944,-0.0010013929558692174
30687000000,-2.0000222455013734,-0.4999823890873836,-0.0010013929558979305
30721000000,-2.0000222488217227,-0.49998236956205583,-0.0010013929559274971
30753000000,-2.0000222520444284,-0.4999823506109597,-0.0010013929559562033
30787000000,-2.0000222552671474,-0.49998233165982164,-0.0010013929559849234
30822000000,-2.0000222585875385,-0.4999823121343627,-0.001001392956014497
30854000000,-2.000022261810285,-0.49998229318313947,-0.0010013929560432101
30893000000,-2.0000222650330466,-0.49998227423187425,-0.0010013929560719233
30933000000,-2.0000222683534807,-0.49998225470628427,-0.0010013929561014934
30968000000,-2.000022271576269,-0.4999822357549337,-0.0010013929561302065
30999000000,-2.000022274799071,-0.49998221680354127,-0.0010013929561589092
31029000000,-2.0000222781195474,-0.4999821972778204,-0.0010013929561884759
31061000000,-2.0000222813423765,-0.49998217832634256,-0.001001392956217196
31094000000,-2.0000222845652185,-0.49998215937482277,-0.001001392956245916
31126000000,-2.000022287885737,-0.4999821398489707,-0.0010013929562754827
31156000000,-2.0000222911086065,-0.49998212089736577,-0.0010013929563041993
31189000000,-2.000022294331489,-0.4999821019457188,-0.0010013929563329263
31220000000,-2.00002229765205,-0.49998208241973574,-0.0010013929563625033
31255000000,-2.0000223008749614,-0.4999820634680035,-0.001001392956391213
31287000000,-2.0000223040978864,-0.4999820445162294,-0.0010013929564199192
31321000000,-2.0000223074184897,-0.49998202499011524,-0.001001392956449479
31353000000,-2.000022310641442,-0.4999820060382558,-0.0010013929564782129
31387000000,-2.000022313864407,-0.4999819870863546,-0.001001392956506919
31421000000,-2.0000223171850524,-0.4999819675601093,-0.0010013929565365134
31454000000,-2.000022320408045,-0.4999819486081227,-0.0010013929565652092
31488000000,-2.000022323631051,-0.4999819296560941,-0.0010013929565939328
31522000000,-2.000022326951738,-0.49998191012971765,-0.0010013929566235341
31554000000,-2.0000223301747715,-0.4999818911776038,-0.0010013929566522438
31587000000,-2.0000223333978195,-0.499981872225448,-0.0010013929566809535
31621000000,-2.0000223367185495,-0.4999818526989404,-0.001001392956710541
31655000000,-2.0000223399416246,-0.4999818337466994,-0.0010013929567392471
31690000000,-2.0000223431647135,-0.4999818147944165,-0.0010013929567679603
31721000000,-2.0000223464854856,-0.4999817952677778,-0.001001392956797558
31755000000,-2.0000223497086016,-0.49998177631540947,-0.0010013929568262608
31787000000,-2.0000223529317314,-0.4999817573629993,-0.001001392956854981
31821000000,-2.000022356252545,-0.49998173783622973,-0.001001392956884565
31854000000,-2.000022359475702,-0.49998171888373416,-0.0010013929569132815
31887000000,-2.0000223626988722,-0.4999816999311966,-0.0010013929569419946
31921000000,-2.0000223660197283,-0.49998168040429597,-0.001001392956971582
31954000000,-2.0000223692429264,-0.49998166145167316,-0.0010013929570003022
31987000000,-2.000022372466139,-0.4999816424990084,-0.0010013929570290327
32021000000,-2.000022375787038,-0.4999816229719767,-0.0010013929570586166
32054000000,-2.0000223790102774,-0.4999816040192267,-0.0010013929570873228
32084000000,-2.00002238223353,-0.49998158506643464,-0.0010013929571160533
32121000000,-2.000022385554471,-0.4999815655392716,-0.0010013929571456373
32155000000,-2.000022388777751,-0.49998154658639454,-0.0010013929571743435
32187000000,-2.000022392001044,-0.49998152763347536,-0.0010013929572030705
32221000000,-2.000022395322027,-0.49998150810618125,-0.0010013929572326719
32254000000,-2.0000223985453474,-0.4999814891531768,-0.0010013929572613815
32288000000,-2.0000224017686814,-0.49998147020013023,-0.0010013929572901016
32321000000,-2.0000224050897075,-0.49998145067270516,-0.0010013929573196995
32354000000,-2.0000224083130704,-0.4999814317195735,-0.001001392957348416
32387000000,-1.9995843080259599,-0.49998114304497693,-0.0010010684811633738
32421000000,-1.9982389158673024,-0.49998078028113874,-0.001001134076983691
32457000000,-1.9960640604339202,-0.49998025845977934,-0.0010012251533943022
32498000000,-1.993039741833706,-0.49997962887718367,-0.0010013548218113198
32522000000,-1.9890600778594805,-0.49997897271229613,-0.0010015308484970925
32555000000,-1.984413186742649,-0.49997848434453174,-0.0010017357416501303
32587000000,-1.9790898974336892,-0.49997831097083534,-0.001001973162734867
32621000000,-1.9730509116147847,-0.49997782750869396,-0.0010021580618206558
32660000000,-1.9668440395924858,-0.49997516658518426,-0.0010023232695473075
32698000000,-1.9605069240440576,-0.4999689904127082,-0.0010012419556086963
32729000000,-1.9539301678923533,-0.4999591234762747,-0.0010006578479131965
32765000000,-1.9473893363816348,-0.49995915412405256,-0.001000970070249737
32793000000,-1.9405732662248034,-0.4999797047923007,-0.0010009472198621687
32821000000,-1.9338169596765413,-0.5000364483315948,-0.0010024102398786539
32865000000,-1.9275679865387807,-0.5001253307451258,-0.0010013208169969215
32896000000,-1.9216701476004916,-0.5002695002199369,-0.0010021553546012904
32928000000,-1.9160922998934262,-0.5004720917863752,-0.0010014207081630762
32959000000,-1.910684932603498,-0.5007457419366279,-0.0010014598362989638
32991000000,-1.9057774694711291,-0.5010624208804564,-0.0010013864914885512
33029000000,-1.9008198356011814,-0.5014653431649725,-0.0010016042314468544
33059000000,-1.895586752605074,-0.5020032865490456,-0.001001668713730499
33087000000,-1.890224380367027,-0.502677747073624,-0.0010018037005065442
33121000000,-1.884622980384082,-0.5035001937640431,-0.001001995528317732
33154000000,-1.8791143254704616,-0.5044314484123024,-0.0010011327737458782
33187000000,-1.8734358653377865,-0.5055161915931322,-0.001000915665644534
33221000000,-1.867295782683423,-0.5067938884528425,-0.001000949371915895
33253000000,-1.8610641372825125,-0.5082072038214521,-0.0010010620342060517
33289000000,-1.8547593955339763,-0.5097647023170409,-0.0010016395985836604
33323000000,-1.8480796453372021,-0.5115356645407576,-0.0010013735957257151
33362000000,-1.8410831136973977,-0.5135597121946199,-0.0010016727493372783
33401000000,-1.8339254199643704,-0.515842593437508,-0.0010018676625972653
33431000000,-1.8269328935140996,-0.5182849819428538,-0.0010010547498188992
33459000000,-1.8203295056598623,-0.5207825757392528,-0.0010018259103224958
33495000000,-1.8135628681660194,-0.5235720584976796,-0.0010017249523049457
33530000000,-1.8066815415337565,-0.5266625111084325,-0.0010021078676026134
33559000000,-1.800209045957612,-0.5297623404978964,-0.0010018802065270595
33602000000,-1.7938723903948715,-0.533137910780728,-0.0010018129239517774
33631000000,-1.7878093219565856,-0.536774696534108,-0.0010012984054562912
33659000000,-1.7821919923085776,-0.5404330599257087,-0.0010015892125491525
33695000000,-1.7767973268264592,-0.5442107859232755,-0.0010012604281212714
33732000000,-1.770997454994764,-0.5485214766089022,-0.0010013039158362491
33754000000,-1.7651031003187256,-0.553180615634171,-0.0010016168504417625
33787000000,-1.7596038810548291,-0.5578156281805079,-0.0010016982927106184
33825000000,-1.754186575691093,-0.5626756472662875,-0.001001820810106583
33854000000,-1.7490757305944187,-0.5675496072432306,-0.0010019391293795941
33887000000,-1.743964160369634,-0.5727172401248043,-0.0010021822310965385
33921000000,-1.7387433334280473,-0.5782714012902093,-0.0010009827839613863
33953000000,-1.7337631325822533,-0.5838448272582138,-0.00100170229725529
33987000000,-1.7289181399933635,-0.5895518706755217,-0.00100165847216023
34021000000,-1.724292078803754,-0.5952891980939841,-0.001001683881716297
34054000000,-1.7200029680257318,-0.6008835327338508,-0.0010016334814783763
34089000000,-1.7160498109708282,-0.6062938077899525,-0.0010017368967373506
34121000000,-1.7121810716317936,-0.6118458565964155,-0.0010017476961322845
34154000000,-1.7085475365004,-0.6173165540550641,-0.001001893977169377
34188000000,-1.7049407888467976,-0.6230327038029282,-0.001001718951676639
34222000000,-1.701283498724239,-0.6292010137231417,-0.001001577630964548
34255000000,-1.6978907969691979,-0.6353243418817854,-0.001001749628184126
34290000000,-1.694641205961839,-0.6415891637449426,-0.0010017944480494659
34322000000,-1.6914615010241238,-0.6481120981145304,-0.0010013949190034663
34354000000,-1.6885310220821454,-0.654456503644928,-0.00100169581810974
34389000000,-1.6856620852512962,-0.6610220789911221,-0.0010009930184205415
34435000000,-1.6828897731927301,-0.6678028718665386,-0.0010015084759327185
34470000000,-1.680496211909302,-0.674097844875874,-0.0010012944641639675
34491000000,-1.6782985168403899,-0.6802561689050268,-0.0010014786535339458
34521000000,-1.6762763316908897,-0.6862969079740664,-0.001001516484257902
34554000000,-1.6744514795584733,-0.6921122607449315,-0.0010015907546778655
34591000000,-1.6726290489349025,-0.6983219008877947,-0.0010017545825561497
34623000000,-1.6706719256872935,-0.7054217483223095,-0.0010019682471023444
34656000000,-1.6687990786108902,-0.7125636156492308,-0.0010022048893441153
34687000000,-1.6670062164090014,-0.7196757121561371,-0.001002095895733423
34722000000,-1.665235996064131,-0.7269887143426195,-0.001001139796832265
34754000000,-1.663577507455563,-0.7341448553054531,-0.0010017838507587577
34792000000,-1.661995492183174,-0.7412561342465548,-0.001001848496089433
34832000000,-1.6604179200034284,-0.7485964021537599,-0.001001203630132598
34867000000,-1.6589322509967166,-0.7557553797365116,-0.0010015889511112222
34908000000,-1.6574922225685471,-0.762924814516867,-0.0010015244012547726
34941000000,-1.6560542369925315,-0.770321561241268,-0.0010014871098615909
34967000000,-1.6547029845415901,-0.7775104987563858,-0.0010015087607154263
34996000000,-1.6533956122891034,-0.7847087949258101,-0.0010015670855828343
35031000000,-1.652129908786035,-0.7920014542226931,-0.0010016914787134915
35070000000,-1.6509976833758295,-0.7989246279687562,-0.0010014554371481146
35099000000,-1.6499270273792073,-0.8057134559346251,-0.0010018822440610135
35128000000,-1.6488585771282571,-0.8127068431747435,-0.001002084874978073
35165000000,-1.6478580836057448,-0.8194607174768599,-0.001001039059452799
35189000000,-1.6468531289682848,-0.8264077138606077,-0.001000929138169581
35223000000,-1.645793619120874,-0.833792793446162,-0.0010016695196719445
35261000000,-1.6447748180143618,-0.8409987250911011,-0.0010016005583234518
35302000000,-1.6437681036709355,-0.8481774120968558,-0.0010014956072619575
35332000000,-1.6427275424289893,-0.855576871956108,-0.0010014313170491757
35374000000,-1.6417147651499058,-0.8627615486855504,-0.0010014662431265427
35401000000,-1.6406974454769998,-0.8699121708865852,-0.0010014407519374074
35428000000,-1.6396263386497212,-0.877287458225423,-0.0010014870626677656
35460000000,-1.63856553618637,-0.8844439654560076,-0.0010015233359415981
35498000000,-1.637513225707797,-0.8915042517893453,-0.00100193281892412
35524000000,-1.6365014084622806,-0.8985005855575215,-0.0010010997552394908
35556000000,-1.635523565153801,-0.9052168169330945,-0.001001801993785606
35587000000,-1.634571521783155,-0.9116545840774085,-0.0010009762785884273
35627000000,-1.633607108151317,-0.9181476466646726,-0.0010017974532746735
35662000000,-1.632663807219838,-0.9243819499321944,-0.0010012414530441126
35698000000,-1.6316651058704181,-0.9308040827446042,-0.0010009975651091504
35725000000,-1.6305216183988627,-0.9378066909218756,-0.001000975217078804
35758000000,-1.6293162244488237,-0.9448612206944327,-0.0010015510123980859
35787000000,-1.6280640916429912,-0.9519627781903716,-0.0010017260261314873
35821000000,-1.62676673425086,-0.9590544938911681,-0.0010010113174960776
35848000000,-1.6254279547424981,-0.9659612884895754,-0.0010009617918520994
35889000000,-1.6239871688311005,-0.9729842555721794,-0.0010013961466258693
35927000000,-1.622434024208621,-0.9802147388069229,-0.0010014093030806213
35964000000,-1.6208617882660337,-0.9872196901148459,-0.0010014412922526028
36000000000,-1.619225857205445,-0.9942113976570169,-0.0010015033191513346
36021000000,-1.6174718283559055,-1.0013836493111141,-0.0010015955590475453
36058000000,-1.6156925313758501,-1.0083248128542621,-0.001001705534970379
36087000000,-1.6138375312497533,-1.015245814601676,-0.0010018290036845276
36122000000,-1.6119193206245634,-1.0221129123051054,-0.0010010056723269295
36154000000,-1.610042349228106,-1.0286028995156118,-0.0010017767544226765
36188000000,-1.6081040918974956,-1.0350474784837675,-0.0010016119774279367
36221000000,-1.6060075645547893,-1.0416811759392963,-0.001001097429011947
36254000000,-1.6038611609301587,-1.0481226156333252,-0.001001073442135559
36286000000,-1.6015667799258897,-1.0546630039873648,-0.001000988557701761
36321000000,-1.5991995459679296,-1.0610444749386958,-0.001001952789203793
36354000000,-1.596942688505256,-1.0667755084531283,-0.0010013417151862325
36388000000,-1.594593365017349,-1.0724504698750226,-0.0010012822607284831
36421000000,-1.5920078583612147,-1.0785680649311065,-0.0010011252933234197
36455000000,-1.5893554469147477,-1.0847111348020122,-0.0010013560008663193
36491000000,-1.5867877667185004,-1.090520247618208,-0.00100141605025127
36526000000,-1.5841320771213128,-1.0964053131577425,-0.0010014736338242007
36553000000,-1.5815109839915513,-1.1020988312578366,-0.0010015655495763179
36588000000,-1.5789628762111396,-1.1075295250053026,-0.0010013697087788744
36621000000,-1.5764110504922557,-1.112885732776842,-0.001001826051213784
36653000000,-1.5739052341509001,-1.1180560279666685,-0.0010019453744359481
36688000000,-1.5714443180248672,-1.1230431296147327,-0.0010006821657037451
36721000000,-1.5689978028078553,-1.127891082699163,-0.001001659873625032
36754000000,-1.566654942441667,-1.1324194974819275,-0.0010022924265363255
36787000000,-1.564352466849186,-1.1367700376443373,-0.0010023599439751459
36821000000,-1.562078731729279,-1.1409858296667081,-0.0010025212881779356
36856000000,-1.5600358736168591,-1.1447318450874464,-0.001001955191439672
36891000000,-1.5579942517401215,-1.1484464134103574,-0.0010005093113852753
36927000000,-1.555686049500775,-1.1525970145440854,-0.0010005319978161828
36961000000,-1.5531708069688126,-1.1570411708032529,-0.0010005777730026748
36994000000,-1.5503068967581444,-1.1619908365006273,-0.0010006745068037205
37030000000,-1.5469205927915406,-1.167686932428359,-0.0010008110051093234
37058000000,-1.5432339546897769,-1.1737004929822878,-0.0010013047692399545
37088000000,-1.5394256083929458,-1.1796925351284395,-0.0010013457272025489
37125000000,-1.5353893249013295,-1.1857944039752846,-0.0010014171812540683
37158000000,-1.5313638820426179,-1.1916450078341947,-0.0010015049987443202
37197000000,-1.5272336219297946,-1.1974219429690647,-0.0010016770224874454
37228000000,-1.522913190011911,-1.2032370373651045,-0.0010018107827599564
37264000000,-1.51874333634658,-1.2086404561738369,-0.0010019530003528877
37299000000,-1.5145740507747592,-1.213851335676285,-0.0010016269203293564
37324000000,-1.5103884619926207,-1.2189159865473036,-0.001002085553608579
37361000000,-1.5065625454693605,-1.223413114015098,-0.0010019706541314621
37398000000,-1.5028721294368466,-1.2276621880705432,-0.0010023444038649056
37429000000,-1.499067477116146,-1.2319931960786115,-0.0010006964044164887
37465000000,-1.4951053163732897,-1.2364202648229212,-0.0010006683576454338
37501000000,-1.4907743339162929,-1.2411047645987363,-0.0010007235074270225
37537000000,-1.4859206072019708,-1.246133111716864,-0.0010008002382870113
37561000000,-1.4809287168275933,-1.251092474032285,-0.0010014779568304454
37591000000,-1.4759671827842111,-1.2558443686088876,-0.0010012675156808558
37631000000,-1.470945618128793,-1.2604994010878825,-0.001001550247187153
37663000000,-1.46599956327262,-1.2649292097222455,-0.0010016990354494507
37690000000,-1.4609988097514433,-1.2692592605453783,-0.0010009360640473135
37722000000,-1.4556840080684115,-1.2737254602778687,-0.001001795713295412
37755000000,-1.4505070595931504,-1.2779872403792527,-0.0010010271190341279
37793000000,-1.4454398221674913,-1.2820713291728107,-0.0010018655959686852
37824000000,-1.4403035167486253,-1.2861269672384843,-0.0010011479100957843
37857000000,-1.4350508420702235,-1.2901630075695394,-0.001001479097081398
37890000000,-1.4297749713182117,-1.2941090418270635,-0.0010016249824881147
37922000000,-1.4243297383755626,-1.2981360599458707,-0.0010016546279172887
37958000000,-1.4186718577978543,-1.3022380203048347,-0.0010018180873331423
37988000000,-1.4130665943494536,-1.3061930775022654,-0.0010010751382401283
38021000000,-1.4073599421964165,-1.3101358244975319,-0.0010021072321213347
38062000000,-1.4018076821757228,-1.3138656885719322,-0.0010012822291933128
38094000000,-1.3964035999776718,-1.317387553935463,-0.0010015277338652762
38123000000,-1.3909826489305714,-1.3208224216761997,-0.0010016940685330065
38162000000,-1.3856897395519894,-1.324075132959258,-0.001001860417315429
38193000000,-1.3803834099141523,-1.3272396682561018,-0.0010010828555830284
38225000000,-1.3748913553351394,-1.3304171593474778,-0.0010014244779697964
38262000000,-1.3695189579703033,-1.3334295755132142,-0.0010014018508772045
38301000000,-1.3645080401107037,-1.3361539501953685,-0.0010016941973683587
38332000000,-1.3600715327793456,-1.3384815216212207,-0.0010016777274732408
38371000000,-1.356257861964614,-1.3404152142251402,-0.0010013907114088672
38398000000,-1.3526852136770147,-1.3421791928501043,-0.001001333721274613
38436000000,-1.3490114824310364,-1.343941254263003,-0.0010013557850403441
38468000000,-1.3454259195066047,-1.345610969648966,-0.0010013779235286124
38507000000,-1.341723298752176,-1.347280467339934,-0.0010014051007392784
38545000000,-1.3378536167889947,-1.3489591134177474,-0.0010014413080308739
38576000000,-1.3340739839539226,-1.350534365716209,-0.0010014953350392097
38598000000,-1.3306128953153737,-1.3519216700068806,-0.001001571099517734
38629000000,-1.3271933347715323,-1.353244940474599,-0.0010016431717168595
38654000000,-1.3238594341362597,-1.3544916905330107,-0.0010017261535042732
38691000000,-1.3202737986898172,-1.355787941917007,-0.0010019400474524133
38726000000,-1.3162342267876062,-1.3572060367447776,-0.001002085022376007
38760000000,-1.3120798174862844,-1.358636583907068,-0.0010022185535276534
38795000000,-1.3079760164596086,-1.3600258030276966,-0.0010006476955549716
38826000000,-1.3039895774569006,-1.3613548170709018,-0.0010006064520663195
38862000000,-1.3003159072393742,-1.362562848583445,-0.0010006095835364721
38900000000,-1.2968248672374985,-1.363703069875438,-0.001000615542844207
38942000000,-1.2934199858978115,-1.3648129660745791,-0.001000623079747038
38968000000,-1.2903023497560877,-1.365829738241377,-0.001000627697362054
38999000000,-1.2873696142121254,-1.3667886847000101,-0.0010006276348142051
39032000000,-1.2845418174591208,-1.3677173727911156,-0.0010006148348077962
39058000000,-1.281985594804804,-1.368561810432276,-0.0010006127397429593
39091000000,-1.2796154200301533,-1.369351209237469,-0.0010006124695319148
39125000000,-1.2773682925849335,-1.3701073336949652,-0.0010006141170377965
39159000000,-1.2753765739420404,-1.370785688719965,-0.0010006147942856237
39187000000,-1.2735714280721022,-1.371408948514235,-0.0010006150015352648
39221000000,-1.2719067006711304,-1.3719926673060012,-0.0010006152289623732
39253000000,-1.2704801961596637,-1.3725013680444886,-0.001000615552440614
39292000000,-1.2692385896707878,-1.3729532556021096,-0.0010006152235188179
39330000000,-1.268132243896774,-1.373369064411208,-0.0010006149842292714
39363000000,-1.2672154776446396,-1.3737198561613126,-0.0010006138350167962
39389000000,-1.2664515239734888,-1.3740165631721648,-0.0010006128046246773
39424000000,-1.2658225649474848,-1.3742638886732228,-0.0010006119036190912
39455000000,-1.2653642470672857,-1.374445871257433,-0.0010006112062396627
39487000000,-1.265054778282559,-1.3745696028669272,-0.0010006127124109927
39523000000,-1.2648906731685636,-1.3746354102642677,-0.0010007159800057737
39555000000,-1.2648659669819295,-1.3746452912079237,-0.0010017423103059059
39588000000,-1.264866141383955,-1.3746452167309926,-0.0010018827562149855
39621000000,-1.2648661552049925,-1.3746452635849105,-0.0010019908147618772
39655000000,-1.264866166870465,-1.3746453038099633,-0.0010020746508071082
39691000000,-1.2648661776127126,-1.3746453418515854,-0.0010021410778984462
39721000000,-1.2648656467641353,-1.3746455822589227,-0.0010021602793969936
39754000000,-1.264864224180912,-1.3746461489240256,-0.0010021616416256776
39787000000,-1.264863174480599,-1.3746465706369941,-0.0010021638354384375
39822000000,-1.2648620065468756,-1.3746470406949016,-0.001002172409271921
39854000000,-1.2648608374723678,-1.3746475110204623,-0.0010021713396781567
39887000000,-1.2648597436604407,-1.3746479527718083,-0.0010021768828431359
39921000000,-1.264858555840973,-1.374648432113104,-0.001002177479597844
39954000000,-1.2648574488577637,-1.374648879919651,-0.0010021801319490126
39989000000,-1.26485631854284,-1.3746493372418072,-0.0010021813767986665
40023000000,-1.2648551700130333,-1.3746498025176268,-0.0010021828365081725
40061000000,-1.2648540528464824,-1.3746502553961324,-0.0010021840735887494
40101000000,-1.264852939028571,-1.3746507072785057,-0.0010021850471359887
40127000000,-1.264851794418963,-1.3746511720006003,-0.0010021860618005946
40159000000,-1.2648506846440897,-1.3746516228610803,-0.0010021868500284456
40192000000,-1.2648495778940747,-1.3746520727804554,-0.0010021876227544364
40223000000,-1.2648484391765626,-1.374652535949253,-0.00100218830360084
40254000000,-1.2648473364843476,-1.3746529847087348,-0.0010021889275619589
40280000000,-1.2648462356493444,-1.3746534329322306,-0.0010021895025084174
40321000000,-1.2648451036161408,-1.374653894082236,-0.0010021900565653531
40354000000,-1.2648440068259614,-1.374654341082647,-0.0010021905644301207
40395000000,-1.2648429119047158,-1.374654787520911,-0.0010021910434875742
40433000000,-1.2648417857177916,-1.3746552469187674,-0.0010021915137041343
40466000000,-1.2648406944442363,-1.374655692260005,-0.0010021919487823647
40504000000,-1.264839604901328,-1.3746561370716168,-0.0010021923661768968
40546000000,-1.264838484123121,-1.3746565948095832,-0.001002192779664804
40582000000,-1.2648373980964727,-1.3746570385136523,-0.0010021931679415515
40610000000,-1.264836313748137,-1.3746574816843486,-0.0010021935423531574
40647000000,-1.2648351982708423,-1.3746579377320325,-0.0010021939160730284
40680000000,-1.2648341172218303,-1.3746583798503011,-0.0010021942682913697
40710000000,-1.2648330377350274,-1.3746588214659619,-0.001002194609979263
40743000000,-1.2648319271243056,-1.3746592759526368,-0.0010021949515108958
40777000000,-1.2648308506828096,-1.374659716586935,-0.0010021952733670937
40807000000,-1.2648297756862303,-1.3746601567554053,-0.0010021955862431105
40838000000,-1.2648286695892004,-1.3746606097947995,-0.001002195899392079
40876000000,-1.2648275974151852,-1.3746610490609883,-0.00100219619494556
40905000000,-1.2648265265920273,-1.3746614878878962,-0.0010021964823523355
40936000000,-1.2648254247165782,-1.3746619395516808,-0.001002196770398013
40970000000,-1.2648243566094894,-1.3746623774626647,-0.0010021970432331738
40998000000,-1.2648232897719345,-1.3746628149124553,-0.001002197308407289
41021000000,-1.2648221919282518,-1.3746632651356268,-0.0010021975705986723
41054000000,-1.2648211276226853,-1.3746637016610495,-0.0010021978185188567
41090000000,-1.2648200645278653,-1.3746641377438467,-0.0010021980607347082
41128000000,-1.26481897045684,-1.374664586588112,-0.0010021983045439206
41162000000,-1.2648179097446304,-1.3746650217989875,-0.001002198535869997
41187000000,-1.264816850174663,-1.3746654565943845,-0.001002198762240506
41221000000,-1.2648157596647833,-1.3746659041375309,-0.0010021989903826675
41254000000,-1.2648147023393248,-1.374666338105808,-0.00100219920700503
41287000000,-1.2648136460843649,-1.3746667716676102,-0.0010021994190377026
41320000000,-1.264812558920375,-1.3746672179461472,-0.0010021996330139074
41354000000,-1.2648115047828021,-1.3746676506945361,-0.0010021998367021716
41389000000,-1.264810451664324,-1.3746680830506397,-0.0010022000366490466
41421000000,-1.2648093676833074,-1.374668528103968,-0.0010022002389462152
41454000000,-1.2648083165882495,-1.3746689596805766,-0.0010022004318328594
41487000000,-1.2648072664729733,-1.3746693908764014,-0.0010022006213684272
41521000000,-1.264806185578012,-1.3746698347253004,-0.0010022008138138444
41554000000,-1.2648051374576001,-1.3746702651303833,-0.0010022009970827063
41585000000,-1.2648040902966515,-1.374670695156838,-0.0010022011772832656
41623000000,-1.2648030123821234,-1.3746711378233905,-0.0010022013593743544
41656000000,-1.2648019671098085,-1.3746715670881682,-0.0010022015329963913
41687000000,-1.2648009227475328,-1.3746719959823077,-0.0010022017035351896
41721000000,-1.264799847677344,-1.3746724374906025,-0.001002201876260246
41755000000,-1.2647988051249834,-1.374672865647474,-0.0010022020410922552
41787000000,-1.2647977634453667,-1.3746732934488153,-0.0010022022032887719
41821000000,-1.264796691099557,-1.3746737338472705,-0.0010022023677396172
41853000000,-1.2647956511547747,-1.3746741609419482,-0.0010022025248606313
41887000000,-1.2647946120469395,-1.3746745876957698,-0.0010022026796061845
41921000000,-1.2647935423144723,-1.3746750270299244,-0.0010022028366283506
41955000000,-1.2647925048715336,-1.3746754531058896,-0.0010022029867582938
41987000000,-1.2647914682321506,-1.3746758788548017,-0.0010022031347066175
42021000000,-1.264790401009114,-1.3746763171676275,-0.0010022032849121981
42050000000,-1.2647893659704592,-1.3746767422632307,-0.0010022034284227592
42087000000,-1.2647883317108506,-1.3746771670390416,-0.0010022035697391726
42125000000,-1.2647872669113436,-1.3746776043568576,-0.0010022037130229706
42162000000,-1.2647862341990228,-1.3746780284948297,-0.0010022038500650012
42192000000,-1.2647852022356896,-1.3746784523250803,-0.001002203985174789
42225000000,-1.2647841397760664,-1.3746788886801573,-0.0010022041224398287
42259000000,-1.2647831093068498,-1.37467931189524,-0.0010022042538340888
42287000000,-1.2647820795625,-1.3746797348111182,-0.0010022043834538863
42321000000,-1.2647810193693565,-1.374680170230905,-0.0010022045151939427
42355000000,-1.26477999107656,-1.3746805925433248,-0.0010022046412664458
42388000000,-1.2647789634948376,-1.3746810145528623,-0.001002204765710439
42421000000,-1.2647779055007484,-1.3746814490411505,-0.0010022048920430883
42454000000,-1.2647768793221166,-1.374681870453469,-0.001002205012883138
42487000000,-1.2647758538206153,-1.3746822915779995,-0.0010022051320325402
42521000000,-1.264774797941696,-1.374682725167342,-0.0010022052529986385
42554000000,-1.2647737737868618,-1.374683145720348,-0.0010022053687383965
42587000000,-1.2647727502815098,-1.3746835659980112,-0.0010022054828106065
42621000000,-1.2647716964348474,-1.3746839987246282,-0.001002205598520739
42654000000,-1.2647706742303595,-1.374684418448496,-0.0010022057089988864
42687000000,-1.264769652654488,-1.3746848379046765,-0.0010022058178045384
42720000000,-1.2647686007706749,-1.3746852697954393,-0.0010022059282067466
42756000000,-1.2647675804467418,-1.37468568871887,-0.0010022060338083089
42787000000,-1.2647665607277794,-1.3746861073850776,-0.0010022061379245974
42821000000,-1.2647655107333704,-1.3746865384725246,-0.001002206243710873
42854000000,-1.2647644922203936,-1.374686956626484,-0.001002206344989258
42888000000,-1.2647634742906628,-1.3746873745329742,-0.0010022064449391396
42921000000,-1.264762426117292,-1.37468780484776,-0.0010022065465700135
42961000000,-1.2647614093506523,-1.3746882222613195,-0.0010022066439420371
42993000000,-1.2647603931468243,-1.3746886394366404,-0.00100220674009803
43025000000,-1.2647593467307923,-1.3746890690075444,-0.0010022068379298664
43054000000,-1.2647583316499718,-1.3746894857080878,-0.0010022069317135243
43087000000,-1.2647573171128628,-1.3746899021790533,-0.00100220702437177
43121000000,-1.2647562723944945,-1.374690331033139,-0.0010022071186901842
43156000000,-1.2647552589428273,-1.3746907470463905,-0.0010022072091473502
43188000000,-1.264754246016945,-1.3746911628382195,-0.0010022072985582768
43221000000,-1.2647532029402762,-1.3746915910009314,-0.0010022073896093567
43253000000,-1.264752191065144,-1.3746920063508912,-0.0010022074761422972
43287000000,-1.2647511797001163,-1.3746924214866802,-0.0010022075615441356
43319000000,-1.2647501382152284,-1.3746928489810606,-0.0010022076485240589
43354000000,-1.264749127868866,-1.3746932636897524,-0.0010022077319783336
43392000000,-1.2647481180164772,-1.3746936781915964,-0.0010022078145191168
43426000000,-1.264747078073837,-1.3746941050401067,-0.0010022078985956265
43458000000,-1.2647460692122292,-1.3746945191270996,-0.0010022079792254938
43487000000,-1.2647450608328028,-1.374694933012071,-0.0010022080588398645
43522000000,-1.2647440223981767,-1.3746953592289706,-0.0010022081399609674
43560000000,-1.264743014985742,-1.3746957727091578,-0.0010022082177323886
43587000000,-1.2647420080427314,-1.3746961859929971,-0.0010022082947041995
43621000000,-1.2647409710716737,-1.3746966115976713,-0.0010022083731365643
43661000000,-1.264739965067178,-1.3746970244893093,-0.0010022084484899683
43695000000,-1.2647389595184686,-1.374697437190678,-0.0010022085230885422
43732000000,-1.2647379239712757,-1.3746978622009816,-0.001002208599196499
43757000000,-1.2647369193359097,-1.3746982745215233,-0.0010022086723555958
43787000000,-1.2647359151444413,-1.3746986866571993,-0.0010022087448368078
43823000000,-1.264734880983144,-1.374699111090335,-0.0010022088188259143
43859000000,-1.2647338776811994,-1.3746995228560206,-0.0010022088899876574
43893000000,-1.264732874811791,-1.3746999344420203,-0.0010022089605252749
43922000000,-1.2647318420009956,-1.3747003583141237,-0.001002209032563154
43965000000,-1.2647308399987827,-1.3747007695403275,-0.001002209101878964
43997000000,-1.2647298384184373,-1.3747011805917246,-0.0010022091706135688
44028000000,-1.2647288069248368,-1.374701603918028,-0.0010022092408373089
44062000000,-1.2647278061906737,-1.3747020146192501,-0.0010022093084324848
44094000000,-1.264726805868329,-1.3747024251502706,-0.001002209375485029
44125000000,-1.26472577565966,-1.3747028479440602,-0.00100220944395105
44165000000,-1.2647247761598914,-1.374703258129319,-0.0010022095097452118
44202000000,-1.2647237770581667,-1.374703668145754,-0.0010022095748852926
44244000000,-1.2647227480928862,-1.3747040904124146,-0.0010022096413356656
44277000000,-1.2647217497872902,-1.3747045000921392,-0.001002209705190736
44316000000,-1.2647207518680015,-1.374704909608929,-0.0010022097684289112
44347000000,-1.2647197241088082,-1.3747053313668756,-0.0010022098329489082
44377000000,-1.2647187269624456,-1.3747057405585252,-0.0010022098949688425
44412000000,-1.264717730191389,-1.3747061495927082,-0.0010022099564082863
44429000000,-1.2647167036040736,-1.3747065708589588,-0.0010022100191108517
44459000000,-1.2647157075847584,-1.3747069795791718,-0.0010022100793981442
44488000000,-1.2647147119302202,-1.3747073881472205,-0.0010022101391343012
44521000000,-1.2647136864827369,-1.374707808938408,-0.0010022102001324036
44556000000,-1.2647126915594773,-1.3747082172019158,-0.001002210258816725
44587000000,-1.2647116969918144,-1.3747086253176874,-0.0010022103170012411
44623000000,-1.2647106726545838,-1.374709045647604,-0.0010022103764418498
44654000000,-1.2647096788000074,-1.374709453467809,-0.0010022104336534984
44687000000,-1.264708685292452,-1.3747098611444986,-0.0010022104904055008
44721000000,-1.2647076620387234,-1.3747102810263276,-0.001002210548408676
44752000000,-1.2647066692275528,-1.3747106884156797,-0.0010022106042641143
44787000000,-1.2647056767554954,-1.3747110956654176,-0.0010022106596958257
44823000000,-1.2647046545606073,-1.374711515111315,-0.0010022107163765413
44854000000,-1.2647036627695327,-1.3747119220812951,-0.0010022107709834402
44886000000,-1.264702671310293,-1.3747123289152412,-0.0010022108252008728
44921000000,-1.2647016501514985,-1.3747127479363914,-0.0010022108806650616
44954000000,-1.2647006593590833,-1.374713154497595,-0.0010022109341260646
44987000000,-1.2646996688920091,-1.3747135609262853,-0.0010022109872277751
45020000000,-1.2646986487484544,-1.3747139795333174,-0.001002211041571801
45054000000,-1.2646976589348826,-1.37471438569573,-0.0010022110939763122
45091000000,-1.2646966694401465,-1.3747147917284794,-0.001002211146052378
45119000000,-1.264695650292187,-1.374715209930624,-0.0010022111993728301
45154000000,-1.2646946614389447,-1.3747156157029863,-0.0010022112508101706
45187000000,-1.2646936728988638,-1.3747160213484697,-0.001002211301945704
45225000000,-1.2646926547286805,-1.374716439154457,-0.0010022113543241076
45261000000,-1.2646916668189787,-1.3747168445449964,-0.0010022114048723156
45296000000,-1.2646906792171824,-1.3747172498112288,-0.0010022114551432107
45329000000,-1.2646896620087276,-1.3747176672289183,-0.0010022115066379705
45358000000,-1.2646886750285091,-1.3747180722445422,-0.0010022115563219115
45394000000,-1.2646876883520788,-1.3747184771378413,-0.0010022116057170904
45421000000,-1.2646866720926624,-1.3747188941733923,-0.0010022116563284528
45458000000,-1.2646856860286004,-1.3747192988204615,-0.001002211705189996
45489000000,-1.264684700263927,-1.374719703347319,-0.0010022117538058678
45521000000,-1.2646836849392284,-1.3747201200075574,-0.001002211803649549
45554000000,-1.2646826997780822,-1.374720524292429,-0.0010022118517978573
45587000000,-1.2646817149121594,-1.3747209284590967,-0.0010022118997294813
45621000000,-1.264680700509218,-1.374721344750273,-0.0010022119488947226
45654000000,-1.264679716238728,-1.3747217486788683,-0.0010022119964093398
45693000000,-1.2646787322596291,-1.374722152491116,-0.001002212043728995
45726000000,-1.2646777187664908,-1.3747225684190223,-0.0010022120922855635
45754000000,-1.2646767353753565,-1.3747229719968215,-0.0010022121392286726
45791000000,-1.2646757522720802,-1.3747233754599881,-0.001002212185995107
45828000000,-1.2646747396776983,-1.3747237910299863,-0.0010022122339994367
45865000000,-1.2646737571554802,-1.3747241942620583,-0.0010022122804231176
45899000000,-1.264672774917847,-1.374724597381087,-0.0010022123266854518
45942000000,-1.2646717632120053,-1.3747250125981378,-0.0010022123741858617
45978000000,-1.2646707815490377,-1.3747254154891742,-0.0010022124201347314
46017000000,-1.2646698001676249,-1.374725818268639,-0.0010022124659358062
46050000000,-1.2646687893408581,-1.3747262331373347,-0.0010022125129745367
46077000000,-1.2646678085281855,-1.3747266356916814,-0.0010022125584880637
46101000000,-1.2646668279942557,-1.3747270381358174,-0.0010022126038658555
46130000000,-1.2646658180377852,-1.3747274526604116,-0.0010022126504806335
46166000000,-1.264664838067099,-1.3747278548820907,-0.0010022126955941887
46192000000,-1.2646638583725458,-1.3747282569948218,-0.0010022127405828717
46239000000,-1.2646628492782273,-1.3747286711792543,-0.0010022127868078955
46270000000,-1.264661870141812,-1.374729073071994,-0.0010022128315534777
46299000000,-1.2646608912791093,-1.3747294748569545,-0.0010022128761841796
46324000000,-1.2646598830393738,-1.3747298887048776,-0.0010022129220504175
46354000000,-1.264658904730065,-1.3747302902721334,-0.001002212966457243
46387000000,-1.2646579266922142,-1.3747306917326945,-0.0010022130107582884
46421000000,-1.264656919300028,-1.374731105247494,-0.0010022130562940997
46454000000,-1.2646559418111614,-1.3747315064924708,-0.0010022131003889628
46487000000,-1.2646549645916578,-1.37473190763176,-0.001002213144386338
46521000000,-1.264653958040477,-1.3747323208165774,-0.0010022131896177539
46554000000,-1.2646529813658498,-1.3747327217422503,-0.001002213233425038
46587000000,-1.2646520049586367,-1.3747331225631683,-0.0010022132771425989
46622000000,-1.2646509992423658,-1.3747335354209211,-0.001002213322093392
46656000000,-1.2646500233762052,-1.3747339360300512,-0.0010022133656357596
46687000000,-1.2646490477756371,-1.3747343365352942,-0.0010022134090952838
46722000000,-1.2646480428885996,-1.3747347490686914,-0.0010022134537874608
46753000000,-1.2646470678255204,-1.3747351493638449,-0.001002213497085555
46787000000,-1.2646460930263383,-1.3747355495559181,-0.001002213540307221
46822000000,-1.264645088963238,-1.3747359617674777,-0.0010022135847609429
46856000000,-1.2646441146982172,-1.3747363617510402,-0.0010022136278337174
46887000000,-1.2646431406955116,-1.3747367616322723,-0.001002213670836069
46921000000,-1.2646421374514027,-1.3747371735243379,-0.0010022137150698072
46954000000,-1.2646411639797506,-1.374737573198529,-0.0010022137579348035
46992000000,-1.2646401907689344,-1.3747379727710887,-0.0010022138007348622
47026000000,-1.2646391883391985,-1.3747383843458418,-0.0010022138447656828
47065000000,-1.2646382156565321,-1.374738783712729,-0.001002213887439058
47099000000,-1.2646372432333148,-1.3747391829786353,-0.0010022139300523737
47133000000,-1.264636241613508,-1.3747395942381542,-0.0010022139738986996
47166000000,-1.2646352697152976,-1.374739993299828,-0.0010022140163998168
47191000000,-1.2646342980753007,-1.3747403922611057,-0.0010022140588495133
47228000000,-1.2646332972611076,-1.3747408032073933,-0.0010022141025284141
47264000000,-1.2646323261438237,-1.374741201965534,-0.0010022141448696523
47295000000,-1.2646313552834052,-1.374741600623898,-0.0010022141871605592
47330000000,-1.2646303552712421,-1.3747420112586428,-0.0010022142306806252
47369000000,-1.2646293849311956,-1.3747424097149628,-0.001002214272872077
47395000000,-1.2646284148468823,-1.3747428080720308,-0.0010022143150161464
47430000000,-1.2646274156331772,-1.3747432183968915,-0.001002214358389611
47462000000,-1.2646264460669892,-1.3747436165529567,-0.00100221440044191
47491000000,-1.264625476755471,-1.3747440146102623,-0.0010022144424508342
47521000000,-1.2646244783368759,-1.374744424626784,-0.0010022144856883103
47554000000,-1.2646235095413745,-1.374744822484057,-0.0010022145276123266
47587000000,-1.2646225409995318,-1.374745220243036,-0.001002214569496021
47622000000,-1.2646215433729076,-1.3747456299526628,-0.0010022146126080177
47655000000,-1.2646205753450979,-1.3747460275125183,-0.0010022146544132332
47687000000,-1.2646196075699998,-1.3747464249745127,-0.001002214696181239
47721000000,-1.2646186107323816,-1.3747468343785998,-0.001002214739177141
47754000000,-1.264617643469445,-1.3747472316423246,-0.0010022147808725415
47788000000,-1.2646166764583273,-1.3747476288085945,-0.001002214822533605
47824000000,-1.2646156804069197,-1.3747480379084127,-0.001002214865422093
47857000000,-1.2646147139061976,-1.3747484348772134,-0.0010022149070160122
47890000000,-1.2646137476564463,-1.374748831748942,-0.0010022149485781374
47922000000,-1.2646127523886106,-1.3747492405456854,-0.0010022149913673055
47954000000,-1.2646117866475861,-1.3747496372206975,-0.0010022150328673311
47988000000,-1.2646108211567315,-1.374750033798997,-0.0010022150743378803
48020000000,-1.264609826669969,-1.374750442293788,-0.001002215117035174
48054000000,-1.2646088616862596,-1.37475083867608,-0.001002215158448217
48088000000,-1.264607896951964,-1.374751234961998,-0.0010022151998340355
48125000000,-1.2646069032439058,-1.3747516431558944,-0.0010022152424462305
48157000000,-1.2646059390152566,-1.3747520392464727,-0.0010022152837788068
48187000000,-1.2646049750353006,-1.3747524352409963,-0.0010022153250861462
48220000000,-1.2646039821037096,-1.374752843134994,-0.0010022153676191928
48256000000,-1.2646030186280273,-1.3747532389347896,-0.001002215408876947
48297000000,-1.264602055400343,-1.3747536346388376,-0.0010022154501104184
48322000000,-1.264601063243129,-1.3747540422338609,-0.0010022154925699994
48354000000,-1.264600100518334,-1.3747544377437866,-0.0010022155337579344
48385000000,-1.2645991380409107,-1.37475483315824,-0.0010022155749243068
48421000000,-1.2645981466560055,-1.3747552404551926,-0.0010022156173159248
48454000000,-1.264597184680173,-1.3747556356760897,-0.0010022156584398555
48489000000,-1.2645962229510859,-1.3747560308017874,-0.0010022156995436217
48521000000,-1.2645952323365586,-1.3747564378015105,-0.0010022157418724427
48557000000,-1.2645942711078342,-1.3747568327341855,-0.0010022157829369487
48596000000,-1.2645933101252627,-1.3747572275719173,-0.0010022158239827127
48630000000,-1.264592320279263,-1.3747576342752112,-0.001002215866253306
48666000000,-1.2645913597958764,-1.3747580289204275,-0.0010022159072625748
48697000000,-1.2645903995580774,-1.3747584234709433,-0.001002215948254559
48730000000,-1.2645894104788324,-1.3747588298785698,-0.0010022159904710046
48761000000,-1.2645884507390925,-1.374759224237053,-0.0010022160314291095
48804000000,-1.2645874912443953,-1.3747596185010686,-0.0010022160723710469
48836000000,-1.2645865029302121,-1.3747600246137506,-0.0010022161145372584
48862000000,-1.2645855439325036,-1.3747604186861846,-0.001002216155442718
48900000000,-1.2645845851803383,-1.374760812663933,-0.0010022161963312778
48933000000,-1.264583597630576,-1.3747612184819253,-0.0010022162384131054
48966000000,-1.264582639374718,-1.374761612268389,-0.0010022162792591854
48998000000,-1.2645816813629125,-1.3747620059607994,-0.001002216320078176
49028000000,-1.264580694575834,-1.3747624114848662,-0.0010022163621263985
49062000000,-1.2645797370594178,-1.3747628049863776,-0.0010022164029191254
49093000000,-1.2645787797867922,-1.3747631983939508,-0.0010022164437008887
49128000000,-1.2645777937606324,-1.3747636036248185,-0.0010022164857029676
49163000000,-1.264576836982372,-1.3747639968419154,-0.0010022165264574855
49192000000,-1.2645758804473672,-1.3747643899652942,-0.0010022165671991178
49222000000,-1.2645748951807374,-1.3747647949035395,-0.0010022166091627968
49259000000,-1.264573939139179,-1.3747651878368221,-0.0010022166498801742
49290000000,-1.2645729833404376,-1.374765580676567,-0.0010022166905860781
49332000000,-1.2645719988319049,-1.37476598532278,-0.0010022167325137478
49358000000,-1.2645710435257027,-1.3747663779728008,-0.0010022167731971697
49389000000,-1.264570088461876,-1.3747667705294655,-0.0010022168138699057
49424000000,-1.2645691047100798,-1.3747671748842025,-0.0010022168557643138
49453000000,-1.26456815013792,-1.3747675672514987,-0.0010022168964161395
49487000000,-1.264567195807714,-1.3747679595256104,-0.0010022169370580633
49521000000,-1.2645662128113282,-1.3747683635894106,-0.0010022169789214268
49555000000,-1.264565258971941,-1.3747687556744985,-0.0010022170195438593
49587000000,-1.2645643053740965,-1.3747691476665673,-0.0010022170601570457
49622000000,-1.2645633231318418,-1.3747695514399496,-0.0010022171019915364
49657000000,-1.2645623700239934,-1.3747699432433262,-0.0010022171425864979
49689000000,-1.2645614171572903,-1.3747703349538434,-0.0010022171831728863
49723000000,-1.2645604356679156,-1.3747707384373096,-0.0010022172249802633
49755000000,-1.2645594832904112,-1.3747711299594545,-0.0010022172655496271
49787000000,-1.2645585311536611,-1.3747715213888956,-0.0010022173061108863
49822000000,-1.2645409633898175,-1.3747887676973685,-0.0010023805058768619
49854000000,-1.264525982374081,-1.3748315280188734,-0.0010015684424604827
49887000000,-1.264531831990607,-1.3748701000139383,-0.0010005238262509111
49921000000,-1.2644763033282886,-1.374879323087199,-0.0010005038804667236
49954000000,-1.2643019377816906,-1.3749391657106391,-0.0010005080571175058
49979000000,-1.2639152748981055,-1.3750911306238718,-0.001000524500476177
50021000000,-1.2631921453055253,-1.3753849841190677,-0.0010005456447658122
50054000000,-1.2620739055366825,-1.375847385375358,-0.001000584952208377
50087000000,-1.260455295361918,-1.376525123817782,-0.0010006449332770999
50126000000,-1.2581823431149892,-1.3774893198548448,-0.0010007103725143407
50167000000,-1.2553416943759041,-1.3787110946609493,-0.0010012046734118388
50200000000,-1.2520503603958228,-1.38014263349933,-0.0010011764946049606
50231000000,-1.2480803604974944,-1.3818692405871134,-0.0010009820253555658
50254000000,-1.2434889363077033,-1.3838653029035213,-0.0010015240571233479
50286000000,-1.2387971843725136,-1.3858949356221202,-0.0010014039740124554
50322000000,-1.2341626129184724,-1.387845320267451,-0.0010014573445813017
50356000000,-1.2296489725324216,-1.3896902065125327,-0.0010015182851584765
50393000000,-1.224784944821982,-1.3916227928324163,-0.0010016968285793716
50422000000,-1.219163317468022,-1.3938081249637233,-0.0010017698435917967
50458000000,-1.213478683001517,-1.395979233190952,-0.0010019590127686058
50497000000,-1.207775113702543,-1.398116904948366,-0.0010013378027955329
50534000000,-1.201893232375049,-1.4002791014527993,-0.0010014240979790735
50560000000,-1.1960647130661728,-1.4023722861328032,-0.001001552875037122
50587000000,-1.190188247405508,-1.4044242853736328,-0.0010011096018255616
50623000000,-1.1843802472297447,-1.4063973073785827,-0.001002140639207949
50662000000,-1.1792176058090047,-1.4081346830411,-0.0010021004099733978
50690000000,-1.1745885498825488,-1.409712661198745,-0.001002023508818936
50721000000,-1.1704023421780783,-1.4111879065640587,-0.0010019566803507012
50758000000,-1.1669044600188911,-1.4124846207778543,-0.001002327097753379
50788000000,-1.164015643778907,-1.413627193265488,-0.0010023150329970566
50821000000,-1.1615393968620662,-1.4146879054096462,-0.0010020826871504247
50854000000,-1.1593676659269916,-1.4156925819277488,-0.0010020737828461516
50887000000,-1.1574106876046726,-1.4166597739816615,-0.0010020715129520179
50922000000,-1.1556122381524663,-1.4176022625432048,-0.0010020691910424782
50953000000,-1.1540716711990067,-1.418451930614251,-0.001002066123908095
50987000000,-1.1527269842685444,-1.419226569678952,-0.0010020597090316281
51020000000,-1.1515405482648262,-1.4199363749524367,-0.0010020678289094469
51053000000,-1.1505769551937741,-1.4205314730951295,-0.0010020670709781875
51087000000,-1.1497940968245521,-1.4210275881814864,-0.0010020783572995788
51121000000,-1.1491726221992469,-1.421429641310435,-0.0010020832326575642
51152000000,-1.1487460922380597,-1.42170987797239,-0.0010020986948095466
51188000000,-1.148491435868335,-1.4218788967354068,-0.0010021081134651971
51221000000,-1.1484074002638367,-1.4219349652665758,-0.0010021000671959386
51254000000,-1.1484121083390344,-1.421931522430483,-0.001001767676902035
51287000000,-1.1482396099787215,-1.4220456588373538,-0.0010007006205617792
51323000000,-1.1476855349226498,-1.4224139923019332,-0.001000741759383264
51354000000,-1.1467440398914799,-1.4230246469602195,-0.0010007939490360891
51387000000,-1.1453620406820941,-1.4238898397872481,-0.0010008618963124674
51425000000,-1.143434780976187,-1.425043701463171,-0.001000955099639031
51455000000,-1.1410490230339967,-1.426398657251828,-0.0010009802734300757
51486000000,-1.1381601398167778,-1.4279585477395542,-0.0010011174770929304
51520000000,-1.1346958359152932,-1.4297500418670022,-0.0010013143892197603
51554000000,-1.1309312518604409,-1.4316397346960745,-0.0010010380142804823
51587000000,-1.1269927790055378,-1.4335873898768063,-0.0010010533664850454
51622000000,-1.1225794287284816,-1.4357413348076906,-0.0010008844383802354
51655000000,-1.117734435206805,-1.438097269113972,-0.0010011195110829797
51687000000,-1.112724893232981,-1.4405150031835463,-0.00100113832065735
51720000000,-1.1070276768368246,-1.4431949164232807,-0.0010012834063377746
51753000000,-1.1007706212923454,-1.4460599852431983,-0.0010014147280293408
51787000000,-1.094228377447922,-1.448970218298323,-0.0010016195063137882
51821000000,-1.0875976085084011,-1.4518189710607785,-0.0010010623632336485
51854000000,-1.0814030102889918,-1.4543601409493192,-0.001001904369624041
51887000000,-1.075232313075653,-1.4567579513724327,-0.0010019867986488136
51921000000,-1.0688379801501162,-1.4590991332360743,-0.0010011912240556996
51957000000,-1.0626511501515696,-1.4612529119232602,-0.0010016021752030126
51986000000,-1.0564767028958404,-1.4632291776388227,-0.001001631895713815
52025000000,-1.0499555056381986,-1.4651195780378397,-0.0010004125731232806
52053000000,-1.043270342047351,-1.4668646630052231,-0.0010015178476751423
52087000000,-1.0364526676855694,-1.4684392184408397,-0.0010013866375191346
52120000000,-1.0297215238578128,-1.4697888887444357,-0.0010010627338166746
52157000000,-1.0232931864542911,-1.4708701454916562,-0.001001324971252094
52192000000,-1.0168333253732635,-1.471751818892587,-0.0010013352624884293
52224000000,-1.009987747449498,-1.4724719881263464,-0.0010013955781845163
52254000000,-1.0031573491630672,-1.4729862739902269,-0.001001545624099997
52292000000,-0.9962017452969494,-1.4733037202533132,-0.0010009945688996894
52331000000,-0.9890922365256742,-1.4734360929699823,-0.0010009669351378203
52365000000,-0.9821686011742191,-1.4733829262193014,-0.0010009466405834395
52397000000,-0.9751637967703255,-1.4731419433366573,-0.001001337672774865
52429000000,-0.9679376475918569,-1.4726968058648153,-0.0010013482052968169
52460000000,-0.9609355749684882,-1.4720802704523286,-0.0010013903397693737
52490000000,-0.954057947210448,-1.471310926169931,-0.0010015118212887177
52521000000,-0.9468596217589526,-1.4703722004352882,-0.0010015927687889552
52554000000,-0.9398400316929031,-1.469322911804126,-0.0010016768203568276
52587000000,-0.9328454328748959,-1.468144270673655,-0.0010020536026367488
52621000000,-0.9256747170288029,-1.4667930746387845,-0.0010018948294678726
52654000000,-0.9187873752307467,-1.4653515340748298,-0.001000987934310922
52690000000,-0.9118973281753872,-1.4637675295010193,-0.0010019302572779089
52724000000,-0.9048977198758997,-1.462006345586055,-0.0010011114537011034
52760000000,-0.8980968394459883,-1.460133717852994,-0.0010014816388462175
52795000000,-0.891338380161552,-1.4581096023194982,-0.0010013663179752712
52821000000,-0.8844498395476157,-1.4558669770011263,-0.0010012937985670843
52854000000,-0.8778201633287378,-1.4535204703406401,-0.0010012737083056784
52887000000,-0.871250189380381,-1.4510080162345749,-0.0010012702028277636
52925000000,-0.8645198229590404,-1.4482465941514013,-0.0010013164613198317
52956000000,-0.8580408438508794,-1.44542091626336,-0.00100136901729167
52989000000,-0.8516230320314107,-1.4424555457300765,-0.0010014680741500422
53021000000,-0.845044546422555,-1.439249585782382,-0.0010015994156350808
53053000000,-0.8387194930006072,-1.4360221339314254,-0.0010017902434526146
53087000000,-0.8324693034234331,-1.432690042163362,-0.0010012894727325777
53121000000,-0.8262902426218578,-1.4292505888961493,-0.0010020395109394849
53155000000,-0.8205161785841066,-1.4259038592031466,-0.0010017347609928944
53186000000,-0.8147974910661995,-1.4224650217639752,-0.0010018005889432108
53221000000,-0.8088268347781131,-1.418732610500821,-0.00100195082934295
53254000000,-0.8030625554465234,-1.414962513961011,-0.0010007728669156196
53287000000,-0.7973634800654481,-1.4110632722249636,-0.0010007684855548593
53321000000,-0.791634952282641,-1.406982999215278,-0.0010008289347903689
53354000000,-0.785945871194993,-1.4028098567242178,-0.0010015371879305152
53389000000,-0.7805003272073393,-1.3987005062958722,-0.0010015136448353786
53420000000,-0.7750493498042316,-1.3944761836790056,-0.0010015278941900747
53454000000,-0.7698102539419652,-1.3903105459028005,-0.0010016067653323586
53487000000,-0.7644817142666365,-1.3859737437779738,-0.0010010285192824202
53521000000,-0.7590222985134985,-1.381450025901492,-0.001001014463735437
53554000000,-0.753681407481036,-1.3769323144183123,-0.0010010168179144657
53592000000,-0.7482891370868133,-1.3722585205293323,-0.0010014238476195696
53621000000,-0.7427728582406775,-1.3673574938133382,-0.0010014710862831754
53654000000,-0.7374679161758534,-1.3625400606557634,-0.0010015387122077682
53687000000,-0.73219689166319,-1.357659112967022,-0.001001651283863668
53721000000,-0.7268045606742611,-1.3525814491373722,-0.0010017503259513658
53752000000,-0.7216130890934931,-1.347610255353042,-0.0010018880007376836
53791000000,-0.7164576972528778,-1.3425830069922176,-0.00100176867265174
53829000000,-0.7112308376494634,-1.337376250871093,-0.0010016030213758076
53867000000,-0.7062108942892377,-1.3322653984846997,-0.0010017654761326836
53892000000,-0.7012347335908066,-1.3270972290585985,-0.0010019503088882394
53921000000,-0.6961669107758583,-1.321751875221181,-0.0010011088824551304
53954000000,-0.6912721348478652,-1.3165132302391547,-0.001001595079741676
53988000000,-0.6863858765257196,-1.3112132822691698,-0.0010014214963609235
54021000000,-0.6813784666752394,-1.3057243059299874,-0.0010013909828578554
54054000000,-0.6765454749830694,-1.3003704600632329,-0.001001383509680459
54090000000,-0.6717393100380582,-1.2949908002553026,-0.0010014069376816127
54121000000,-0.666959306386067,-1.2895618837815357,-0.0010014076579473764
54152000000,-0.6625043233710598,-1.2843954446426007,-0.001001556808817937
54187000000,-0.6581013410726374,-1.2792351552441643,-0.0010016607849269964
54221000000,-0.6534289918796888,-1.27370455923513,-0.0010019171974322942
54254000000,-0.6487762227198235,-1.268159930329368,-0.0010019990899597306
54292000000,-0.6441349779030924,-1.2626028872517083,-0.0010022006186606348
54331000000,-0.6394195846500398,-1.2569349254597553,-0.0010011510206788463
54365000000,-0.6348250336118157,-1.2514038730932928,-0.0010016226099279386
54404000000,-0.6302122404389014,-1.2458616643785942,-0.0010012374582414746
54441000000,-0.6256617910788517,-1.2404035798920676,-0.001002356700053806
54462000000,-0.6213476724688388,-1.2352188711891314,-0.001001523607906684
54487000000,-0.6169817474956714,-1.229976387436358,-0.0010014504423769173
54525000000,-0.6128007080135762,-1.2249590242901907,-0.0010018589184325223
54554000000,-0.6088246159013331,-1.2201688919898233,-0.0010014937758777917
54587000000,-0.6050626693397984,-1.2156387062402205,-0.0010016426034977384
54623000000,-0.6013098373518799,-1.211115489166644,-0.0010014525669731558
54654000000,-0.5976308079452565,-1.20668509712737,-0.00100151817585227
54687000000,-0.5939723933337882,-1.2022823187128353,-0.0010015964137977257
54721000000,-0.5902029527111677,-1.1977461000005862,-0.0010017103598894475
54754000000,-0.5865441257441365,-1.1933431990702827,-0.0010018171175816236
54787000000,-0.5827387280411852,-1.1887622883277316,-0.0010021373341351746
54821000000,-0.578602237061087,-1.1837653294396737,-0.0010022693528725472
54854000000,-0.5745136371424026,-1.1787850719670576,-0.00100127029503453
54888000000,-0.5704266196843499,-1.1737460601393381,-0.0010005094935008549
54923000000,-0.5661710372586651,-1.1684496263601623,-0.0010005217709471471
54953000000,-0.5618785134626333,-1.1630857022597954,-0.0010007371917554013
54992000000,-0.5576149373969601,-1.157747040392064,-0.0010015606356188408
55024000000,-0.5532746877044695,-1.1522832444221427,-0.0010014346178394383
55059000000,-0.5490734804963199,-1.1469693668003222,-0.0010013961855186923
55092000000,-0.5448836561208859,-1.1416450596471954,-0.0010013885496404779
55126000000,-0.5403788349784956,-1.135891271718556,-0.001001445543317308
55154000000,-0.5359434315149167,-1.130182796020359,-0.0010014675107299642
55192000000,-0.5315278120828762,-1.1244571705777229,-0.0010015629972676895
55221000000,-0.5272071319373068,-1.1188118992351583,-0.0010016855524418583
55254000000,-0.5230971759627989,-1.1133982546814107,-0.0010018411160322774
55287000000,-0.5190069796730602,-1.1079707711711058,-0.0010019736474698657
55326000000,-0.5147621803566376,-1.1022958669039538,-0.001002301446744184
55354000000,-0.5106472775120937,-1.0967553078620564,-0.0010015381066733643
55387000000,-0.5066092454169244,-1.0912555999490248,-0.0010012950932294547
55432000000,-0.5024196638966191,-1.0855224858734678,-0.001000523261785763
55461000000,-0.4982163582242007,-1.0797571128165175,-0.001001335898531401
55487000000,-0.49416102873794965,-1.0741638318924678,-0.0010014489030760673
55521000000,-0.49006214339904236,-1.068487302753901,-0.0010014250630270179
55555000000,-0.4860924370152691,-1.0629701716924083,-0.0010013956740408808
55589000000,-0.48196703756127035,-1.0572282429793223,-0.0010012888197671772
55623000000,-0.4775604803041208,-1.051136805270719,-0.0010014523139171873
55656000000,-0.47325860531548664,-1.0452411408713447,-0.001001526053614414
55693000000,-0.4689321470512495,-1.0393618330875531,-0.001001637993964754
55729000000,-0.4645488917578206,-1.0334336922208258,-0.0010012316403005643
55754000000,-0.46030927006947386,-1.0276647115327502,-0.0010017930988300353
55790000000,-0.4561657191464436,-1.0219919814060319,-0.0010015311872451776
55821000000,-0.45196629952235556,-1.0162231156281643,-0.0010024250235812458
55850000000,-0.4479064252670301,-1.0106268979119173,-0.001000533586326461
55895000000,-0.4438146599438731,-1.0049735149713441,-0.00100064329598221
55930000000,-0.43951316313380384,-0.9990404446137143,-0.0010008330103490788
55957000000,-0.43520762287609105,-0.9931520340208501,-0.001001534174655809
55994000000,-0.43087681065176026,-0.9872850711743361,-0.001001452962263824
56031000000,-0.426389566918372,-0.9812570569102991,-0.0010014104963673824
56058000000,-0.4220100556763962,-0.9754229553548251,-0.0010014051420909886
56089000000,-0.41760664813474213,-0.9696052988563794,-0.0010014344651399845
56121000000,-0.4133448414002265,-0.9640196515928576,-0.001001435850849195
56156000000,-0.40925023303761465,-0.9586774871548004,-0.0010015528469129419
56187000000,-0.40505024257772676,-0.9532409129469862,-0.001001723737086329
56221000000,-0.4009166534845892,-0.9479383207882212,-0.0010011942044421407
56254000000,-0.3969927278441531,-0.9429520372029464,-0.0010019874635377353
56290000000,-0.39304552370089757,-0.937980502390359,-0.0010021434443553828
56327000000,-0.3889777656059223,-0.932903824837253,-0.0010019877687740542
56354000000,-0.38502672166546,-0.9280160477766236,-0.0010017928226873675
56390000000,-0.3810589054100574,-0.9231599388720931,-0.0010012983556074578
56433000000,-0.3771207362796617,-0.9183918041145928,-0.0010025312447193048
56457000000,-0.3733999601822665,-0.9139232565088906,-0.0010015282512926584
56497000000,-0.3699050753217801,-0.9097616067937243,-0.0010019457479236125
56530000000,-0.3664451783186111,-0.9056664946419448,-0.0010014801965245908
56561000000,-0.36305831763550345,-0.9016852031654913,-0.0010014279501737028
56592000000,-0.35971632076224513,-0.8977858294675791,-0.0010014208625101807
56621000000,-0.3562583889884672,-0.8937857303505427,-0.0010014153228232285
56661000000,-0.3528850803826224,-0.8899169218866896,-0.001001435040056984
56695000000,-0.3498441485002585,-0.88645832595012,-0.0010014441991832157
56730000000,-0.3473658775337043,-0.883663302732183,-0.001001557725637016
56765000000,-0.3456167616261063,-0.8817076993445603,-0.0010015264792414477
56799000000,-0.3445174792482251,-0.8804905196895042,-0.001001510141385182
56829000000,-0.3440329267041716,-0.8799592200332521,-0.0010014030678118409
56863000000,-0.3439645730030983,-0.8798847416243478,-0.0010014774610915787
56895000000,-0.34396345191139194,-0.879883471193439,-0.0010014651518770804
56936000000,-0.3439623032865621,-0.8798821861191077,-0.0010014669736295168
56960000000,-0.34396119268188946,-0.8798809448752575,-0.0010014685448844172
57001000000,-0.3439600864393293,-0.8798797083475093,-0.0010014700866612276
57029000000,-0.3439589506654691,-0.8798784384881657,-0.001001471214903897
57061000000,-0.34395785087660546,-0.8798772084425518,-0.0010014715809337285
57091000000,-0.3439567543641142,-0.8798759811617078,-0.0010014724169184752
57129000000,-0.3439556265311316,-0.8798747166027198,-0.001001472973030059
57155000000,-0.343954533334554,-0.8798734914238643,-0.0010014736551456696
57187000000,-0.34395344188604554,-0.8798722682103904,-0.0010014744010940144
57221000000,-0.3439523193420751,-0.879871009704748,-0.0010014751290336361
57254000000,-0.3439512316127744,-0.8798697909466012,-0.0010014758823662755
57287000000,-0.34395014552876385,-0.8798685752043752,-0.0010014766141312088
57322000000,-0.3439490282183392,-0.8798673256499324,-0.00100147734210718
57354000000,-0.3439479453819776,-0.8798661155830736,-0.0010014780192496263
57387000000,-0.34394686412715714,-0.8798649078713457,-0.0010014786580639715
57421000000,-0.34394575175814307,-0.8798636655273163,-0.0010014792706473374
