%time,field.x,field.y,field.z
1659367930851162433,-0.9472424983978271,4.921841621398926,0.0
1659367930874978303,-0.9472424983978271,4.921841621398926,0.0
1659367930931992053,-0.9472424983978271,4.921841621398926,0.0
1659367930961471319,-0.9472424983978271,4.921841621398926,0.0
1659367931015705585,-0.9472424983978271,4.921841621398926,0.0
1659367931066195964,-0.9472424983978271,4.921841621398926,0.0
1659367931122364044,-0.9472424983978271,4.921841621398926,0.0
1659367931179413080,-0.9472424983978271,4.921841621398926,0.0
1659367931234611034,-0.9472424983978271,4.921841621398926,0.0
1659367931263030529,-0.9472424983978271,4.921841621398926,0.0
1659367931319498538,-0.9472424983978271,4.921841621398926,0.0
1659367931371305227,-0.9472296833992004,4.921863555908203,0.0
1659367931427234888,-0.9472424983978271,4.921841621398926,0.0
1659367931450061082,-0.9472424983978271,4.921841621398926,0.0
1659367931504516839,-0.9472424983978271,4.921841621398926,0.0
1659367931549977540,-0.9472424983978271,4.921841621398926,0.0
1659367931595327377,-0.9472424983978271,4.921841621398926,0.0
1659367931638639211,-0.9472424983978271,4.921841621398926,0.0
1659367931690539598,-0.9472424983978271,4.921841621398926,0.0
1659367931734013557,-0.9472296833992004,4.921863555908203,0.0
1659367931777781486,-0.9472424983978271,4.921841621398926,0.0
1659367931825632572,-0.9472424983978271,4.921841621398926,0.0
1659367931870492935,-0.9472424983978271,4.921841621398926,0.0
1659367931913690328,-0.9472424983978271,4.921841621398926,0.0
1659367931962534427,-0.9472424983978271,4.921841621398926,0.0
1659367932010672807,-0.9472424983978271,4.921841621398926,0.0
1659367932059670209,-0.9472424983978271,4.921841621398926,0.0
1659367932102929830,-0.9472424983978271,4.921841621398926,0.0
1659367932150750637,-0.9472424983978271,4.921841621398926,0.0
1659367932150819540,-0.9472424983978271,4.921841621398926,0.0
1659367932203901767,-0.9472296237945557,4.921863555908203,0.0
1659367932254995346,-0.9472424387931824,4.921841621398926,0.0
1659367932311281919,-0.9472424387931824,4.921841621398926,0.0
1659367932354348897,-0.9472424387931824,4.921841621398926,0.0
1659367932399788856,-0.9472296237945557,4.921863555908203,0.0
1659367932458083391,-0.9472424983978271,4.921841621398926,0.0
1659367932506917476,-0.9472424983978271,4.921841621398926,0.0
1659367932554357290,-0.9472424983978271,4.921841621398926,0.0
1659367932599954605,-0.9472424983978271,4.921841621398926,0.0
1659367932642057180,-0.9472424983978271,4.921841621398926,0.0
1659367932690337419,-0.9472424983978271,4.921841621398926,0.0
1659367932733984470,-0.9472424983978271,4.921841621398926,0.0
1659367932778280258,-0.9472424983978271,4.921841621398926,0.0
1659367932822157621,-0.9472424983978271,4.921841621398926,0.0
1659367932866203546,-0.9472424983978271,4.921841621398926,0.0
1659367932910246372,-0.9472424983978271,4.921841621398926,0.0
1659367932954311370,-0.9472424983978271,4.921841621398926,0.0
1659367932998209476,-0.9479501843452454,4.920642852783203,0.0
1659367933042999029,-0.9495001435279846,4.918030738830566,0.0
1659367933086037397,-0.9532110691070557,4.911726951599121,0.0
1659367933130292177,-0.9560151100158691,4.906887054443359,0.0
1659367933174194335,-0.9617794752120972,4.896800518035889,0.0
1659367933222086191,-0.9651800990104675,4.890785217285156,0.0
1659367933266272544,-0.970281720161438,4.881806373596191,0.0
1659367933310514450,-0.9736818671226501,4.87587833404541,0.0
1659367933404855489,-0.9783903360366821,4.867666244506836,0.0
1659367933405045986,-0.9818071722984314,4.861689567565918,0.0
1659367933450479507,-0.9868131875991821,4.852860450744629,0.0
1659367933463292121,-0.9902721643447876,4.846674919128418,0.0
1659367933506304740,-0.995101809501648,4.837978839874268,0.0
1659367933553972721,-0.9984695911407471,4.831916332244873,0.0
1659367933600700616,-1.0045735836029053,4.820859432220459,0.0
1659367933649857282,-1.0078471899032593,4.814860820770264,0.0
1659367933698615550,-1.0123211145401,4.806547164916992,0.0
1659367933746625900,-1.0156117677688599,4.800356388092041,0.0
1659367933789775371,-1.0203732252120972,4.7913641929626465,0.0
1659367933833781480,-1.023614764213562,4.785233497619629,0.0
1659367933877938747,-1.0295934677124023,4.773764610290527,0.0
1659367933922511339,-1.0326181650161743,4.767834663391113,0.0
1659367933965905189,-1.0369476079940796,4.759245872497559,0.0
1659367934013682126,-1.0398321151733398,4.753471851348877,0.0
1659367934063133239,-1.0440794229507446,4.744814395904541,0.0
1659367934106268882,-1.0469354391098022,4.738829612731934,0.0
1659367934153632402,-1.0507858991622925,4.730487823486328,0.0
1659367934198814630,-1.0535391569137573,4.724343776702881,0.0
1659367934199014425,-1.0572679042816162,4.7158637046813965,0.0
1659367934254605054,-1.0599088668823242,4.709780693054199,0.0
1659367934299249410,-1.064656138420105,4.698514938354492,0.0
1659367934356969356,-1.0671011209487915,4.6924872398376465,0.0
1659367934402065515,-1.0704941749572754,4.683921813964844,0.0
1659367934447203159,-1.0728380680084229,4.677881240844727,0.0
1659367934490754842,-1.076267123222351,4.668895244598389,0.0
1659367934538976907,-1.0786128044128418,4.6626386642456055,0.0
1659367934585650205,-1.0818804502487183,4.6536736488342285,0.0
1659367934635250806,-1.0841193199157715,4.647350788116455,0.0
1659367934635379552,-1.087146520614624,4.638702869415283,0.0
1659367934689458608,-1.0892939567565918,4.632535934448242,0.0
1659367934712129831,-1.0924034118652344,4.623568058013916,0.0
1659367934771505117,-1.0945887565612793,4.617253303527832,0.0
1659367934814168214,-1.097795009613037,4.607783794403076,0.0
1659367934858366250,-1.0998653173446655,4.6014838218688965,0.0
1659367934902327299,-1.103560209274292,4.590149402618408,0.0
1659367934961540460,-1.1055458784103394,4.5840349197387695,0.0
1659367935006352424,-1.1086493730545044,4.574291706085205,0.0
1659367935053951263,-1.1106129884719849,4.567957878112793,0.0
1659367935099613428,-1.1134182214736938,4.5586256980896,0.0
1659367935146094083,-1.1153122186660767,4.5521650314331055,0.0
1659367935190373659,-1.1186022758483887,4.540706634521484,0.0
1659367935238202571,-1.1204354763031006,4.534175872802734,0.0
1659367935282652139,-1.1228713989257812,4.525211811065674,0.0
1659367935330703020,-1.1245317459106445,4.518844127655029,0.0
1659367935374374866,-1.1270278692245483,4.508927822113037,0.0
1659367935418401479,-1.128602385520935,4.502511978149414,0.0
1659367935462193965,-1.1314259767532349,4.4906697273254395,0.0
1659367935509120702,-1.132970929145813,4.483986854553223,0.0
1659367935554491758,-1.1349862813949585,4.47512674331665,0.0
1659367935598134517,-1.1364655494689941,4.4685587882995605,0.0
1659367935642149686,-1.1387838125228882,4.458106517791748,0.0
1659367935686070680,-1.140249490737915,4.451354026794434,0.0
1659367935730094432,-1.1428152322769165,4.43924617767334,0.0
1659367935774092912,-1.1441974639892578,4.432579517364502,0.0
1659367935818571329,-1.1460680961608887,4.423506736755371,0.0
1659367935862303733,-1.1474156379699707,4.416962146759033,0.0
1659367935910648822,-1.1492890119552612,4.407709121704102,0.0
1659367935954094648,-1.1505963802337646,4.40110445022583,0.0
1659367935998601436,-1.1522458791732788,4.392606735229492,0.0
1659367936043683528,-1.1534525156021118,4.386240482330322,0.0
1659367936043845653,-1.1553672552108765,4.375912666320801,0.0
1659367936091899871,-1.1564967632293701,4.3697123527526855,0.0
1659367936122546672,-1.1581124067306519,4.360641956329346,0.0
1659367936178913831,-1.1592164039611816,4.35420560836792,0.0
1659367936229318618,-1.1612190008163452,4.341914653778076,0.0
1659367936285440683,-1.1622203588485718,4.335513114929199,0.0
1659367936330464601,-1.1635750532150269,4.3265790939331055,0.0
1659367936417623043,-1.16452956199646,4.320067882537842,0.0
1659367936418042898,-1.1659338474273682,4.309760570526123,0.0
1659367936462608098,-1.1667242050170898,4.303380489349365,0.0
1659367936499260187,-1.168086290359497,4.2914862632751465,0.0
1659367936555542230,-1.1687840223312378,4.28496789932251,0.0
1659367936598719596,-1.1696546077728271,4.27632999420166,0.0
1659367936642463207,-1.1702886819839478,4.269627094268799,0.0
1659367936686322927,-1.1711775064468384,4.2592878341674805,0.0
1659367936730368852,-1.1716854572296143,4.252752304077148,0.0
1659367936773967266,-1.1725457906723022,4.240151405334473,0.0
1659367936819179773,-1.1729179620742798,4.2336320877075195,0.0
1659367936872135162,-1.1734845638275146,4.222104549407959,0.0
1659367936928857564,-1.1737520694732666,4.21565580368042,0.0
1659367936970068693,-1.1740593910217285,4.206878185272217,0.0
1659367937015661239,-1.1742491722106934,4.200401306152344,0.0
1659367937058340549,-1.1744691133499146,4.189342498779297,0.0
1659367937103130340,-1.1745364665985107,4.1827874183654785,0.0
1659367937150942325,-1.1745343208312988,4.171043395996094,0.0
1659367937201023817,-1.1744663715362549,4.164488315582275,0.0
1659367937250607967,-1.1742947101593018,4.155656337738037,0.0
1659367937294231891,-1.174098253250122,4.14905309677124,0.0
1659367937338679313,-1.1737014055252075,4.138835430145264,0.0
1659367937382345438,-1.173399806022644,4.132413387298584,0.0
1659367937426394224,-1.1727238893508911,4.120358943939209,0.0
1659367937475682497,-1.1722947359085083,4.113893508911133,0.0
1659367937522444009,-1.1715975999832153,4.104605197906494,0.0
1659367937568381071,-1.1710681915283203,4.098274230957031,0.0
1659367937614331960,-1.1701912879943848,4.0889506340026855,0.0
1659367937659445762,-1.1695411205291748,4.082682132720947,0.0
1659367937702635049,-1.1682125329971313,4.071217060089111,0.0
1659367937750433444,-1.1674437522888184,4.065293312072754,0.0
1659367937794560194,-1.1662278175354004,4.056671619415283,0.0
1659367937841860055,-1.1653085947036743,4.0505900382995605,0.0
1659367937882444143,-1.163661241531372,4.040472507476807,0.0
1659367937930172681,-1.1626118421554565,4.034514904022217,0.0
1659367937974946737,-1.1605104207992554,4.023397922515869,0.0
1659367938019322395,-1.159328579902649,4.01751708984375,0.0
1659367938069542646,-1.1574565172195435,4.008625507354736,0.0
1659367938114266872,-1.1561343669891357,4.0026445388793945,0.0
1659367938158894300,-1.1541540622711182,3.9941399097442627,0.0
1659367938206259012,-1.1526745557785034,3.9880917072296143,0.0
1659367938250565052,-1.149741768836975,3.976484537124634,0.0
1659367938294034957,-1.1481374502182007,3.970258951187134,0.0
1659367938338447809,-1.1458815336227417,3.961744546890259,0.0
1659367938382380247,-1.1441503763198853,3.9554481506347656,0.0
1659367938426363706,-1.141241192817688,3.9452760219573975,0.0
1659367938477220058,-1.1394239664077759,3.939135789871216,0.0
1659367938526579380,-1.13603675365448,3.928128719329834,0.0
1659367938574238061,-1.1340200901031494,3.92181134223938,0.0
1659367938623008012,-1.1313265562057495,3.913691520690918,0.0
1659367938670354604,-1.1292744874954224,3.907759428024292,0.0
1659367938670463323,-1.1260275840759277,3.8987059593200684,0.0
1659367938717008590,-1.1239506006240845,3.8931052684783936,0.0
1659367938745394706,-1.1210265159606934,3.8854706287384033,0.0
1659367938805569648,-1.1187840700149536,3.8798251152038574,0.0
1659367938850444793,-1.1153029203414917,3.8714592456817627,0.0
1659367938894120931,-1.1129041910171509,3.8659610748291016,0.0
1659367938938367128,-1.1090084314346313,3.857389211654663,0.0
1659367939000112295,-1.106379508972168,3.8518009185791016,0.0
1659367939046680688,-1.101292610168457,3.8414125442504883,0.0
1659367939093012571,-1.0983989238739014,3.835728406906128,0.0
1659367939138869762,-1.0939526557922363,3.827199697494507,0.0
1659367939182229518,-1.090950846672058,3.8215432167053223,0.0
1659367939226557493,-1.085951805114746,3.8122475147247314,0.0
1659367939270759582,-1.0828238725662231,3.806544065475464,0.0
1659367939314247131,-1.076845645904541,3.7959094047546387,0.0
1659367939358886241,-1.073585033416748,3.7901930809020996,0.0
1659367939402815580,-1.0664739608764648,3.7779319286346436,0.0
1659367939458307981,-1.0630704164505005,3.772181749343872,0.0
1659367939503098964,-1.0580248832702637,3.763756513595581,0.0
1659367939546545505,-1.0546247959136963,3.7581517696380615,0.0
1659367939590626239,-1.0494071245193481,3.7496533393859863,0.0
1659367939635517597,-1.0458385944366455,3.7439143657684326,0.0
1659367939684617519,-1.0409668684005737,3.7362141609191895,0.0
1659367939734546899,-1.0373573303222656,3.7305908203125,0.0
1659367939782376766,-1.0324358940124512,3.723012685775757,0.0
1659367939829744577,-1.02876877784729,3.7174267768859863,0.0
1659367939830150127,-1.0234466791152954,3.7094154357910156,0.0
1659367939877075672,-1.01976478099823,3.703961133956909,0.0
1659367939904984474,-1.0143462419509888,3.6961066722869873,0.0
1659367939962999582,-1.0106245279312134,3.690833568572998,0.0
1659367940007044315,-1.004487156867981,3.682309150695801,0.0
1659367940063164472,-1.0013470649719238,3.678020715713501,0.0
1659367940111894130,-0.9948403835296631,3.66939115524292,0.0
1659367940168037414,-0.9913220405578613,3.6648809909820557,0.0
1659367940214106082,-0.9865228533744812,3.6588990688323975,0.0
1659367940258305072,-0.983007550239563,3.654646158218384,0.0
1659367940307780981,-0.9775925278663635,3.648286819458008,0.0
1659367940349913597,-0.9742148518562317,3.6444485187530518,0.0
1659367940394232988,-0.9677389860153198,3.637474775314331,0.0
1659367940437684535,-0.9645139575004578,3.634185552597046,0.0
1659367940482073783,-0.9594970345497131,3.629324436187744,0.0
1659367940528056621,-0.9558976292610168,3.6260218620300293,0.0
1659367940578124284,-0.950937032699585,3.6216976642608643,0.0
1659367940622519254,-0.9474074244499207,3.61877703666687,0.0
1659367940666452407,-0.9422557950019836,3.614722967147827,0.0
1659367940710418939,-0.9384644031524658,3.611889600753784,0.0
1659367940754181385,-0.9301778078079224,3.6060729026794434,0.0
1659367940798444986,-0.9255748391151428,3.603030204772949,0.0
1659367940842442035,-0.9189099669456482,3.598794460296631,0.0
1659367940886126518,-0.9140765070915222,3.5958311557769775,0.0
1659367940930457115,-0.9064449667930603,3.5913326740264893,0.0
1659367940975651502,-0.9014208316802979,3.588493585586548,0.0
1659367941017684936,-0.8926199078559875,3.5837502479553223,0.0
1659367941062136650,-0.8881378769874573,3.5814521312713623,0.0
1659367941105993509,-0.8816443681716919,3.578310489654541,0.0
1659367941149808406,-0.877402663230896,3.576387643814087,0.0
1659367941198180675,-0.8706951141357422,3.573533773422241,0.0
1659367941246625423,-0.8655261993408203,3.571462869644165,0.0
1659367941290348529,-0.8547332286834717,3.567373752593994,0.0
1659367941334558486,-0.8490712642669678,3.565317153930664,0.0
1659367941382481813,-0.8413041234016418,3.5625321865081787,0.0
1659367941430335521,-0.8359063267707825,3.560638904571533,0.0
1659367941478405952,-0.8269743323326111,3.5576601028442383,0.0
1659367941522673130,-0.8213010430335999,3.555873155593872,0.0
1659367941566281795,-0.8133224844932556,3.5534889698028564,0.0
1659367941619337320,-0.8073344826698303,3.5517823696136475,0.0
1659367941619488000,-0.7982327938079834,3.549274444580078,0.0
1659367941667365789,-0.7920969724655151,3.5476276874542236,0.0
1659367941696255922,-0.7823687791824341,3.5451114177703857,0.0
1659367941754366874,-0.7761273384094238,3.5435702800750732,0.0
1659367941804545164,-0.764512836933136,3.5407729148864746,0.0
1659367941856602907,-0.7582082748413086,3.5392773151397705,0.0
1659367941902341365,-0.7489016056060791,3.5370588302612305,0.0
1659367941946170330,-0.7426236867904663,3.5355606079101562,0.0
1659367941994254350,-0.7343105673789978,3.5336506366729736,0.0
1659367942038253545,-0.7277860641479492,3.5322084426879883,0.0
1659367942082508563,-0.7176163196563721,3.5300192832946777,0.0
1659367942130225419,-0.7111766338348389,3.5286638736724854,0.0
1659367942174487113,-0.7015781402587891,3.5267105102539062,0.0
1659367942218197822,-0.694896399974823,3.525402307510376,0.0
1659367942268038749,-0.6842510104179382,3.52339506149292,0.0
1659367942314225912,-0.6777030229568481,3.5221970081329346,0.0
1659367942362192869,-0.6656853556632996,3.520097017288208,0.0
1659367942410635709,-0.659068763256073,3.5189974308013916,0.0
1659367942454304933,-0.6499195694923401,3.517545223236084,0.0
1659367942502945184,-0.6434098482131958,3.516580581665039,0.0
1659367942503035545,-0.6333306431770325,3.515188694000244,0.0
1659367942551156997,-0.626754879951477,3.514331579208374,0.0
1659367942578750371,-0.6172342896461487,3.5131571292877197,0.0
1659367942633416175,-0.6106460690498352,3.512401819229126,0.0
1659367942678235292,-0.6021381616592407,3.511505126953125,0.0
1659367942722352027,-0.5955628752708435,3.5108680725097656,0.0
1659367942766063928,-0.5858094692230225,3.5099639892578125,0.0
1659367942811373710,-0.5790538191795349,3.509352922439575,0.0
1659367942855170249,-0.5665656328201294,3.5083446502685547,0.0
1659367942904613971,-0.559899628162384,3.5078821182250977,0.0
1659367942950342416,-0.5500736236572266,3.5072576999664307,0.0
1659367942994148492,-0.5434035062789917,3.5068585872650146,0.0
1659367943038517713,-0.533221423625946,3.5062508583068848,0.0
1659367943086055755,-0.5264502167701721,3.5058469772338867,0.0
1659367943134286165,-0.5175051689147949,3.5053293704986572,0.0
1659367943184041738,-0.5106059908866882,3.50494647026062,0.0
1659367943226488828,-0.5006218552589417,3.504425287246704,0.0
1659367943271035909,-0.4938974976539612,3.504091501235962,0.0
1659367943271173954,-0.48507431149482727,3.5036661624908447,0.0
1659367943315310955,-0.478096067905426,3.503342390060425,0.0
1659367943349593162,-0.46575573086738586,3.502814531326294,0.0
1659367943405736446,-0.45862358808517456,3.502535343170166,0.0
1659367943451886415,-0.45174384117126465,3.50227952003479,0.0
1659367943496014118,-0.4437001943588257,3.5019915103912354,0.0
1659367943542401552,-0.43707236647605896,3.5017738342285156,0.0
1659367943591874361,-0.42609167098999023,3.501472234725952,0.0
1659367943640353202,-0.4190320372581482,3.5013017654418945,0.0
1659367943640516281,-0.4085061252117157,3.5010368824005127,0.0
1659367943690115213,-0.4015989601612091,3.500845193862915,0.0
1659367943723725795,-0.39168086647987366,3.5005741119384766,0.0
1659367943781554460,-0.38457053899765015,3.500406265258789,0.0
1659367943826276063,-0.37313133478164673,3.5002388954162598,0.0
1659367943873058795,-0.3661964237689972,3.50018572807312,0.0
1659367943919064283,-0.35351598262786865,3.5001132488250732,0.0
1659367943974025011,-0.34645432233810425,3.5000970363616943,0.0
1659367944018508911,-0.3364313244819641,3.5001184940338135,0.0
1659367944066104650,-0.3293444514274597,3.5001604557037354,0.0
1659367944110855579,-0.3174990713596344,3.5001864433288574,0.0
1659367944158266067,-0.3106399476528168,3.5001583099365234,0.0
1659367944206600904,-0.29795947670936584,3.5000903606414795,0.0
1659367944254172325,-0.29097384214401245,3.500051259994507,0.0
1659367944298321723,-0.28110310435295105,3.4999606609344482,0.0
1659367944342273712,-0.2743457853794098,3.4998676776885986,0.0
1659367944386347055,-0.26457706093788147,3.4997153282165527,0.0
1659367944441116809,-0.2577188014984131,3.499601364135742,0.0
1659367944441355705,-0.24779808521270752,3.499455451965332,0.0
1659367944494240283,-0.2407115250825882,3.499377489089966,0.0
1659367944522694110,-0.23117002844810486,3.499268054962158,0.0
1659367944579149007,-0.22410902380943298,3.4991700649261475,0.0
1659367944623790740,-0.21380877494812012,3.4990131855010986,0.0
1659367944666346549,-0.207228884100914,3.4989054203033447,0.0
1659367944710821390,-0.19748562574386597,3.4987425804138184,0.0
1659367944754765510,-0.19065311551094055,3.498605251312256,0.0
1659367944798638820,-0.18063302338123322,3.4983625411987305,0.0
1659367944842285394,-0.1739279180765152,3.498189687728882,0.0
1659367944886365890,-0.16117696464061737,3.4978106021881104,0.0
1659367944930503129,-0.15475207567214966,3.4975831508636475,0.0
1659367944979038238,-0.14271539449691772,3.497063636779785,0.0
1659367945038549184,-0.13624423742294312,3.496734142303467,0.0
1659367945082477331,-0.12737315893173218,3.4962542057037354,0.0
1659367945126111268,-0.1208278089761734,3.4958901405334473,0.0
1659367945170363664,-0.11076945066452026,3.495335340499878,0.0
1659367945218351364,-0.10414722561836243,3.4949867725372314,0.0
1659367945262499570,-0.09012126177549362,3.4942104816436768,0.0
1659367945306599855,-0.08377989381551743,3.4938266277313232,0.0
1659367945355765104,-0.06988951563835144,3.492905616760254,0.0
1659367945411582946,-0.06330101937055588,3.4924237728118896,0.0
1659367945462048768,-0.049930389970541,3.491337776184082,0.0
1659367945516536235,-0.0432753823697567,3.4907376766204834,0.0
1659367945567871570,-0.03153636306524277,3.4895920753479004,0.0
1659367945625761985,-0.024965941905975342,3.4889066219329834,0.0
1659367945674453258,-0.015778513625264168,3.4879374504089355,0.0
1659367945718065500,-0.009131457656621933,3.4872548580169678,0.0
1659367945766702175,0.0013916179304942489,3.4861600399017334,0.0
1659367945810048580,0.008085455745458603,3.485438346862793,0.0
1659367945854484796,0.020286856219172478,3.4840898513793945,0.0
1659367945902139186,0.026574043557047844,3.483375310897827,0.0
1659367945946577548,0.03521813079714775,3.4823315143585205,0.0
1659367945990497112,0.04144344851374626,3.481527328491211,0.0
1659367946034420013,0.050569236278533936,3.480262041091919,0.0
1659367946082455396,0.05700378865003586,3.4793083667755127,0.0
1659367946130304336,0.06550928205251694,3.477999448776245,0.0
1659367946175011634,0.07208478450775146,3.4769628047943115,0.0
1659367946175503015,0.08185645192861557,3.475396156311035,0.0
1659367946222836732,0.08837771415710449,3.4743409156799316,0.0
1659367946269819498,0.10073544085025787,3.4722776412963867,0.0
1659367946324866771,0.10714396834373474,3.4711623191833496,0.0
1659367946374683141,0.11549390852451324,3.4696881771087646,0.0
1659367946418472290,0.1217229813337326,3.4685754776000977,0.0
1659367946464836120,0.1315803974866867,3.4667608737945557,0.0
1659367946510866880,0.1380184292793274,3.4655256271362305,0.0
1659367946559038400,0.14677706360816956,3.4637608528137207,0.0
1659367946603043794,0.1532164067029953,3.4624037742614746,0.0
1659367946645930290,0.16194750368595123,3.460507392883301,0.0
1659367946694058418,0.16834761202335358,3.4590885639190674,0.0
1659367946694184780,0.1776786595582962,3.456974983215332,0.0
1659367946738993406,0.18428991734981537,3.4554569721221924,0.0
1659367946785553932,0.19639873504638672,3.45266056060791,0.0
1659367946849817752,0.20302726328372955,3.4511051177978516,0.0
1659367946894502878,0.21209146082401276,3.448961019515991,0.0
1659367946938194274,0.21866877377033234,3.44740891456604,0.0
1659367946982874393,0.2280774563550949,3.4451818466186523,0.0
1659367947026363611,0.23484699428081512,3.4435627460479736,0.0
1659367947074643850,0.24687159061431885,3.4406306743621826,0.0
1659367947122621297,0.253182977437973,3.439055919647217,0.0
1659367947166721820,0.26269346475601196,3.436607837677002,0.0
1659367947210358619,0.26890337467193604,3.4349441528320312,0.0
1659367947254648923,0.2777239978313446,3.432464599609375,0.0
1659367947298471212,0.2840142250061035,3.4306187629699707,0.0
1659367947343760490,0.29320257902145386,3.4278628826141357,0.0
1659367947387866258,0.2994042932987213,3.425985813140869,0.0
1659367947438615322,0.309428334236145,3.4229328632354736,0.0
1659367947482334613,0.315887987613678,3.4209470748901367,0.0
1659367947526654243,0.3278898596763611,3.4171791076660156,0.0
1659367947570899009,0.3340826630592346,3.4151885509490967,0.0
1659367947614495992,0.3423786759376526,3.4124631881713867,0.0
1659367947658654928,0.3484458923339844,3.410414934158325,0.0
1659367947702393293,0.3582603931427002,3.4069664478302,0.0
1659367947746397495,0.3643450438976288,3.4047391414642334,0.0
1659367947790750741,0.37558066844940186,3.4005324840545654,0.0
1659367947836638212,0.38178563117980957,3.398192882537842,0.0
1659367947883049249,0.390820175409317,3.3947489261627197,0.0
1659367947926996707,0.3971448242664337,3.3922970294952393,0.0
1659367947975079774,0.40656784176826477,3.388594627380371,0.0
1659367948018551111,0.4125877916812897,3.386197805404663,0.0
1659367948066459178,0.42233461141586304,3.382282257080078,0.0
1659367948114178895,0.42842939496040344,3.379800319671631,0.0
1659367948158446550,0.44061076641082764,3.3747498989105225,0.0
1659367948210077524,0.44679880142211914,3.372162103652954,0.0
1659367948258398056,0.456260621547699,3.368218421936035,0.0
1659367948309165239,0.46255066990852356,3.365612268447876,0.0
1659367948354681491,0.4744630455970764,3.360640048980713,0.0
1659367948398271322,0.4808761775493622,3.3579344749450684,0.0
1659367948442268610,0.4938964247703552,3.3524625301361084,0.0
1659367948487659454,0.5001553297042847,3.3498473167419434,0.0
1659367948534267425,0.5093065500259399,3.3460135459899902,0.0
1659367948582376241,0.5157453417778015,3.343303918838501,0.0
1659367948630211830,0.5275402069091797,3.338378667831421,0.0
1659367948674335002,0.5338801145553589,3.3357605934143066,0.0
1659367948719617605,0.5432794690132141,3.331864356994629,0.0
1659367948762930631,0.5497223138809204,3.3291642665863037,0.0
1659367948808881044,0.558976411819458,3.3252487182617188,0.0
1659367948858618021,0.565405547618866,3.3225162029266357,0.0
1659367948906203746,0.5775311589241028,3.317333221435547,0.0
1659367948950282573,0.5838533043861389,3.314608097076416,0.0
1659367948994217872,0.5917706489562988,3.311171770095825,0.0
1659367949042389154,0.5979888439178467,3.3084611892700195,0.0
1659367949090656995,0.6068119406700134,3.3046321868896484,0.0
1659367949135794639,0.6121825575828552,3.302320957183838,0.0
1659367949135893106,0.6196820139884949,3.2991302013397217,0.0
1659367949184009552,0.6244429349899292,3.2971315383911133,0.0
1659367949230129718,0.6327747106552124,3.2937004566192627,0.0
1659367949284903764,0.6371150612831116,3.2919435501098633,0.0
1659367949333027839,0.6432746052742004,3.289486885070801,0.0
1659367949382223844,0.6473029255867004,3.2879040241241455,0.0
1659367949426028251,0.6526374220848083,3.285839080810547,0.0
1659367949474463939,0.6565870642662048,3.2843334674835205,0.0
1659367949518245220,0.6617720127105713,3.2823734283447266,0.0
1659367949562253236,0.6656811833381653,3.2809038162231445,0.0
1659367949608124494,0.671464204788208,3.2787365913391113,0.0
1659367949656624078,0.6762538552284241,3.2769477367401123,0.0
1659367949656720638,0.684657096862793,3.273838520050049,0.0
1659367949704462766,0.6907208561897278,3.27162766456604,0.0
1659367949748827219,0.7021315097808838,3.267530918121338,0.0
1659367949805005073,0.7085224986076355,3.2652575969696045,0.0
1659367949850587606,0.7178893089294434,3.2619097232818604,0.0
1659367949896018981,0.7242944836616516,3.25960111618042,0.0
1659367949937975645,0.7329620122909546,3.2564778327941895,0.0
1659367949981772184,0.7389183044433594,3.2543418407440186,0.0
1659367950026424169,0.7467489838600159,3.251584768295288,0.0
1659367950069873094,0.752852737903595,3.2494869232177734,0.0
1659367950113842010,0.762175977230072,3.246321678161621,0.0
1659367950157769441,0.768437922000885,3.2442171573638916,0.0
1659367950201735019,0.7771831750869751,3.241318702697754,0.0
1659367950245883226,0.7835137844085693,3.239260673522949,0.0
1659367950289926052,0.7927325367927551,3.2363455295562744,0.0
1659367950334071397,0.7991225719451904,3.234391927719116,0.0
1659367950377727985,0.8109468221664429,3.230909824371338,0.0
1659367950421962976,0.8169342279434204,3.229201078414917,0.0
1659367950465792655,0.8253592848777771,3.226905584335327,0.0
1659367950509631395,0.8310693502426147,3.225431203842163,0.0
1659367950553786993,0.8412436246871948,3.22292423248291,0.0
1659367950600455760,0.8466155529022217,3.2216641902923584,0.0
1659367950645722150,0.8537567853927612,3.2200803756713867,0.0
1659367950689868450,0.8585630655288696,3.2190752029418945,0.0
1659367950733718156,0.8634046316146851,3.218116521835327,0.0
1659367950777810335,0.8652449250221252,3.2177681922912598,0.0
1659367950822327375,0.8665636777877808,3.217522144317627,0.0
1659367950869735002,0.8669120669364929,3.2174575328826904,0.0
1659367950914512634,0.8670613765716553,3.2174298763275146,0.0
1659367950958227634,0.8670862913131714,3.2174253463745117,0.0
1659367951002478599,0.8671112060546875,3.217420816421509,0.0
1659367951046573400,0.8671112060546875,3.217420816421509,0.0
1659367951091959476,0.8671112060546875,3.217420816421509,0.0
1659367951138494014,0.8671112060546875,3.217420816421509,0.0
1659367951182383775,0.8670862913131714,3.2174253463745117,0.0
1659367951228174924,0.8671112060546875,3.217420816421509,0.0
1659367951277131319,0.8671112060546875,3.217420816421509,0.0
1659367951322070598,0.8671112060546875,3.217420816421509,0.0
1659367951366580247,0.8671112060546875,3.217420816421509,0.0
1659367951410195112,0.8671112060546875,3.217420816421509,0.0
1659367951454783201,0.8671112060546875,3.217420816421509,0.0
1659367951498422384,0.8671112060546875,3.217420816421509,0.0
1659367951542263031,0.8671112060546875,3.217420816421509,0.0
1659367951586549520,0.8671112060546875,3.217420816421509,0.0
1659367951630307674,0.8671112060546875,3.217420816421509,0.0
1659367951674348592,0.8671112060546875,3.217420816421509,0.0
1659367951718715429,0.8671112060546875,3.217420816421509,0.0
1659367951762243986,0.8668872117996216,3.2174623012542725,0.0
1659367951806351661,0.8633788824081421,3.218116521835327,0.0
1659367951852466583,0.8594990968704224,3.2188496589660645,0.0
1659367951898224830,0.8512754440307617,3.220449686050415,0.0
1659367951942323684,0.84539395570755,3.2216293811798096,0.0
1659367951986354589,0.83449387550354,3.2239127159118652,0.0
1659367952031115055,0.8282206058502197,3.2253189086914062,0.0
1659367952081677198,0.8190916180610657,3.2275185585021973,0.0
1659367952125926971,0.8128623962402344,3.2291083335876465,0.0
1659367952170710563,0.804078996181488,3.231435775756836,0.0
1659367952217459440,0.7984094023704529,3.232964515686035,0.0
1659367952262147903,0.7874406576156616,3.2359375953674316,0.0
1659367952306249380,0.7816325426101685,3.2375357151031494,0.0
1659367952350849628,0.7729714512825012,3.240020990371704,0.0
1659367952394609451,0.7669664621353149,3.241848945617676,0.0
1659367952438173770,0.7589421272277832,3.244427442550659,0.0
1659367952482309818,0.7526271343231201,3.246532678604126,0.0
1659367952526134729,0.7431929111480713,3.2497644424438477,0.0
1659367952569720983,0.7368146181106567,3.251997709274292,0.0
1659367952614008903,0.7251026034355164,3.2561538219451904,0.0
1659367952659354209,0.7188897132873535,3.25839900970459,0.0
1659367952702180385,0.7103216648101807,3.261573314666748,0.0
1659367952746499538,0.7044749855995178,3.263787031173706,0.0
1659367952789723634,0.6957222819328308,3.26718807220459,0.0
1659367952834432840,0.6897508502006531,3.2695698738098145,0.0
1659367952877756834,0.6808997988700867,3.273135185241699,0.0
1659367952921683549,0.67527174949646,3.275421142578125,0.0
1659367952965787649,0.6668456792831421,3.2788891792297363,0.0
1659367953009806871,0.6612405776977539,3.2812306880950928,0.0
1659367953053796529,0.653813362121582,3.2843973636627197,0.0
1659367953097534179,0.6487894058227539,3.2866170406341553,0.0
1659367953141675233,0.641974925994873,3.289790630340576,0.0
1659367953186340332,0.637403666973114,3.2920234203338623,0.0
1659367953229840278,0.6314942240715027,3.295032501220703,0.0
1659367953275239229,0.6269540786743164,3.297438144683838,0.0
1659367953275312185,0.6209143996238708,3.3007423877716064,0.0
1659367953325927257,0.6165607571601868,3.303173065185547,0.0
1659367953355136394,0.6107401251792908,3.30645489692688,0.0
1659367953410984039,0.6066247820854187,3.3088436126708984,0.0
1659367953454665184,0.6006777882575989,3.3125088214874268,0.0
1659367953498531341,0.596953272819519,3.314906120300293,0.0
1659367953542312622,0.5915339589118958,3.318457841873169,0.0
1659367953586530447,0.5879023671150208,3.32090425491333,0.0
1659367953634164333,0.5836230516433716,3.3239707946777344,0.0
1659367953679456472,0.5828779935836792,3.324538230895996,0.0
1659367953722280502,0.581228494644165,3.325839042663574,0.0
1659367953766785383,0.5793836712837219,3.327341318130493,0.0
1659367953810263395,0.5771445631980896,3.329240322113037,0.0
1659367953854632139,0.5770496726036072,3.3293240070343018,0.0
1659367953898356914,0.57927405834198,3.327255964279175,0.0
1659367953944172382,0.5811143517494202,3.3254454135894775,0.0
1659367953989991188,0.5842987298965454,3.3221871852874756,0.0
1659367954033740997,0.5867226123809814,3.3196024894714355,0.0
1659367954077958345,0.5913320779800415,3.3143532276153564,0.0
1659367954121898889,0.5939405560493469,3.311156749725342,0.0
1659367954166347265,0.5982897877693176,3.3054654598236084,0.0
1659367954210852861,0.6010837554931641,3.3015823364257812,0.0
1659367954254369020,0.6047214865684509,3.296250820159912,0.0
1659367954298560142,0.6072288751602173,3.292356252670288,0.0
1659367954342468023,0.6108266115188599,3.2863681316375732,0.0
1659367954386651992,0.6132503151893616,3.2820396423339844,0.0
1659367954431238889,0.6165969371795654,3.275649309158325,0.0
1659367954474481582,0.6187937259674072,3.2711730003356934,0.0
1659367954518226623,0.6229521632194519,3.2620255947113037,0.0
1659367954563732624,0.6251381635665894,3.256821870803833,0.0
1659367954606323480,0.6281083822250366,3.2493138313293457,0.0
1659367954651968240,0.6301302909851074,3.2439088821411133,0.0
1659367954697044134,0.6329264044761658,3.2360382080078125,0.0
1659367954742244958,0.6347997188568115,3.2305264472961426,0.0
1659367954786062479,0.6374780535697937,3.2222683429718018,0.0
1659367954831393480,0.6391891241073608,3.216677665710449,0.0
1659367954874053955,0.6414827704429626,3.2086989879608154,0.0
1659367954918427944,0.64296555519104,3.203174352645874,0.0
1659367954965198278,0.6446682214736938,3.196373224258423,0.0
1659367955010746479,0.6457610130310059,3.191663980484009,0.0
1659367955054230928,0.6477265954017639,3.182248830795288,0.0
1659367955098603248,0.6487461924552917,3.176774740219116,0.0
1659367955142407655,0.6500712037086487,3.1688101291656494,0.0
1659367955186553955,0.6508997678756714,3.1631503105163574,0.0
1659367955232122182,0.6521040797233582,3.153888702392578,0.0
1659367955278475999,0.6527886390686035,3.148031234741211,0.0
1659367955322030782,0.6539262533187866,3.1371054649353027,0.0
1659367955366445302,0.6544903516769409,3.130929946899414,0.0
1659367955491912126,0.6552734971046448,3.121293067932129,0.0
1659367955492067098,0.6557092666625977,3.115234136581421,0.0
1659367955494206428,0.6562502384185791,3.10644268989563,0.0
1659367955516047954,0.6565677523612976,3.1003003120422363,0.0
1659367955544024229,0.6569281220436096,3.0919301509857178,0.0
1659367955598682403,0.6571429371833801,3.0856568813323975,0.0
1659367955642534494,0.6573532223701477,3.0769779682159424,0.0
1659367955686689138,0.6574204564094543,3.071106195449829,0.0
1659367955730353593,0.6573824882507324,3.062551259994507,0.0
1659367955774724960,0.6572670340538025,3.0568323135375977,0.0
1659367955818251371,0.6568801999092102,3.0470194816589355,0.0
1659367955862695217,0.6565281748771667,3.0410311222076416,0.0
1659367955906332969,0.6558957695960999,3.0323219299316406,0.0
1659367955950262546,0.6553715467453003,3.026193857192993,0.0
1659367956006088733,0.6545381546020508,3.0173745155334473,0.0
1659367956051039218,0.6538984775543213,3.0109775066375732,0.0
1659367956093905925,0.6526328921318054,2.999378204345703,0.0
1659367956138523817,0.6518433690071106,2.9928195476531982,0.0
1659367956186659812,0.6507103443145752,2.983931541442871,0.0
1659367956237444162,0.649854838848114,2.9774832725524902,0.0
1659367956282505989,0.6484355330467224,2.9673566818237305,0.0
1659367956330955743,0.647479236125946,2.9609479904174805,0.0
1659367956374498128,0.6456116437911987,2.9489943981170654,0.0
1659367956422521114,0.6446008682250977,2.9427480697631836,0.0
1659367956470449686,0.6430675387382507,2.933483839035034,0.0
1659367956519994735,0.6419835090637207,2.927095651626587,0.0
1659367956520169496,0.6402743458747864,2.917527914047241,0.0
1659367956570337533,0.6390518546104431,2.9110617637634277,0.0
1659367956612159729,0.6368206143379211,2.899841070175171,0.0
1659367956669285297,0.6354892253875732,2.8933963775634766,0.0
1659367956718338727,0.6335037350654602,2.88419246673584,0.0
1659367956767045259,0.6320434808731079,2.8777496814727783,0.0
1659367956811066150,0.6298806667327881,2.8685338497161865,0.0
1659367956858161926,0.6283507347106934,2.8622374534606934,0.0
1659367956909469366,0.6262974143028259,2.854010820388794,0.0
1659367956954384088,0.624714732170105,2.8477797508239746,0.0
1659367956954471349,0.6220935583114624,2.837634325027466,0.0
1659367957002898693,0.6203747391700745,2.831124782562256,0.0
1659367957049042701,0.6174846291542053,2.82047438621521,0.0
1659367957107496023,0.6157299876213074,2.8141582012176514,0.0
1659367957150140762,0.613110363483429,2.804877519607544,0.0
1659367957195927381,0.6112978458404541,2.798524856567383,0.0
1659367957242424011,0.6081417202949524,2.7877655029296875,0.0
1659367957286520004,0.6062302589416504,2.781468391418457,0.0
1659367957334072828,0.6026924848556519,2.7698192596435547,0.0
1659367957378254890,0.6007711887359619,2.7634193897247314,0.0
1659367957423156023,0.5981619954109192,2.754821300506592,0.0
1659367957468606472,0.5961802005767822,2.748386859893799,0.0
1659367957518099308,0.5933029651641846,2.739182710647583,0.0
1659367957563457489,0.5912694334983826,2.7327911853790283,0.0
1659367957606616973,0.5883069038391113,2.72361421585083,0.0
1659367957654376029,0.5862253904342651,2.7172646522521973,0.0
1659367957702306270,0.5824133157730103,2.7058892250061035,0.0
1659367957746454715,0.5802246928215027,2.6995489597320557,0.0
1659367957790293455,0.5769966840744019,2.690354585647583,0.0
1659367957834406852,0.5748105049133301,2.6841742992401123,0.0
1659367957882353305,0.5715227127075195,2.6750011444091797,0.0
1659367957927586793,0.5692577958106995,2.6687417030334473,0.0
1659367957927936792,0.5660306811332703,2.6599502563476562,0.0
1659367957977139949,0.5636855959892273,2.653693199157715,0.0
1659367958018168687,0.5593153834342957,2.642167568206787,0.0
1659367958075504541,0.556873619556427,2.635730504989624,0.0
1659367958118144035,0.5532292127609253,2.626122236251831,0.0
1659367958167072772,0.5508052110671997,2.6197597980499268,0.0
1659367958210376501,0.5477837920188904,2.6119186878204346,0.0
1659367958254372119,0.5453634858131409,2.6057448387145996,0.0
1659367958299013853,0.5409132242202759,2.5945489406585693,0.0
1659367958345520973,0.5384528040885925,2.5884182453155518,0.0
1659367958394477128,0.535004198551178,2.5799295902252197,0.0
1659367958445687055,0.5323391556739807,2.573472261428833,0.0
1659367958490561962,0.5277291536331177,2.5624234676361084,0.0
1659367958538167715,0.5251483917236328,2.556259870529175,0.0
1659367958602854251,0.5214175581932068,2.5473124980926514,0.0
1659367958603020429,0.5188599228858948,2.541194200515747,0.0
1659367958651617765,0.5151177644729614,2.5323615074157715,0.0
1659367958684735059,0.5124366283416748,2.5261306762695312,0.0
1659367958730276823,0.5087162256240845,2.5176191329956055,0.0
1659367958774266719,0.505928635597229,2.511324167251587,0.0
1659367958822350025,0.5015693306922913,2.501462459564209,0.0
1659367958866315364,0.49885666370391846,2.4952728748321533,0.0
1659367958910822868,0.4935430884361267,2.4832592010498047,0.0
1659367958958403110,0.4907297194004059,2.477003574371338,0.0
1659367959006159782,0.4866432547569275,2.4679625034332275,0.0
1659367959054406881,0.48375973105430603,2.4615719318389893,0.0
1659367959098318338,0.4795833230018616,2.4523491859436035,0.0
1659367959142558097,0.47670361399650574,2.446012496948242,0.0
1659367959186239719,0.47410833835601807,2.4402971267700195,0.0
1659367959230379581,0.47118011116981506,2.4338433742523193,0.0
1659367959275068521,0.46831679344177246,2.4274990558624268,0.0
1659367959275274276,0.46374940872192383,2.4172587394714355,0.0
1659367959326137781,0.4609735608100891,2.4110140800476074,0.0
1659367959348880529,0.4562937319278717,2.400602340698242,0.0
1659367959404730558,0.4534715414047241,2.394378423690796,0.0
1659367959455018758,0.4484339654445648,2.3833229541778564,0.0
1659367959506516695,0.4455145597457886,2.376948595046997,0.0
1659367959554652214,0.44161152839660645,2.3684914112091064,0.0
1659367959599016427,0.43872207403182983,2.3622984886169434,0.0
1659367959645519971,0.43449145555496216,2.3533239364624023,0.0
1659367959690326929,0.4316025376319885,2.347242593765259,0.0
1659367959734019756,0.42885881662368774,2.341512680053711,0.0
1659367959782843112,0.4256064295768738,2.334791660308838,0.0
1659367959827220916,0.42263200879096985,2.328695297241211,0.0
1659367959828022241,0.4182889461517334,2.319830894470215,0.0
1659367959872418880,0.415310800075531,2.3137645721435547,0.0
1659367959895800352,0.4106769859790802,2.304422616958618,0.0
1659367959950529336,0.4076501727104187,2.2984087467193604,0.0
1659367959998381137,0.4034556448459625,2.290205955505371,0.0
1659367960044256687,0.40030068159103394,2.2841439247131348,0.0
1659367960090391397,0.3957396149635315,2.2753896713256836,0.0
1659367960138103008,0.3925791382789612,2.269273519515991,0.0
1659367960188561439,0.387532502412796,2.2594311237335205,0.0
1659367960233705520,0.3843879699707031,2.2532782554626465,0.0
1659367960278136730,0.37829458713531494,2.241384267807007,0.0
1659367960322122812,0.37517696619033813,2.2353029251098633,0.0
1659367960366861581,0.3705180883407593,2.2262003421783447,0.0
1659367960414966344,0.36746442317962646,2.220228433609009,0.0
1659367960462399005,0.36277204751968384,2.2111716270446777,0.0
1659367960506587982,0.359719842672348,2.2053985595703125,0.0
1659367960554396867,0.3552105724811554,2.196989059448242,0.0
1659367960600115060,0.3520064055919647,2.191067695617676,0.0
1659367960600306272,0.34762731194496155,2.1830193996429443,0.0
1659367960651912927,0.3442787528038025,2.176917314529419,0.0
1659367960677990674,0.339565247297287,2.1684463024139404,0.0
1659367960733417510,0.3361167013645172,2.1623129844665527,0.0
1659367960782614707,0.3297671973705292,2.151045083999634,0.0
1659367960830970048,0.32640641927719116,2.145094633102417,0.0
1659367960874644994,0.32296085357666016,2.1390178203582764,0.0
1659367960918323040,0.3194202184677124,2.132791042327881,0.0
1659367960962763309,0.3161218762397766,2.1270089149475098,0.0
1659367961008070707,0.3106274902820587,2.1173219680786133,0.0
1659367961052461385,0.3073071241378784,2.111435890197754,0.0
1659367961102377653,0.3024848401546478,2.102968215942383,0.0
1659367961146157026,0.29901206493377686,2.0969653129577637,0.0
1659367961190370798,0.2926919460296631,2.0860888957977295,0.0
1659367961238815784,0.28918471932411194,2.0800180435180664,0.0
1659367961286437273,0.28390777111053467,2.0708773136138916,0.0
1659367961330862522,0.2804587483406067,2.064948320388794,0.0
1659367961331045389,0.2761155068874359,2.0576071739196777,0.0
1659367961374651432,0.2727000415325165,2.0519230365753174,0.0
1659367961403730154,0.2677629292011261,2.0437278747558594,0.0
1659367961458935260,0.2642824053764343,2.0379350185394287,0.0
1659367961506490468,0.25782883167266846,2.027284860610962,0.0
1659367961561826467,0.25421202182769775,2.021397113800049,0.0
1659367961610563516,0.24908120930194855,2.0131125450134277,0.0
1659367961657115697,0.24542225897312164,2.007251024246216,0.0
1659367961702438116,0.23997116088867188,1.9985398054122925,0.0
1659367961750123500,0.23630724847316742,1.9926515817642212,0.0
1659367961798370361,0.23098108172416687,1.9840415716171265,0.0
1659367961842508792,0.22736524045467377,1.9781830310821533,0.0
1659367961842610597,0.22226637601852417,1.9699382781982422,0.0
1659367961897705078,0.21879398822784424,1.9643481969833374,0.0
1659367961920789718,0.21393625438213348,1.9565496444702148,0.0
1659367961976289272,0.21043738722801208,1.9509462118148804,0.0
1659367962022993803,0.20519676804542542,1.942581057548523,0.0
1659367962066887617,0.2014748454093933,1.9366693496704102,0.0
1659367962110577583,0.19474424421787262,1.9260419607162476,0.0
1659367962159282207,0.19105438888072968,1.9202297925949097,0.0
1659367962213301897,0.1855584681034088,1.911576747894287,0.0
1659367962259849309,0.18178784847259521,1.905635952949524,0.0
1659367962306352138,0.17671550810337067,1.8976434469223022,0.0
1659367962350759983,0.17295730113983154,1.891724705696106,0.0
1659367962394188880,0.1670699268579483,1.8824207782745361,0.0
1659367962444967985,0.16341212391853333,1.8766182661056519,0.0
1659367962445207357,0.15848064422607422,1.8687763214111328,0.0
1659367962495431423,0.15482202172279358,1.862944483757019,0.0
1659367962524370670,0.14930085837841034,1.8541278839111328,0.0
1659367962581188678,0.14543333649635315,1.8479490280151367,0.0
1659367962627951622,0.13874451816082,1.8372654914855957,0.0
1659367962678268432,0.13507814705371857,1.8314086198806763,0.0
1659367962722212553,0.12941311299800873,1.8223536014556885,0.0
1659367962770338535,0.12565314769744873,1.8163164854049683,0.0
1659367962814824819,0.12082266062498093,1.8085308074951172,0.0
1659367962862348794,0.11707617342472076,1.8024852275848389,0.0
1659367962906259536,0.11118455231189728,1.7929749488830566,0.0
1659367962954929828,0.10761860758066177,1.7872344255447388,0.0
1659367962998789548,0.10031592100858688,1.7754125595092773,0.0
1659367963042340517,0.09652239829301834,1.769217610359192,0.0
1659367963085987091,0.09014882147312164,1.7587558031082153,0.0
1659367963131814241,0.08647822588682175,1.7526934146881104,0.0
1659367963175467729,0.08278688788414001,1.746584415435791,0.0
1659367963218451261,0.07859587669372559,1.7396535873413086,0.0
1659367963266257762,0.07499026507139206,1.7336997985839844,0.0
1659367963314391136,0.06924307346343994,1.7241606712341309,0.0
1659367963360912084,0.06564780324697495,1.7181121110916138,0.0
1659367963411257266,0.05905298888683319,1.7069271802902222,0.0
1659367963454210519,0.055469390004873276,1.7008423805236816,0.0
1659367963502523660,0.05057031661272049,1.6924774646759033,0.0
1659367963551122188,0.047006022185087204,1.686352014541626,0.0
1659367963551565408,0.04217568039894104,1.678005576133728,0.0
1659367963594295024,0.03863430395722389,1.6718376874923706,0.0
1659367963621850728,0.033727649599313736,1.6632723808288574,0.0
1659367963678715944,0.03011477179825306,1.6569703817367554,0.0
1659367963726427555,0.023608434945344925,1.6455585956573486,0.0
1659367963782274484,0.020094702020287514,1.6393457651138306,0.0
1659367963826264619,0.015386630780994892,1.6309587955474854,0.0
1659367963874008417,0.011911481618881226,1.624724268913269,0.0
1659367963918289184,0.006924195680767298,1.6157684326171875,0.0
1659367963966487646,0.0034907476510852575,1.6096266508102417,0.0
1659367964010479450,-0.0010988618014380336,1.6014344692230225,0.0
1659367964061358928,-0.004498716909438372,1.5953608751296997,0.0
1659367964061514377,-0.009912815876305103,1.5856287479400635,0.0
1659367964115735769,-0.013365126214921474,1.5793815851211548,0.0
1659367964161742448,-0.01985342428088188,1.56766939163208,0.0
1659367964219341993,-0.02319684438407421,1.5616512298583984,0.0
1659367964264244079,-0.02805955521762371,1.5528289079666138,0.0
1659367964310556173,-0.03146061673760414,1.5465824604034424,0.0
1659367964354496717,-0.03645357862114906,1.5373986959457397,0.0
1659367964398941755,-0.03983831778168678,1.5312010049819946,0.0
1659367964442804336,-0.04461837559938431,1.5224488973617554,0.0
1659367964488412857,-0.04793894290924072,1.5163604021072388,0.0
1659367964538556098,-0.052916258573532104,1.507168173789978,0.0
1659367964589331150,-0.056210167706012726,1.5010364055633545,0.0
1659367964589456319,-0.06045054644346237,1.4930859804153442,0.0
1659367964635621070,-0.0637848749756813,1.486803650856018,0.0
1659367964681085348,-0.06935854256153107,1.4762941598892212,0.0
1659367964736187934,-0.07271122932434082,1.4699642658233643,0.0
1659367964786029338,-0.07722960412502289,1.4613876342773438,0.0
1659367964830398321,-0.0804903656244278,1.4551523923873901,0.0
1659367964874790191,-0.08638151735067368,1.4439804553985596,0.0
1659367964922183752,-0.08967363089323044,1.4378191232681274,0.0
1659367964970339059,-0.09467816352844238,1.428411602973938,0.0
1659367965014505386,-0.09790721535682678,1.422274112701416,0.0
1659367965066982984,-0.10228952765464783,1.4139405488967896,0.0
1659367965110841751,-0.10552508383989334,1.407806396484375,0.0
1659367965111006736,-0.11001117527484894,1.3993558883666992,0.0
1659367965166651248,-0.11329268664121628,1.3932462930679321,0.0
1659367965187891721,-0.11813738942146301,1.3842700719833374,0.0
1659367965246701240,-0.12149398028850555,1.3780571222305298,0.0
1659367965291222095,-0.12794926762580872,1.3661248683929443,0.0
1659367965342860460,-0.1313380002975464,1.359871745109558,0.0
1659367965386337280,-0.13614436984062195,1.350989818572998,0.0
1659367965430302619,-0.13940946757793427,1.3449288606643677,0.0
1659367965478925466,-0.14571820199489594,1.3332338333129883,0.0
1659367965535573720,-0.14905357360839844,1.3270670175552368,0.0
1659367965578092336,-0.15417899191379547,1.31769597530365,0.0
1659367965623393297,-0.1575344204902649,1.311626672744751,0.0
1659367965670729398,-0.1625160276889801,1.3025519847869873,0.0
1659367965717199563,-0.16596630215644836,1.296188235282898,0.0
1659367965766761302,-0.1722320169210434,1.2847002744674683,0.0
1659367965812446832,-0.1755675971508026,1.2786778211593628,0.0
1659367965862590789,-0.18042722344398499,1.2699406147003174,0.0
1659367965910224914,-0.183745339512825,1.2639663219451904,0.0
1659367965954328298,-0.18884754180908203,1.2547558546066284,0.0
1659367965998359918,-0.19228604435920715,1.2485300302505493,0.0
1659367965998456478,-0.19675639271736145,1.2404741048812866,0.0
1659367966053949117,-0.2001691609621048,1.234378695487976,0.0
1659367966084028959,-0.2053559273481369,1.225128412246704,0.0
1659367966139915943,-0.20867778360843658,1.21918523311615,0.0
1659367966187243223,-0.21527200937271118,1.2073581218719482,0.0
1659367966245873928,-0.21865397691726685,1.201303482055664,0.0
1659367966290581464,-0.22427336871623993,1.1912801265716553,0.0
1659367966334659099,-0.2276887595653534,1.1851862668991089,0.0
1659367966381158113,-0.23112434148788452,1.1790456771850586,0.0
1659367966426192045,-0.2347986102104187,1.172487497329712,0.0
1659367966528454542,-0.23819173872470856,1.166439175605774,0.0
1659367966528598785,-0.24366596341133118,1.156653642654419,0.0
1659367966574649095,-0.24709783494472504,1.150481939315796,0.0
1659367966574762582,-0.25319185853004456,1.139477252960205,0.0
1659367966620450735,-0.25658804178237915,1.1333436965942383,0.0
1659367966648765087,-0.2612758278846741,1.124887466430664,0.0
1659367966704324007,-0.26456889510154724,1.1189571619033813,0.0
1659367966755045413,-0.2706981897354126,1.1079720258712769,0.0
1659367966805322647,-0.27418267726898193,1.1017427444458008,0.0
1659367966854281187,-0.2794225513935089,1.092406153678894,0.0
1659367966902602434,-0.28284046053886414,1.086342692375183,0.0
1659367966946263313,-0.28824272751808167,1.0767199993133545,0.0
1659367966990736484,-0.2916088104248047,1.0706855058670044,0.0
1659367967034196376,-0.29509952664375305,1.0644307136535645,0.0
1659367967078372955,-0.2991732954978943,1.0571390390396118,0.0
1659367967122448682,-0.3025049567222595,1.0511722564697266,0.0
1659367967166225910,-0.3076000213623047,1.042015790939331,0.0
1659367967210865974,-0.31111690402030945,1.035659670829773,0.0
1659367967255038738,-0.31439703702926636,1.0297222137451172,0.0
1659367967255422115,-0.3181632161140442,1.022896647453308,0.0
1659367967305447340,-0.321546733379364,1.0167560577392578,0.0
1659367967328308820,-0.3272109031677246,1.0064680576324463,0.0
1659367967384165287,-0.33061274886131287,1.0002797842025757,0.0
1659367967435048341,-0.33562180399894714,0.9911913871765137,0.0
1659367967478079795,-0.33906710147857666,0.9849692583084106,0.0
1659367967523832559,-0.3449840247631073,0.9742425680160522,0.0
1659367967566647052,-0.3483762741088867,0.9680490493774414,0.0
1659367967610811233,-0.3530367910861969,0.9595488905906677,0.0
1659367967654711246,-0.35642096400260925,0.9534086585044861,0.0
1659367967698751926,-0.36107978224754333,0.9450231790542603,0.0
1659367967742823362,-0.364357054233551,0.9391710162162781,0.0
1659367967786264181,-0.37054917216300964,0.9281920790672302,0.0
1659367967834391593,-0.37403714656829834,0.9220519065856934,0.0
1659367967882543563,-0.3788478374481201,0.913635790348053,0.0
1659367967926071405,-0.3823302984237671,0.9075799584388733,0.0
1659367967970542907,-0.3879196047782898,0.8978889584541321,0.0
1659367968014185905,-0.3913029432296753,0.8920389413833618,0.0
1659367968062392473,-0.3963776230812073,0.8833369016647339,0.0
1659367968111504077,-0.3998788595199585,0.8774091601371765,0.0
1659367968112180709,-0.4048251211643219,0.8691014647483826,0.0
1659367968165846586,-0.40830788016319275,0.8632805347442627,0.0
1659367968212059497,-0.4148002862930298,0.8525947332382202,0.0
1659367968272419691,-0.41827651858329773,0.8469772338867188,0.0
1659367968319156408,-0.4232654869556427,0.8391116857528687,0.0
1659367968362144231,-0.42639854550361633,0.8342955708503723,0.0
1659367968410411119,-0.43258073925971985,0.8249412178993225,0.0
1659367968454365015,-0.4358443319797516,0.820059597492218,0.0
1659367968498309612,-0.44112834334373474,0.81220543384552,0.0
1659367968542777538,-0.44452008605003357,0.8071964979171753,0.0
1659367968591340065,-0.45107516646385193,0.7976969480514526,0.0
1659367968635491371,-0.4543907940387726,0.7930046319961548,0.0
1659367968680355548,-0.45942237973213196,0.7860231995582581,0.0
1659367968726678133,-0.46292951703071594,0.781250536441803,0.0
1659367968770601272,-0.4687962234020233,0.773469865322113,0.0
1659367968814458370,-0.47244367003440857,0.7687714695930481,0.0
1659367968862937688,-0.47914984822273254,0.7603930830955505,0.0
1659367968910271644,-0.4827241003513336,0.7560574412345886,0.0
1659367968954757928,-0.4874511659145355,0.7504752278327942,0.0
1659367969002270936,-0.4909701347351074,0.7464243769645691,0.0
1659367969046702623,-0.4965430498123169,0.7401350736618042,0.0
1659367969094737768,-0.5006226301193237,0.7356001138687134,0.0
1659367969094835281,-0.506412923336029,0.7292338609695435,0.0
1659367969143604516,-0.5105664730072021,0.7247321009635925,0.0
1659367969171515941,-0.5157427787780762,0.7192112803459167,0.0
1659367969223561525,-0.5194639563560486,0.715310275554657,0.0
1659367969270434617,-0.5253642797470093,0.7092561721801758,0.0
1659367969314126729,-0.528860330581665,0.705736517906189,0.0
1659367969358492136,-0.5341095328330994,0.7005338072776794,0.0
1659367969404069662,-0.5371856689453125,0.6975252032279968,0.0
1659367969450742483,-0.5451329350471497,0.6899052262306213,0.0
1659367969519618272,-0.5495454668998718,0.6857672333717346,0.0
1659367969562536716,-0.5573712587356567,0.6784979104995728,0.0
1659367969608398199,-0.561946451663971,0.6742746233940125,0.0
1659367969654682874,-0.5704296827316284,0.6664860844612122,0.0
1659367969702391147,-0.5746604204177856,0.6625986695289612,0.0
1659367969746342897,-0.5810595750808716,0.6566944122314453,0.0
1659367969790346860,-0.5855922698974609,0.6524997353553772,0.0
1659367969834254264,-0.5938720703125,0.6448266506195068,0.0
1659367969882181406,-0.5983877182006836,0.6406508088111877,0.0
1659367969930631875,-0.6039109230041504,0.635551393032074,0.0
1659367969974504947,-0.6075009107589722,0.6322385668754578,0.0
1659367970020586490,-0.6140228509902954,0.6262434124946594,0.0
1659367970066471338,-0.6175534129142761,0.6230155229568481,0.0
1659367970110871791,-0.6223810315132141,0.6186181902885437,0.0
1659367970158079862,-0.6247408390045166,0.6164730191230774,0.0
1659367970206238746,-0.6266495585441589,0.6147346496582031,0.0
1659367970254166841,-0.6270607709884644,0.6143592000007629,0.0
1659367970298194646,-0.6271916031837463,0.6142396926879883,0.0
1659367970342435121,-0.6271916031837463,0.6142396926879883,0.0
1659367970396446704,-0.6271916031837463,0.6142396926879883,0.0
1659367970444274902,-0.6271916031837463,0.6142396926879883,0.0
1659367970444487333,-0.6271916031837463,0.6142396926879883,0.0
1659367970494360685,-0.6271916031837463,0.6142396926879883,0.0
1659367970519912004,-0.6271916031837463,0.6142396926879883,0.0
1659367970579794883,-0.6271916031837463,0.6142396926879883,0.0
1659367970636703729,-0.6271916031837463,0.6142396926879883,0.0
1659367970694236278,-0.6271916031837463,0.6142396926879883,0.0
1659367970740038633,-0.6271916031837463,0.6142396926879883,0.0
1659367970795686960,-0.6271916031837463,0.6142396926879883,0.0
1659367970838224887,-0.6271916031837463,0.6142396926879883,0.0
1659367970887006282,-0.6271916031837463,0.6142396926879883,0.0
1659367970930333614,-0.6271916031837463,0.6142396926879883,0.0
1659367970974059343,-0.6271916031837463,0.6142396926879883,0.0
1659367971018386125,-0.6271916031837463,0.6142396926879883,0.0
1659367971062202692,-0.6271916031837463,0.6142396926879883,0.0
1659367971106287717,-0.6271916031837463,0.6142396926879883,0.0
1659367971150087118,-0.6271916031837463,0.6142396926879883,0.0
1659367971194584608,-0.6271916031837463,0.6142396926879883,0.0
1659367971238111972,-0.6271916031837463,0.6142396926879883,0.0
1659367971288192510,-0.6271916031837463,0.6142396926879883,0.0
1659367971334301948,-0.6271916031837463,0.6142396926879883,0.0
1659367971378210544,-0.6271916031837463,0.6142396926879883,0.0
1659367971426193714,-0.6271916031837463,0.6142396926879883,0.0
1659367971470524072,-0.6271916031837463,0.6142396926879883,0.0
1659367971514458656,-0.6271916031837463,0.6142396926879883,0.0
1659367971562808513,-0.6271916031837463,0.6142396926879883,0.0
1659367971607039690,-0.6271916031837463,0.6142396926879883,0.0
1659367971607114791,-0.6271916031837463,0.6142396926879883,0.0
1659367971655970573,-0.6271916031837463,0.6142396926879883,0.0
1659367971680457115,-0.6271916031837463,0.6142396926879883,0.0
1659367971730780601,-0.6271916031837463,0.6142396926879883,0.0
1659367971786443233,-0.6271916031837463,0.6142396926879883,0.0
1659367971836891889,-0.6271916031837463,0.6142396926879883,0.0
1659367971884202718,-0.6271916031837463,0.6142396926879883,0.0
1659367971929878950,-0.6271916031837463,0.6142396926879883,0.0
1659367971973955392,-0.6271916031837463,0.6142396926879883,0.0
1659367972017796754,-0.6271916031837463,0.6142396926879883,0.0
1659367972066304206,-0.6271916031837463,0.6142396926879883,0.0
1659367972110245466,-0.6271916031837463,0.6142396926879883,0.0
1659367972158391475,-0.6271916031837463,0.6142396926879883,0.0
1659367972206768274,-0.6271916031837463,0.6142396926879883,0.0
1659367972250355958,-0.6271916031837463,0.6142396926879883,0.0
1659367972298051118,-0.6271916031837463,0.6142396926879883,0.0
1659367972342330455,-0.6271916031837463,0.6142396926879883,0.0
1659367972387952089,-0.6271916031837463,0.6142396926879883,0.0
1659367972388105869,-0.6271916031837463,0.6142396926879883,0.0
1659367972431046724,-0.6271916031837463,0.6142396926879883,0.0
1659367972482075214,-0.6271916031837463,0.6142396926879883,0.0
1659367972538111209,-0.6271916031837463,0.6142396926879883,0.0
1659367972582206964,-0.6271916031837463,0.6142396926879883,0.0
1659367972630259513,-0.6271916031837463,0.6142396926879883,0.0
1659367972674324750,-0.6271916031837463,0.6142396926879883,0.0
1659367972723334550,-0.6271916031837463,0.6142396926879883,0.0
1659367972771612882,-0.6271916031837463,0.6142396926879883,0.0
1659367972818503379,-0.6271916031837463,0.6142396926879883,0.0
1659367972866484165,-0.6271916031837463,0.6142396926879883,0.0
1659367972910147905,-0.6271916031837463,0.6142396926879883,0.0
1659367972954393625,-0.6271916031837463,0.6142396926879883,0.0
1659367973012707948,-0.6271916031837463,0.6142396926879883,0.0
1659367973012805461,-0.6271916031837463,0.6142396926879883,0.0
1659367973062638521,-0.6271916031837463,0.6142396926879883,0.0
1659367973083969593,-0.6271916031837463,0.6142396926879883,0.0
1659367973134207248,-0.6271916031837463,0.6142396926879883,0.0
1659367973191210746,-0.6271916031837463,0.6142396926879883,0.0
1659367973234590053,-0.6271916031837463,0.6142396926879883,0.0
1659367973278090238,-0.6271916031837463,0.6142396926879883,0.0
1659367973326442003,-0.6271916031837463,0.6142396926879883,0.0
