%time,field.x,field.y,field.z
1659368392795256614,-0.00969201885163784,1.7779217958450317,0.0
1659368392846053600,-0.00969201885163784,1.7779217958450317,0.0
1659368392868686676,-0.00969201885163784,1.7779217958450317,0.0
1659368392934151887,-0.00969201885163784,1.7779217958450317,0.0
1659368392950070381,-0.00969201885163784,1.7779217958450317,0.0
1659368393000518321,-0.00969201885163784,1.7779217958450317,0.0
1659368393051386833,-0.00969201885163784,1.7779217958450317,0.0
1659368393107945203,-0.00969201885163784,1.7779217958450317,0.0
1659368393130330324,-0.00969201885163784,1.7779217958450317,0.0
1659368393181345462,-0.00969201885163784,1.7779217958450317,0.0
1659368393233913183,-0.00969201885163784,1.7779217958450317,0.0
1659368393285301446,-0.00969201885163784,1.7779217958450317,0.0
1659368393308768510,-0.00969201885163784,1.7779217958450317,0.0
1659368393358646869,-0.00969201885163784,1.7779217958450317,0.0
1659368393406008481,-0.00969201885163784,1.7779217958450317,0.0
1659368393454300880,-0.00969201885163784,1.7779217958450317,0.0
1659368393498224973,-0.00969201885163784,1.7779217958450317,0.0
1659368393542017221,-0.00969201885163784,1.7779217958450317,0.0
1659368393589920520,-0.00969201885163784,1.7779217958450317,0.0
1659368393639791727,-0.00969201885163784,1.7779217958450317,0.0
1659368393682034730,-0.00969201885163784,1.7779217958450317,0.0
1659368393730207443,-0.00969201885163784,1.7779217958450317,0.0
1659368393774130344,-0.00969201885163784,1.7779217958450317,0.0
1659368393818157672,-0.00969201885163784,1.7779217958450317,0.0
1659368393862189769,-0.00969201885163784,1.7779217958450317,0.0
1659368393905773401,-0.00969201885163784,1.7779217958450317,0.0
1659368393949868917,-0.00969201885163784,1.7779217958450317,0.0
1659368393994369268,-0.00969201885163784,1.7779217958450317,0.0
1659368394038367986,-0.00969201885163784,1.7779217958450317,0.0
1659368394082479476,-0.00969201885163784,1.7779217958450317,0.0
1659368394130314350,-0.00969201885163784,1.7779217958450317,0.0
1659368394174437046,-0.00969201885163784,1.7779217958450317,0.0
1659368394218904972,-0.00969201885163784,1.7779217958450317,0.0
1659368394265168428,-0.00969201885163784,1.7779217958450317,0.0
1659368394265298604,-0.00969201885163784,1.7779217958450317,0.0
1659368394311513423,-0.00969201885163784,1.7779217958450317,0.0
1659368394368279457,-0.00969201885163784,1.7779217958450317,0.0
1659368394415054798,-0.00969201885163784,1.7779217958450317,0.0
1659368394458305358,-0.00969201885163784,1.7779217958450317,0.0
1659368394506358861,-0.00969201885163784,1.7779217958450317,0.0
1659368394557049036,-0.00969201885163784,1.7779217958450317,0.0
1659368394602415800,-0.00969201885163784,1.7779217958450317,0.0
1659368394650315761,-0.00969201885163784,1.7779217958450317,0.0
1659368394700269222,-0.00969201885163784,1.7779217958450317,0.0
1659368394747377872,-0.009648747742176056,1.777544617652893,0.0
1659368394790030002,-0.009058061055839062,1.7725425958633423,0.0
1659368394835857391,-0.008520563133060932,1.7681204080581665,0.0
1659368394878237009,-0.007615284062922001,1.760581374168396,0.0
1659368394922569274,-0.006874290760606527,1.754475712776184,0.0
1659368394966204166,-0.005816694814711809,1.7458587884902954,0.0
1659368395010407686,-0.005033391993492842,1.7394012212753296,0.0
1659368395054294824,-0.003257674165070057,1.724905252456665,0.0
1659368395103996992,-0.002415861003100872,1.7180979251861572,0.0
1659368395152474880,-0.0007567173452116549,1.704735279083252,0.0
1659368395206208229,6.736566865583882e-05,1.6981297731399536,0.0
1659368395261944293,0.0008200317970477045,1.6920000314712524,0.0
1659368395310482501,0.0019047913374379277,1.6830804347991943,0.0
1659368395358917951,0.002674949588254094,1.6768507957458496,0.0
1659368395359030485,0.0040138838812708855,1.6659224033355713,0.0
1659368395408216714,0.004759622737765312,1.6596388816833496,0.0
1659368395457556247,0.005529157817363739,1.6529757976531982,0.0
1659368395505349636,0.006576335057616234,1.6434403657913208,0.0
1659368395551332950,0.007214964833110571,1.6372722387313843,0.0
1659368395598329544,0.008578193373978138,1.625123381614685,0.0
1659368395642344951,0.009421443566679955,1.6191076040267944,0.0
1659368395686486721,0.010996836237609386,1.6092860698699951,0.0
1659368395734254121,0.012019624002277851,1.603041648864746,0.0
1659368395782104253,0.01388606708496809,1.591549277305603,0.0
1659368395826514244,0.014873350970447063,1.5853760242462158,0.0
1659368395874836444,0.016636168584227562,1.5742002725601196,0.0
1659368395920300245,0.017480643466114998,1.5687475204467773,0.0
1659368395920380592,0.018859680742025375,1.5606379508972168,0.0
1659368395966426372,0.019952742382884026,1.5549200773239136,0.0
1659368396005193471,0.022251689806580544,1.543506383895874,0.0
1659368396053677558,0.02350550889968872,1.537433385848999,0.0
1659368396109001159,0.021108807995915413,1.548956274986267,0.0
1659368396155534744,0.022456234320998192,1.5425925254821777,0.0
1659368396198493957,0.024678001180291176,1.5320932865142822,0.0
1659368396243222713,0.023370636627078056,1.5384912490844727,0.0
1659368396286676168,0.02127964422106743,1.5483713150024414,0.0
1659368396333982467,0.022687304764986038,1.5421243906021118,0.0
1659368396378471374,0.024737758561968803,1.5329607725143433,0.0
1659368396421924114,0.02608855627477169,1.5268566608428955,0.0
1659368396470442295,0.028189869597554207,1.517496943473816,0.0
1659368396516967058,0.029396016150712967,1.51216459274292,0.0
1659368396562437295,0.0321454219520092,1.4996041059494019,0.0
1659368396606128215,0.03091038018465042,1.505551815032959,0.0
1659368396650281667,0.03276965767145157,1.4960119724273682,0.0
1659368396694214105,0.033893950283527374,1.4900938272476196,0.0
1659368396742975234,0.03618643805384636,1.4781113862991333,0.0
1659368396786077499,0.037367645651102066,1.4719722270965576,0.0
1659368396830239534,0.039400022476911545,1.4616409540176392,0.0
1659368396878841400,0.04052634537220001,1.4559295177459717,0.0
1659368396926010131,0.042319294065237045,1.4463512897491455,0.0
1659368396974279880,0.043369293212890625,1.4403681755065918,0.0
1659368397018362283,0.04523461312055588,1.4292347431182861,0.0
1659368397062284231,0.04622038081288338,1.423009991645813,0.0
1659368397106233119,0.04751508682966232,1.4130198955535889,0.0
1659368397150184392,0.04816436022520065,1.4067765474319458,0.0
1659368397194484949,0.049310293048620224,1.395546317100525,0.0
1659368397242252588,0.04994582384824753,1.3891997337341309,0.0
1659368397286466836,0.0508459098637104,1.3794713020324707,0.0
1659368397330635786,0.05138571187853813,1.3730651140213013,0.0
1659368397374377965,0.052130743861198425,1.3611924648284912,0.0
1659368397424811363,0.052367787808179855,1.354691982269287,0.0
1659368397425076484,0.0526699535548687,1.345078706741333,0.0
1659368397472365856,0.05288564786314964,1.3387041091918945,0.0
1659368397500923395,0.05328013747930527,1.327751636505127,0.0
1659368397556931018,0.053511638194322586,1.321402907371521,0.0
1659368397603809595,0.053765326738357544,1.3083196878433228,0.0
1659368397653905868,0.05378614738583565,1.3014605045318604,0.0
1659368397709547281,0.05388222262263298,1.2889573574066162,0.0
1659368397759313344,0.0539889894425869,1.2820990085601807,0.0
1659368397803005456,0.05416712909936905,1.2729636430740356,0.0
1659368397849259614,0.05429546535015106,1.2663841247558594,0.0
1659368397898540973,0.05428418144583702,1.254235029220581,0.0
1659368397949720859,0.0541440024971962,1.247529149055481,0.0
1659368397998282194,0.05392398312687874,1.2327240705490112,0.0
1659368398042630434,0.053891073912382126,1.2257131338119507,0.0
1659368398093282699,0.05389896780252457,1.2187527418136597,0.0
1659368398138488292,0.05398142337799072,1.209084391593933,0.0
1659368398182803869,0.05418620631098747,1.2023801803588867,0.0
1659368398226256132,0.05473306030035019,1.190826177597046,0.0
1659368398270978450,0.05505748465657234,1.1841520071029663,0.0
1659368398318666458,0.05585856735706329,1.169189453125,0.0
1659368398364961624,0.05624619498848915,1.1622397899627686,0.0
1659368398414947032,0.05706987902522087,1.148064374923706,0.0
1659368398465847492,0.0574478805065155,1.1418747901916504,0.0
1659368398523041009,0.05786341056227684,1.1350789070129395,0.0
1659368398566295385,0.058448951691389084,1.1257069110870361,0.0
1659368398610562324,0.058881450444459915,1.1189627647399902,0.0
1659368398654297590,0.059563323855400085,1.108176589012146,0.0
1659368398698388338,0.059963859617710114,1.1016587018966675,0.0
1659368398742362260,0.06071794033050537,1.0891273021697998,0.0
1659368398786429405,0.061061639338731766,1.0828343629837036,0.0
1659368398830649137,0.06151885166764259,1.073353886604309,0.0
1659368398878295898,0.06180493161082268,1.066576600074768,0.0
1659368398922639846,0.06220290809869766,1.0564601421356201,0.0
1659368398966413497,0.06246142461895943,1.0501123666763306,0.0
1659368399010221481,0.06302440166473389,1.0361268520355225,0.0
1659368399054367780,0.06327459216117859,1.0297027826309204,0.0
1659368399098104238,0.06365736573934555,1.0189778804779053,0.0
1659368399142616271,0.06385673582553864,1.0125267505645752,0.0
1659368399186094999,0.06404415518045425,1.0055941343307495,0.0
1659368399230217218,0.06425696611404419,0.997016429901123,0.0
1659368399274264812,0.06444589048624039,0.9905396699905396,0.0
1659368399320169687,0.06486789137125015,0.9786511063575745,0.0
1659368399365921020,0.0650988295674324,0.9725302457809448,0.0
1659368399409892559,0.06553490459918976,0.9606168866157532,0.0
1659368399453761577,0.06572221219539642,0.9545705318450928,0.0
1659368399498088121,0.06595361232757568,0.9454362988471985,0.0
1659368399541800022,0.0660904198884964,0.9392873048782349,0.0
1659368399588983297,0.06629423052072525,0.9281524419784546,0.0
1659368399634195089,0.06639266759157181,0.9221799373626709,0.0
1659368399678136348,0.0667475089430809,0.9085420966148376,0.0
1659368399726759910,0.06696146726608276,0.9022940397262573,0.0
1659368399726832866,0.06729491055011749,0.8920739889144897,0.0
1659368399775482892,0.06748839467763901,0.8858252167701721,0.0
1659368399809549808,0.06775243580341339,0.8758562803268433,0.0
1659368399859959840,0.06787771731615067,0.8694285750389099,0.0
1659368399910373926,0.06792932003736496,0.8567480444908142,0.0
1659368399960775613,0.0678391084074974,0.8503704071044922,0.0
1659368400005971908,0.06756297498941422,0.8409335613250732,0.0
1659368400049688339,0.06730932742357254,0.8347883224487305,0.0
1659368400093798637,0.06686116755008698,0.8254340887069702,0.0
1659368400137705564,0.06651459634304047,0.8188877701759338,0.0
1659368400182403326,0.06617554277181625,0.8129748106002808,0.0
1659368400225777387,0.06565511971712112,0.8048413991928101,0.0
1659368400269979238,0.06524065881967545,0.798806369304657,0.0
1659368400346291780,0.06444290280342102,0.7878758907318115,0.0
1659368400346458196,0.06394045054912567,0.7814412713050842,0.0
1659368400390058279,0.06337020546197891,0.7745042443275452,0.0
1659368400394112110,0.06264510750770569,0.765878438949585,0.0
1659368400449546813,0.062111228704452515,0.7595733404159546,0.0
1659368400510886669,0.06120369955897331,0.7483974695205688,0.0
1659368400576542615,0.06071047857403755,0.7420382499694824,0.0
1659368400576675891,0.059683848172426224,0.7294245958328247,0.0
1659368400623500823,0.059123702347278595,0.7228168845176697,0.0
1659368400647652626,0.058317914605140686,0.7129532694816589,0.0
1659368400702810525,0.05766616016626358,0.7057183980941772,0.0
1659368400753620386,0.05650502070784569,0.6936757564544678,0.0
1659368400810008525,0.05592603236436844,0.6871204972267151,0.0
1659368400854398012,0.05513729900121689,0.6776109933853149,0.0
1659368400898797988,0.05460101366043091,0.6710774898529053,0.0
1659368400942356586,0.05379481613636017,0.6610107421875,0.0
1659368400986224412,0.05331258848309517,0.6545999646186829,0.0
1659368401030025482,0.05244969576597214,0.6418218612670898,0.0
1659368401075840473,0.052040133625268936,0.6353299021720886,0.0
1659368401118042707,0.051413536071777344,0.6256815195083618,0.0
1659368401162019252,0.05094042420387268,0.6188640594482422,0.0
1659368401206195354,0.05002256855368614,0.6094679236412048,0.0
1659368401249979734,0.04919309914112091,0.6028375625610352,0.0
1659368401294226169,0.04783669859170914,0.5923705101013184,0.0
1659368401338136911,0.04693494364619255,0.5856218934059143,0.0
1659368401382795095,0.045118894428014755,0.5731486678123474,0.0
1659368401431008100,0.04406677931547165,0.5667294859886169,0.0
1659368401473914384,0.04267273470759392,0.5585454702377319,0.0
1659368401518656015,0.04164032265543938,0.5524052381515503,0.0
1659368401561838150,0.03934834524989128,0.5392906069755554,0.0
1659368401610893487,0.03830476850271225,0.5335891842842102,0.0
1659368401668449640,0.03728894889354706,0.5281915068626404,0.0
1659368401714580774,0.036025699228048325,0.521681547164917,0.0
1659368401758243560,0.03522884100675583,0.5175819993019104,0.0
1659368401802583217,0.03386750817298889,0.5111435651779175,0.0
1659368401846319437,0.032961778342723846,0.5074044466018677,0.0
1659368401890276432,0.03192814067006111,0.5034365653991699,0.0
1659368401937787294,0.03060578927397728,0.49860265851020813,0.0
1659368401983892917,0.029511863365769386,0.49472978711128235,0.0
1659368401983989000,0.027975615113973618,0.48950934410095215,0.0
1659368402031006097,0.027063220739364624,0.4865328371524811,0.0
1659368402067446470,0.026709219440817833,0.48542365431785583,0.0
1659368402118119239,0.027137191966176033,0.4866950213909149,0.0
1659368402162269115,0.028156332671642303,0.48960989713668823,0.0
1659368402206220626,0.029175737872719765,0.49244412779808044,0.0
1659368402256388187,0.03236551210284233,0.5008171200752258,0.0
1659368402306653022,0.03404761850833893,0.5049693584442139,0.0
1659368402364396810,0.03584723547101021,0.5092372894287109,0.0
1659368402410356521,0.038401469588279724,0.514971137046814,0.0
1659368402458535194,0.04027233272790909,0.5189300775527954,0.0
1659368402502683877,0.043302927166223526,0.5249704122543335,0.0
1659368402546762228,0.04531322792172432,0.5287460684776306,0.0
1659368402594215393,0.048061709851026535,0.5336469411849976,0.0
1659368402642510890,0.05034266784787178,0.5375027656555176,0.0
1659368402686474323,0.055657871067523956,0.5458807349205017,0.0
1659368402730433225,0.05827279016375542,0.5497344732284546,0.0
1659368402778046607,0.060847386717796326,0.5533387660980225,0.0
1659368402822293043,0.06468827277421951,0.5583673715591431,0.0
1659368402866654872,0.0670168325304985,0.5612367987632751,0.0
1659368402866742372,0.07142023742198944,0.5662962794303894,0.0
1659368402915829896,0.07407809793949127,0.5691474080085754,0.0
1659368402950678110,0.0781714916229248,0.5732510089874268,0.0
1659368403001251220,0.08096484839916229,0.5758594870567322,0.0
1659368403052449703,0.08643233776092529,0.5805649757385254,0.0
1659368403098442316,0.08950785547494888,0.5830006003379822,0.0
1659368403141778230,0.094624824821949,0.5867658257484436,0.0
1659368403186789274,0.09807596355676651,0.5891175866127014,0.0
1659368403234252452,0.10387617349624634,0.5927790403366089,0.0
1659368403278354644,0.10748450458049774,0.5948817133903503,0.0
1659368403326265811,0.1152285635471344,0.5989711284637451,0.0
1659368403370911836,0.1188584566116333,0.6007088422775269,0.0
1659368403414029598,0.12546749413013458,0.603599488735199,0.0
1659368403458090782,0.12941955029964447,0.6051687002182007,0.0
1659368403506788969,0.1384860873222351,0.6083788871765137,0.0
1659368403550555706,0.142591193318367,0.6096681952476501,0.0
1659368403607158184,0.14730864763259888,0.6110306978225708,0.0
1659368403650129079,0.15454192459583282,0.6128828525543213,0.0
1659368403698209524,0.1598474681377411,0.6140929460525513,0.0
1659368403746366024,0.168445885181427,0.6158831715583801,0.0
1659368403790731191,0.1737644225358963,0.6169085502624512,0.0
1659368403790808200,0.18198612332344055,0.6183810830116272,0.0
1659368403843481063,0.187425434589386,0.6193080544471741,0.0
1659368403889251470,0.19674406945705414,0.6209729909896851,0.0
1659368403944942235,0.2014876753091812,0.6219052076339722,0.0
1659368403993092775,0.208047017455101,0.623306393623352,0.0
1659368404039014577,0.2123211771249771,0.6242576837539673,0.0
1659368404086241483,0.21827945113182068,0.6255643367767334,0.0
1659368404134598493,0.22234004735946655,0.6264256834983826,0.0
1659368404178765535,0.22796659171581268,0.6275889277458191,0.0
1659368404226442098,0.2314882129430771,0.6283071637153625,0.0
1659368404270442962,0.2326301634311676,0.628534197807312,0.0
1659368404315121889,0.23116332292556763,0.6282541751861572,0.0
1659368404358345270,0.22737912833690643,0.6275606155395508,0.0
1659368404406295299,0.22403810918331146,0.6269768476486206,0.0
1659368404450205326,0.21841490268707275,0.6260760426521301,0.0
1659368404498865127,0.21415525674819946,0.6254680156707764,0.0
1659368404546422719,0.20719750225543976,0.624605119228363,0.0
1659368404590357303,0.20284360647201538,0.6241393089294434,0.0
1659368404638174295,0.19536806643009186,0.6233482956886292,0.0
1659368404688871622,0.19124028086662292,0.6229103803634644,0.0
1659368404689007282,0.18559323251247406,0.6224052906036377,0.0
1659368404738322496,0.18147826194763184,0.6221087574958801,0.0
1659368404765507698,0.1754654198884964,0.6217431426048279,0.0
1659368404820142030,0.17164850234985352,0.6215476989746094,0.0
1659368404871834516,0.1643645316362381,0.6212645173072815,0.0
1659368404919519186,0.1600639373064041,0.6211264729499817,0.0
1659368404967025518,0.154502272605896,0.6208536624908447,0.0
1659368405017459630,0.15023352205753326,0.6205800175666809,0.0
1659368405066210508,0.1435856819152832,0.6202363967895508,0.0
1659368405110359668,0.1389816850423813,0.6200830936431885,0.0
1659368405154209136,0.13283254206180573,0.6199538707733154,0.0
1659368405202844858,0.12873250246047974,0.6199054718017578,0.0
1659368405202986001,0.12389849126338959,0.6198493242263794,0.0
1659368405246308803,0.12293677031993866,0.6198364496231079,0.0
1659368405298870325,0.12508806586265564,0.6198583841323853,0.0
1659368405349437713,0.12716351449489594,0.6198676824569702,0.0
1659368405398207426,0.1316181868314743,0.6198613047599792,0.0
1659368405442318916,0.13531343638896942,0.6198331713676453,0.0
1659368405486293554,0.1428290754556656,0.6196762919425964,0.0
1659368405534394741,0.1474071741104126,0.6195066571235657,0.0
1659368405582210302,0.1548139750957489,0.6191367506980896,0.0
1659368405629255533,0.16014479100704193,0.6188144683837891,0.0
1659368405674309968,0.16835014522075653,0.6182323098182678,0.0
1659368405722671270,0.17430388927459717,0.617749035358429,0.0
1659368405766369819,0.18415911495685577,0.6168463826179504,0.0
1659368405814683675,0.1900763362646103,0.6162419319152832,0.0
1659368405814781665,0.19932958483695984,0.6151770353317261,0.0
1659368405859292507,0.20512783527374268,0.6144254207611084,0.0
1659368405895332813,0.2147282212972641,0.6130815148353577,0.0
1659368405950152873,0.2208881378173828,0.612173855304718,0.0
1659368405994042873,0.2305729240179062,0.6107070446014404,0.0
1659368406041986703,0.23692521452903748,0.6097173690795898,0.0
1659368406091539382,0.24319621920585632,0.6087000966072083,0.0
1659368406141583204,0.2522812783718109,0.6071694493293762,0.0
1659368406186447381,0.2580154240131378,0.6061649918556213,0.0
1659368406230575561,0.2662990987300873,0.6046095490455627,0.0
1659368406274075031,0.26942530274391174,0.6039791107177734,0.0
1659368406318684101,0.27133268117904663,0.6035788655281067,0.0
1659368406362214326,0.27274295687675476,0.6032746434211731,0.0
1659368406410782098,0.27313849329948425,0.6031877398490906,0.0
1659368406410948038,0.27326205372810364,0.6031604409217834,0.0
1659368406454427719,0.27326205372810364,0.6031604409217834,0.0
1659368406509101867,0.27326205372810364,0.6031604409217834,0.0
1659368406559508800,0.27326205372810364,0.6031604409217834,0.0
1659368406614718675,0.27326205372810364,0.6031604409217834,0.0
1659368406659049034,0.27326205372810364,0.6031604409217834,0.0
1659368406702624320,0.27326205372810364,0.6031604409217834,0.0
1659368406746743440,0.27326205372810364,0.6031604409217834,0.0
1659368406795831918,0.27326205372810364,0.6031604409217834,0.0
1659368406837898492,0.27326205372810364,0.6031604409217834,0.0
1659368406886282444,0.27326205372810364,0.6031604409217834,0.0
1659368406930567502,0.27326205372810364,0.6031604409217834,0.0
1659368406974176883,0.27326205372810364,0.6031604409217834,0.0
1659368407018503904,0.27326205372810364,0.6031604409217834,0.0
1659368407066380262,0.27326205372810364,0.6031604409217834,0.0
1659368407110496044,0.27326205372810364,0.6031604409217834,0.0
1659368407158890247,0.27326205372810364,0.6031604409217834,0.0
1659368407214896678,0.27326205372810364,0.6031604409217834,0.0
1659368407258104085,0.27326205372810364,0.6031604409217834,0.0
1659368407306992292,0.27326205372810364,0.6031604409217834,0.0
1659368407355325698,0.27326205372810364,0.6031604409217834,0.0
1659368407403291940,0.27326205372810364,0.6031604409217834,0.0
1659368407403418302,0.27326205372810364,0.6031604409217834,0.0
1659368407454665422,0.27326205372810364,0.6031604409217834,0.0
1659368407510891675,0.27326205372810364,0.6031604409217834,0.0
1659368407566236019,0.27326205372810364,0.6031604409217834,0.0
1659368407614486932,0.27326205372810364,0.6031604409217834,0.0
1659368407658342599,0.27326205372810364,0.6031604409217834,0.0
1659368407702431678,0.27326205372810364,0.6031604409217834,0.0
1659368407746807336,0.27326205372810364,0.6031604409217834,0.0
1659368407790347576,0.27326205372810364,0.6031604409217834,0.0
1659368407834287881,0.27326205372810364,0.6031604409217834,0.0
1659368407881528615,0.27326205372810364,0.6031604409217834,0.0
1659368407925701141,0.27326205372810364,0.6031604409217834,0.0
1659368407973885297,0.27326205372810364,0.6031604409217834,0.0
1659368408021685361,0.27326205372810364,0.6031604409217834,0.0
1659368408066066741,0.27326205372810364,0.6031604409217834,0.0
1659368408109816074,0.27326205372810364,0.6031604409217834,0.0
1659368408157692909,0.27326205372810364,0.6031604409217834,0.0
1659368408205594778,0.27326205372810364,0.6031604409217834,0.0
1659368408249807596,0.27326205372810364,0.6031604409217834,0.0
1659368408293893814,0.27326205372810364,0.6031604409217834,0.0
1659368408338103294,0.27326205372810364,0.6031604409217834,0.0
1659368408382755756,0.27326205372810364,0.6031604409217834,0.0
1659368408426666021,0.27326205372810364,0.6031604409217834,0.0
1659368408470085859,0.27326205372810364,0.6031604409217834,0.0
1659368408514159917,0.27326205372810364,0.6031604409217834,0.0
1659368408558352947,0.27326205372810364,0.6031604409217834,0.0
1659368408602072238,0.27326205372810364,0.6031604409217834,0.0
1659368408650121927,0.27326205372810364,0.6031604409217834,0.0
1659368408700938701,0.27326205372810364,0.6031604409217834,0.0
1659368408746614933,0.27326205372810364,0.6031604409217834,0.0
1659368408790825128,0.27326205372810364,0.6031604409217834,0.0
1659368408838108777,0.27326205372810364,0.6031604409217834,0.0
1659368408886228561,0.27326205372810364,0.6031604409217834,0.0
1659368408930210828,0.27326205372810364,0.6031604409217834,0.0
1659368408974101305,0.27326205372810364,0.6031604409217834,0.0
1659368409018185377,0.27326205372810364,0.6031604409217834,0.0
1659368409062749147,0.27326205372810364,0.6031604409217834,0.0
1659368409106925725,0.27326205372810364,0.6031604409217834,0.0
1659368409150026559,0.27326205372810364,0.6031604409217834,0.0
1659368409199397563,0.27326205372810364,0.6031604409217834,0.0
1659368409242706775,0.27326205372810364,0.6031604409217834,0.0
1659368409288306951,0.27326205372810364,0.6031604409217834,0.0
1659368409331289768,0.27326205372810364,0.6031604409217834,0.0
1659368409374939203,0.27326205372810364,0.6031604409217834,0.0
1659368409419705390,0.27326205372810364,0.6031604409217834,0.0
1659368409462777137,0.27326205372810364,0.6031604409217834,0.0
1659368409506784439,0.27326205372810364,0.6031604409217834,0.0
1659368409550993919,0.27326205372810364,0.6031604409217834,0.0
1659368409598689794,0.27326205372810364,0.6031604409217834,0.0
1659368409643036842,0.27326205372810364,0.6031604409217834,0.0
1659368409690360784,0.27326205372810364,0.6031604409217834,0.0
1659368409734760761,0.27326205372810364,0.6031604409217834,0.0
1659368409778315305,0.27326205372810364,0.6031604409217834,0.0
1659368409822651147,0.27326205372810364,0.6031604409217834,0.0
1659368409870436429,0.27326205372810364,0.6031604409217834,0.0
1659368409919110298,0.27326205372810364,0.6031604409217834,0.0
1659368409919332504,0.27326205372810364,0.6031604409217834,0.0
1659368409967203378,0.27326205372810364,0.6031604409217834,0.0
1659368410010184764,0.27326205372810364,0.6031604409217834,0.0
1659368410065451860,0.27326205372810364,0.6031604409217834,0.0
1659368410111337661,0.27326205372810364,0.6031604409217834,0.0
1659368410161625146,0.27326205372810364,0.6031604409217834,0.0
1659368410206388950,0.27326205372810364,0.6031604409217834,0.0
1659368410250255584,0.27326205372810364,0.6031604409217834,0.0
1659368410298848152,0.27326205372810364,0.6031604409217834,0.0
1659368410346081495,0.27326205372810364,0.6031604409217834,0.0
1659368410390336990,0.27326205372810364,0.6031604409217834,0.0
1659368410434269666,0.27326205372810364,0.6031604409217834,0.0
1659368410478528022,0.27326205372810364,0.6031604409217834,0.0
1659368410522313356,0.27326205372810364,0.6031604409217834,0.0
1659368410570765018,0.27326205372810364,0.6031604409217834,0.0
1659368410618488788,0.27326205372810364,0.6031604409217834,0.0
1659368410618628025,0.27326205372810364,0.6031604409217834,0.0
1659368410666330814,0.27326205372810364,0.6031604409217834,0.0
1659368410694325208,0.27326205372810364,0.6031604409217834,0.0
1659368410750236749,0.27326205372810364,0.6031604409217834,0.0
1659368410806963205,0.27326205372810364,0.6031604409217834,0.0
1659368410862118959,0.27326205372810364,0.6031604409217834,0.0
1659368410906850814,0.27326205372810364,0.6031604409217834,0.0
1659368410953701734,0.27326205372810364,0.6031604409217834,0.0
1659368411002066135,0.27326205372810364,0.6031604409217834,0.0
1659368411046043157,0.27326205372810364,0.6031604409217834,0.0
1659368411089813232,0.27326205372810364,0.6031604409217834,0.0
1659368411138514757,0.27326205372810364,0.6031604409217834,0.0
1659368411183768272,0.27326205372810364,0.6031604409217834,0.0
1659368411226330041,0.27326205372810364,0.6031604409217834,0.0
1659368411270309209,0.27326205372810364,0.6031604409217834,0.0
1659368411314770698,0.27326205372810364,0.6031604409217834,0.0
1659368411412326335,0.27326205372810364,0.6031604409217834,0.0
1659368411412538290,0.27326205372810364,0.6031604409217834,0.0
1659368411427848100,0.27326205372810364,0.6031604409217834,0.0
1659368411457534790,0.27326205372810364,0.6031604409217834,0.0
1659368411508417129,0.27326205372810364,0.6031604409217834,0.0
1659368411570690631,0.27326205372810364,0.6031604409217834,0.0
1659368411618026971,0.27326205372810364,0.6031604409217834,0.0
1659368411666423797,0.27326205372810364,0.6031604409217834,0.0
1659368411714385986,0.27326205372810364,0.6031604409217834,0.0
1659368411758625984,0.27326205372810364,0.6031604409217834,0.0
1659368411802458524,0.27326205372810364,0.6031604409217834,0.0
1659368411847112655,0.27326205372810364,0.6031604409217834,0.0
1659368411890054464,0.27326205372810364,0.6031604409217834,0.0
1659368411934398174,0.27326205372810364,0.6031604409217834,0.0
1659368411980296611,0.27326205372810364,0.6031604409217834,0.0
1659368412030442714,0.27326205372810364,0.6031604409217834,0.0
1659368412080721378,0.27326205372810364,0.6031604409217834,0.0
1659368412127085685,0.27326205372810364,0.6031604409217834,0.0
1659368412127230405,0.27326205372810364,0.6031604409217834,0.0
1659368412174273729,0.27326205372810364,0.6031604409217834,0.0
1659368412202282190,0.27326205372810364,0.6031604409217834,0.0
1659368412258103847,0.27326205372810364,0.6031604409217834,0.0
1659368412306282281,0.27326205372810364,0.6031604409217834,0.0
1659368412350205183,0.27326205372810364,0.6031604409217834,0.0
1659368412394672155,0.27326205372810364,0.6031604409217834,0.0
1659368412439580678,0.27326205372810364,0.6031604409217834,0.0
1659368412486850738,0.27326205372810364,0.6031604409217834,0.0
1659368412529647588,0.27326205372810364,0.6031604409217834,0.0
1659368412573899745,0.27326205372810364,0.6031604409217834,0.0
1659368412622313022,0.27326205372810364,0.6031604409217834,0.0
1659368412666213035,0.27326205372810364,0.6031604409217834,0.0
1659368412714259386,0.27326205372810364,0.6031604409217834,0.0
1659368412758545637,0.27326205372810364,0.6031604409217834,0.0
1659368412806030988,0.27326205372810364,0.6031604409217834,0.0
1659368412850255727,0.27326205372810364,0.6031604409217834,0.0
1659368412902457952,0.27326205372810364,0.6031604409217834,0.0
1659368412902664661,0.27326205372810364,0.6031604409217834,0.0
1659368412949957132,0.27326205372810364,0.6031604409217834,0.0
1659368412984589815,0.27326205372810364,0.6031604409217834,0.0
1659368413040589094,0.27326205372810364,0.6031604409217834,0.0
1659368413090334415,0.27326205372810364,0.6031604409217834,0.0
1659368413138299226,0.27326205372810364,0.6031604409217834,0.0
1659368413186581611,0.27326205372810364,0.6031604409217834,0.0
1659368413230498552,0.27326205372810364,0.6031604409217834,0.0
1659368413274284124,0.27326205372810364,0.6031604409217834,0.0
1659368413318498134,0.27326205372810364,0.6031604409217834,0.0
1659368413363765001,0.27326205372810364,0.6031604409217834,0.0
1659368413414272069,0.27326205372810364,0.6031604409217834,0.0
1659368413458402872,0.27326205372810364,0.6031604409217834,0.0
1659368413506824016,0.27326205372810364,0.6031604409217834,0.0
1659368413550248146,0.27326205372810364,0.6031604409217834,0.0
1659368413595260143,0.27326205372810364,0.6031604409217834,0.0
1659368413638084888,0.27326205372810364,0.6031604409217834,0.0
1659368413687235355,0.27326205372810364,0.6031604409217834,0.0
1659368413687345981,0.27326205372810364,0.6031604409217834,0.0
1659368413739946603,0.27326205372810364,0.6031604409217834,0.0
1659368413774103403,0.27326205372810364,0.6031604409217834,0.0
1659368413830251216,0.27326205372810364,0.6031604409217834,0.0
1659368413878371953,0.27326205372810364,0.6031604409217834,0.0
1659368413925725460,0.27326205372810364,0.6031604409217834,0.0
1659368413975784301,0.27326205372810364,0.6031604409217834,0.0
1659368414022435903,0.27326205372810364,0.6031604409217834,0.0
1659368414065873622,0.27326205372810364,0.6031604409217834,0.0
1659368414111482381,0.27326205372810364,0.6031604409217834,0.0
1659368414157806158,0.27326205372810364,0.6031604409217834,0.0
1659368414201764583,0.27326205372810364,0.6031604409217834,0.0
1659368414246412754,0.27326205372810364,0.6031604409217834,0.0
1659368414294365644,0.27326205372810364,0.6031604409217834,0.0
1659368414294465065,0.27326205372810364,0.6031604409217834,0.0
1659368414351360321,0.27326205372810364,0.6031604409217834,0.0
1659368414375496149,0.27326205372810364,0.6031604409217834,0.0
1659368414429481744,0.27326205372810364,0.6031604409217834,0.0
1659368414477757692,0.27326205372810364,0.6031604409217834,0.0
1659368414521656036,0.27326205372810364,0.6031604409217834,0.0
1659368414569909334,0.27326205372810364,0.6031604409217834,0.0
1659368414617939472,0.27326205372810364,0.6031604409217834,0.0
1659368414666051149,0.27326205372810364,0.6031604409217834,0.0
1659368414722333669,0.27326205372810364,0.6031604409217834,0.0
1659368414766280412,0.27326205372810364,0.6031604409217834,0.0
1659368414814417839,0.27326205372810364,0.6031604409217834,0.0
1659368414858563423,0.27326205372810364,0.6031604409217834,0.0
1659368414906247615,0.27326205372810364,0.6031604409217834,0.0
1659368414950266599,0.27326205372810364,0.6031604409217834,0.0
1659368414998466730,0.27326205372810364,0.6031604409217834,0.0
1659368415042622804,0.27326205372810364,0.6031604409217834,0.0
1659368415088501453,0.27326205372810364,0.6031604409217834,0.0
1659368415138241529,0.27326205372810364,0.6031604409217834,0.0
1659368415190823793,0.27326205372810364,0.6031604409217834,0.0
1659368415191002845,0.27326205372810364,0.6031604409217834,0.0
1659368415243912458,0.27326205372810364,0.6031604409217834,0.0
1659368415294343471,0.27326205372810364,0.6031604409217834,0.0
1659368415352622032,0.27326205372810364,0.6031604409217834,0.0
1659368415398715496,0.27326205372810364,0.6031604409217834,0.0
1659368415442695617,0.27326205372810364,0.6031604409217834,0.0
1659368415486246824,0.27326205372810364,0.6031604409217834,0.0
1659368415530314683,0.27326205372810364,0.6031604409217834,0.0
1659368415576098203,0.27326205372810364,0.6031604409217834,0.0
1659368415626249790,0.27326205372810364,0.6031604409217834,0.0
1659368415670359849,0.27326205372810364,0.6031604409217834,0.0
1659368415714566707,0.27326205372810364,0.6031604409217834,0.0
1659368415762567996,0.27326205372810364,0.6031604409217834,0.0
1659368415810246706,0.27326205372810364,0.6031604409217834,0.0
1659368415858569622,0.27326205372810364,0.6031604409217834,0.0
1659368415906486034,0.27326205372810364,0.6031604409217834,0.0
1659368415906648874,0.27326205372810364,0.6031604409217834,0.0
1659368415951088428,0.27326205372810364,0.6031604409217834,0.0
1659368415983063459,0.27326205372810364,0.6031604409217834,0.0
1659368416038957595,0.27326205372810364,0.6031604409217834,0.0
1659368416086478948,0.27326205372810364,0.6031604409217834,0.0
1659368416134079456,0.27326205372810364,0.6031604409217834,0.0
1659368416183990001,0.27326205372810364,0.6031604409217834,0.0
1659368416236282110,0.27326205372810364,0.6031604409217834,0.0
1659368416236470699,0.27326205372810364,0.6031604409217834,0.0
1659368416286578893,0.27326205372810364,0.6031604409217834,0.0
1659368416345480680,0.27326205372810364,0.6031604409217834,0.0
1659368416402008056,0.27326205372810364,0.6031604409217834,0.0
1659368416450046777,0.27326205372810364,0.6031604409217834,0.0
1659368416494598150,0.27326205372810364,0.6031604409217834,0.0
1659368416542588949,0.2734103798866272,0.6031277775764465,0.0
1659368416587818861,0.27360832691192627,0.6030852198600769,0.0
1659368416634224176,0.2739311158657074,0.6030213832855225,0.0
1659368416682417631,0.2740558683872223,0.6030001044273376,0.0
1659368416730913162,0.2743067443370819,0.6029664874076843,0.0
1659368416774445533,0.2744578421115875,0.6029512882232666,0.0
1659368416818199157,0.2744830846786499,0.6029494404792786,0.0
1659368416867227792,0.274558961391449,0.6029464602470398,0.0
1659368416867536306,0.2745083272457123,0.6029462218284607,0.0
1659368416921362400,0.2745083272457123,0.6029462218284607,0.0
1659368416950425863,0.2744579017162323,0.6029418110847473,0.0
1659368417007802009,0.2744579017162323,0.6029418110847473,0.0
1659368417050365447,0.2744079828262329,0.6029333472251892,0.0
1659368417098304510,0.2743832468986511,0.6029280424118042,0.0
1659368417146315336,0.274334192276001,0.6029155850410461,0.0
1659368417194353580,0.2743827998638153,0.6029297709465027,0.0
1659368417238275766,0.2743349075317383,0.6029134392738342,0.0
1659368417286386728,0.2743113338947296,0.602904200553894,0.0
1659368417334323406,0.27426496148109436,0.6028839349746704,0.0
1659368417378464460,0.27431049942970276,0.6029060482978821,0.0
1659368417422328233,0.27435505390167236,0.6029300689697266,0.0
1659368417467093229,0.2743115723133087,0.6029041409492493,0.0
1659368417514401674,0.27426934242248535,0.6028761863708496,0.0
1659368417562325239,0.27431023120880127,0.6029060482978821,0.0
1659368417611702442,0.27431023120880127,0.6029060482978821,0.0
1659368417654350042,0.27431023120880127,0.6029060482978821,0.0
1659368417702302932,0.2742730975151062,0.6028716564178467,0.0
1659368417750442504,0.2742730975151062,0.6028716564178467,0.0
1659368417795278549,0.2742730975151062,0.6028716564178467,0.0
1659368417838313579,0.2742730975151062,0.6028716564178467,0.0
1659368417882345438,0.2743035554885864,0.6029120683670044,0.0
1659368417930257081,0.27434712648391724,0.6029742360115051,0.0
1659368417974254131,0.274374395608902,0.6030169129371643,0.0
1659368418022282600,0.27438703179359436,0.6030388474464417,0.0
1659368418070028066,0.27438703179359436,0.6030388474464417,0.0
1659368418122816801,0.2743977904319763,0.6030617356300354,0.0
1659368418123276472,0.27440768480300903,0.6030850410461426,0.0
1659368418172941684,0.2744256556034088,0.6031323671340942,0.0
1659368418198755979,0.2744336724281311,0.6031563878059387,0.0
1659368418254574537,0.27444782853126526,0.6032049655914307,0.0
1659368418302242994,0.27445390820503235,0.6032295227050781,0.0
1659368418351612091,0.27448421716690063,0.6033783555030823,0.0
1659368418394172668,0.27447646856307983,0.6033283472061157,0.0
1659368418442670583,0.2744685411453247,0.6032528281211853,0.0
1659368418490795373,0.27446213364601135,0.603151798248291,0.0
1659368418539858102,0.2744627594947815,0.6031771302223206,0.0
1659368418582278966,0.27446359395980835,0.6031265258789062,0.0
1659368418634531021,0.27446791529655457,0.603050708770752,0.0
1659368418678430557,0.27447760105133057,0.6029499173164368,0.0
1659368418722360134,0.27447083592414856,0.6030001044273376,0.0
1659368418766474485,0.2744969129562378,0.6028504967689514,0.0
1659368418810730218,0.27450209856033325,0.6028257012367249,0.0
1659368418854259252,0.2745377719402313,0.6026780605316162,0.0
1659368418899022340,0.2745377719402313,0.6026780605316162,0.0
1659368418942913293,0.27455323934555054,0.6026298403739929,0.0
1659368418986397743,0.27454453706741333,0.6026536226272583,0.0
1659368419034055948,0.27450481057167053,0.6027467250823975,0.0
1659368419083536148,0.2744712829589844,0.6028148531913757,0.0
1659368419126719951,0.27444708347320557,0.6028593182563782,0.0
1659368419174481391,0.2744210660457611,0.6029027104377747,0.0
1659368419222208023,0.274434894323349,0.6028814911842346,0.0
1659368419266511678,0.27436184883117676,0.6029848456382751,0.0
1659368419310337066,0.2743464708328247,0.6030049324035645,0.0
1659368419355311870,0.2743787467479706,0.6029659509658813,0.0
1659368419398775815,0.2743616998195648,0.6029846668243408,0.0
1659368419443201541,0.27441540360450745,0.6029309630393982,0.0
1659368419486218452,0.2744525671005249,0.6028965711593628,0.0
1659368419534540891,0.27441415190696716,0.6029295325279236,0.0
1659368419582181453,0.2744538187980652,0.6028980612754822,0.0
1659368419630266666,0.27441295981407166,0.6029279232025146,0.0
1659368419674295663,0.27443408966064453,0.602914035320282,0.0
1659368419719251394,0.2744777500629425,0.6028884053230286,0.0
1659368419766264438,0.2744554281234741,0.6029003262519836,0.0
1659368419814322471,0.2744554281234741,0.6029003262519836,0.0
1659368419858276605,0.2744090259075165,0.6029205918312073,0.0
1659368419903142213,0.27436184883117676,0.6029389500617981,0.0
1659368419946404933,0.27436184883117676,0.6029389500617981,0.0
1659368419999124526,0.2743861675262451,0.6029319167137146,0.0
1659368420042206048,0.27450889348983765,0.6029009819030762,0.0
1659368420086563110,0.27448415756225586,0.6029062867164612,0.0
1659368420134817838,0.27453407645225525,0.6028978228569031,0.0
1659368420182348489,0.2745843231678009,0.602891743183136,0.0
1659368420227148294,0.2745843231678009,0.602891743183136,0.0
1659368420273626327,0.27460962533950806,0.6028910279273987,0.0
1659368420319147586,0.2746349275112152,0.6028912663459778,0.0
1659368420362292051,0.27460965514183044,0.6028900742530823,0.0
1659368420412467002,0.27460965514183044,0.6028900742530823,0.0
1659368420462862014,0.27458456158638,0.6028866767883301,0.0
1659368420510599613,0.27458456158638,0.6028866767883301,0.0
1659368420558682203,0.27448564767837524,0.6028650999069214,0.0
1659368420606872797,0.2745101749897003,0.6028713583946228,0.0
1659368420654623508,0.27448591589927673,0.602864146232605,0.0
1659368420654717922,0.27431821823120117,0.6028069853782654,0.0
1659368420703197956,0.27429458498954773,0.6027979254722595,0.0
1659368420750451564,0.27415552735328674,0.6027368903160095,0.0
1659368420808642625,0.2741781771183014,0.6027481555938721,0.0
1659368420858397245,0.27415597438812256,0.6027359962463379,0.0
1659368420902268409,0.2741994857788086,0.6027618646621704,0.0
1659368420946398973,0.27422067523002625,0.6027756929397583,0.0
1659368420998372793,0.2743031084537506,0.6028344631195068,0.0
1659368421042645931,0.2743031084537506,0.6028344631195068,0.0
1659368421096237659,0.27426382899284363,0.6028025150299072,0.0
1659368421096632003,0.2743210792541504,0.6028524041175842,0.0
1659368421146078348,0.2743210792541504,0.6028524041175842,0.0
1659368421168169021,0.27433887124061584,0.6028704047203064,0.0
1659368421225204944,0.2744070887565613,0.6029452085494995,0.0
1659368421274359703,0.2744559347629547,0.6030033230781555,0.0
1659368421322538614,0.2744559347629547,0.6030033230781555,0.0
1659368421366279602,0.2744850814342499,0.6030446887016296,0.0
1659368421414681673,0.2744986116886139,0.603066086769104,0.0
1659368421458347797,0.2744859755039215,0.6030441522598267,0.0
1659368421506265401,0.2744859755039215,0.6030441522598267,0.0
1659368421551089048,0.2744967043399811,0.6030671000480652,0.0
1659368421604411125,0.2744967043399811,0.6030671000480652,0.0
1659368421654609441,0.2744967043399811,0.6030671000480652,0.0
1659368421698411703,0.2744733691215515,0.6029948592185974,0.0
1659368421742232799,0.2744532823562622,0.6029216051101685,0.0
1659368421786479711,0.27446454763412476,0.6029709577560425,0.0
1659368421834475994,0.274460107088089,0.6029460430145264,0.0
1659368421883147716,0.27446338534355164,0.6029711365699768,0.0
1659368421926193475,0.2744588255882263,0.6029207110404968,0.0
1659368421970252752,0.2744576036930084,0.6028954386711121,0.0
1659368422018219709,0.2744576036930084,0.6028954386711121,0.0
1659368422062393426,0.27445870637893677,0.6028701663017273,0.0
1659368422106203317,0.2744608521461487,0.6028449535369873,0.0
1659368422151961565,0.27444806694984436,0.6029453873634338,0.0
1659368422210029840,0.27446532249450684,0.6028456091880798,0.0
1659368422260345697,0.2744545042514801,0.6028950810432434,0.0
1659368422305890321,0.27448657155036926,0.6027726531028748,0.0
1659368422353453874,0.27447178959846497,0.6028210520744324,0.0
1659368422422975301,0.27449750900268555,0.6027495861053467,0.0
1659368422477588891,0.27446824312210083,0.6028196811676025,0.0
1659368422477733373,0.27446824312210083,0.6028196811676025,0.0
1659368422565508842,0.27445653080940247,0.6028420925140381,0.0
1659368422565612792,0.2744438648223877,0.6028640270233154,0.0
1659368422648115396,0.2744031548500061,0.602928102016449,0.0
1659368422648234128,0.27435994148254395,0.6029905080795288,0.0
1659368422693713665,0.27431437373161316,0.6030512452125549,0.0
1659368422705873966,0.2743302583694458,0.603031575679779,0.0
1659368422760746955,0.27431368827819824,0.603050708770752,0.0
1659368422810214996,0.27431368827819824,0.603050708770752,0.0
1659368422858551740,0.2742956280708313,0.6030684113502502,0.0
1659368422903420448,0.274352490901947,0.6030181050300598,0.0
1659368422959211111,0.274352490901947,0.6030181050300598,0.0
1659368423005957841,0.2743729054927826,0.6030031442642212,0.0
1659368423054589986,0.27441489696502686,0.6029748916625977,0.0
1659368423098298072,0.2745225429534912,0.6029083728790283,0.0
1659368423142437934,0.27461060881614685,0.6028584241867065,0.0
1659368423186247825,0.2747008502483368,0.6028125286102295,0.0
1659368423236997604,0.2746777832508087,0.6028229594230652,0.0
1659368423282491445,0.2747716009616852,0.6027848720550537,0.0
1659368423326637506,0.27472397685050964,0.602802038192749,0.0
1659368423374054431,0.27482062578201294,0.6027719378471375,0.0
1659368423418843746,0.27472272515296936,0.6027977466583252,0.0
1659368423466153383,0.27472272515296936,0.6027977466583252,0.0
1659368423514616012,0.27474766969680786,0.6027934551239014,0.0
1659368423558141946,0.2747226059436798,0.6027969121932983,0.0
1659368423608279466,0.2747226059436798,0.6027969121932983,0.0
1659368423658471584,0.2747226059436798,0.6027969121932983,0.0
1659368423706602334,0.2747226059436798,0.6027969121932983,0.0
1659368423706717967,0.2746213972568512,0.6027992367744446,0.0
1659368423754290580,0.27464669942855835,0.6027992367744446,0.0
1659368423779894828,0.2746213972568512,0.6027986407279968,0.0
1659368423836227416,0.2746719717979431,0.6028009653091431,0.0
1659368423887675285,0.27462148666381836,0.6027972102165222,0.0
1659368423943236827,0.27459630370140076,0.6027945876121521,0.0
1659368423986385345,0.27457118034362793,0.602791428565979,0.0
1659368424034544229,0.27449607849121094,0.6027801632881165,0.0
1659368424078384160,0.27452102303504944,0.6027844548225403,0.0
1659368424126515388,0.274471253156662,0.6027752161026001,0.0
1659368424170482397,0.274471253156662,0.6027752161026001,0.0
1659368424215063810,0.2744216024875641,0.6027653217315674,0.0
1659368424258107900,0.2744216024875641,0.6027653217315674,0.0
1659368424302610874,0.2744216024875641,0.6027653217315674,0.0
1659368424346259593,0.2744216024875641,0.6027653217315674,0.0
1659368424395222902,0.2744216024875641,0.6027653217315674,0.0
1659368424442138433,0.27439677715301514,0.6027603149414062,0.0
1659368424486172914,0.2744216024875641,0.6027653217315674,0.0
1659368424530230283,0.2744216024875641,0.6027653217315674,0.0
1659368424574954748,0.27439677715301514,0.6027603149414062,0.0
1659368424618274927,0.27439677715301514,0.6027603149414062,0.0
1659368424662456512,0.2744216024875641,0.6027653217315674,0.0
1659368424710298299,0.27439677715301514,0.6027603149414062,0.0
1659368424758258581,0.27439677715301514,0.6027603149414062,0.0
1659368424802178621,0.27439677715301514,0.6027603149414062,0.0
1659368424846412658,0.27439677715301514,0.6027603149414062,0.0
1659368424890305280,0.27439677715301514,0.6027603149414062,0.0
1659368424934492349,0.27439677715301514,0.6027603149414062,0.0
1659368424978444337,0.27439677715301514,0.6027603149414062,0.0
1659368425026330471,0.27439677715301514,0.6027603149414062,0.0
1659368425070212364,0.27439677715301514,0.6027603149414062,0.0
1659368425114809274,0.27439677715301514,0.6027603149414062,0.0
1659368425158294677,0.27439677715301514,0.6027603149414062,0.0
1659368425202569723,0.2744216024875641,0.6027653217315674,0.0
1659368425250190258,0.27439677715301514,0.6027603149414062,0.0
1659368425294965744,0.27439677715301514,0.6027603149414062,0.0
1659368425338160276,0.27439677715301514,0.6027603149414062,0.0
1659368425382425785,0.27439677715301514,0.6027603149414062,0.0
1659368425426298379,0.27439677715301514,0.6027603149414062,0.0
1659368425474536895,0.27439677715301514,0.6027603149414062,0.0
1659368425522137403,0.27439677715301514,0.6027603149414062,0.0
1659368425570601701,0.27439677715301514,0.6027603149414062,0.0
1659368425614594697,0.27439677715301514,0.6027603149414062,0.0
1659368425659482717,0.27439677715301514,0.6027603149414062,0.0
1659368425659692049,0.27439677715301514,0.6027603149414062,0.0
1659368425712330341,0.27439677715301514,0.6027603149414062,0.0
1659368425767521619,0.27439677715301514,0.6027603149414062,0.0
1659368425824107170,0.27439677715301514,0.6027603149414062,0.0
1659368425870315074,0.27439677715301514,0.6027603149414062,0.0
1659368425918196916,0.27439677715301514,0.6027603149414062,0.0
1659368425962401866,0.27439677715301514,0.6027603149414062,0.0
1659368426009282827,0.27439677715301514,0.6027603149414062,0.0
1659368426058514356,0.27439677715301514,0.6027603149414062,0.0
1659368426109121799,0.27439677715301514,0.6027603149414062,0.0
1659368426154340982,0.27439677715301514,0.6027603149414062,0.0
1659368426202172040,0.27439677715301514,0.6027603149414062,0.0
1659368426250633239,0.27439677715301514,0.6027603149414062,0.0
1659368426294348716,0.27439677715301514,0.6027603149414062,0.0
1659368426342428445,0.27439677715301514,0.6027603149414062,0.0
1659368426386327028,0.27439677715301514,0.6027603149414062,0.0
1659368426431123018,0.27439677715301514,0.6027603149414062,0.0
1659368426478003740,0.27439677715301514,0.6027603149414062,0.0
1659368426526373147,0.27439677715301514,0.6027603149414062,0.0
1659368426570285797,0.27439677715301514,0.6027603149414062,0.0
1659368426616991996,0.27439677715301514,0.6027603149414062,0.0
1659368426666705608,0.27439677715301514,0.6027603149414062,0.0
1659368426666832447,0.27439677715301514,0.6027603149414062,0.0
1659368426718971729,0.27439677715301514,0.6027603149414062,0.0
1659368426770396709,0.27439677715301514,0.6027603149414062,0.0
1659368426820961713,0.27439677715301514,0.6027603149414062,0.0
1659368426866355657,0.27439677715301514,0.6027603149414062,0.0
1659368426910353183,0.27439677715301514,0.6027603149414062,0.0
1659368426954314947,0.27439677715301514,0.6027603149414062,0.0
1659368427002564668,0.27439677715301514,0.6027603149414062,0.0
1659368427046162843,0.27439677715301514,0.6027603149414062,0.0
1659368427090538501,0.27439677715301514,0.6027603149414062,0.0
1659368427138112783,0.27439677715301514,0.6027603149414062,0.0
1659368427182943820,0.27439677715301514,0.6027603149414062,0.0
1659368427226314783,0.27439677715301514,0.6027603149414062,0.0
1659368427274272680,0.27439677715301514,0.6027603149414062,0.0
1659368427322306394,0.27439677715301514,0.6027603149414062,0.0
1659368427368377447,0.27439677715301514,0.6027603149414062,0.0
1659368427421044826,0.27439677715301514,0.6027603149414062,0.0
1659368427466211557,0.27439677715301514,0.6027603149414062,0.0
1659368427514255523,0.27439677715301514,0.6027603149414062,0.0
1659368427558897495,0.27439677715301514,0.6027603149414062,0.0
1659368427602280855,0.27439677715301514,0.6027603149414062,0.0
1659368427650379180,0.27439677715301514,0.6027603149414062,0.0
1659368427694134950,0.27439677715301514,0.6027603149414062,0.0
1659368427738643646,0.27439677715301514,0.6027603149414062,0.0
1659368427786191463,0.27439677715301514,0.6027603149414062,0.0
1659368427834668397,0.27439677715301514,0.6027603149414062,0.0
1659368427878228425,0.27439677715301514,0.6027603149414062,0.0
1659368427922302484,0.27439677715301514,0.6027603149414062,0.0
1659368427966209173,0.27439677715301514,0.6027603149414062,0.0
1659368428014897346,0.27439677715301514,0.6027603149414062,0.0
1659368428014973878,0.27439677715301514,0.6027603149414062,0.0
1659368428063422918,0.27439677715301514,0.6027603149414062,0.0
1659368428091425895,0.27439677715301514,0.6027603149414062,0.0
1659368428146959066,0.27439677715301514,0.6027603149414062,0.0
1659368428194438934,0.27439677715301514,0.6027603149414062,0.0
1659368428264072895,0.27439677715301514,0.6027603149414062,0.0
1659368428310346603,0.27439677715301514,0.6027603149414062,0.0
1659368428354156732,0.27439677715301514,0.6027603149414062,0.0
1659368428402225255,0.27439677715301514,0.6027603149414062,0.0
1659368428450185298,0.27439677715301514,0.6027603149414062,0.0
1659368428494426727,0.27439677715301514,0.6027603149414062,0.0
1659368428542178153,0.27439677715301514,0.6027603149414062,0.0
1659368428586304664,0.27439677715301514,0.6027603149414062,0.0
1659368428634062767,0.27439677715301514,0.6027603149414062,0.0
1659368428678338766,0.27439677715301514,0.6027603149414062,0.0
1659368428722047090,0.27439677715301514,0.6027603149414062,0.0
1659368428773482322,0.27439677715301514,0.6027603149414062,0.0
1659368428825761556,0.27439677715301514,0.6027603149414062,0.0
1659368428825875043,0.27439677715301514,0.6027603149414062,0.0
1659368428877528429,0.27439677715301514,0.6027603149414062,0.0
1659368428900494337,0.27439677715301514,0.6027603149414062,0.0
1659368428955450057,0.27439677715301514,0.6027603149414062,0.0
1659368428998268842,0.27439677715301514,0.6027603149414062,0.0
1659368429047539710,0.27439677715301514,0.6027603149414062,0.0
1659368429090636730,0.27439677715301514,0.6027603149414062,0.0
1659368429139059543,0.27439677715301514,0.6027603149414062,0.0
1659368429186119318,0.27439677715301514,0.6027603149414062,0.0
1659368429231608629,0.27439677715301514,0.6027603149414062,0.0
1659368429274823188,0.27439677715301514,0.6027603149414062,0.0
1659368429329449653,0.27439677715301514,0.6027603149414062,0.0
1659368429378312349,0.27439677715301514,0.6027603149414062,0.0
1659368429426762819,0.27439677715301514,0.6027603149414062,0.0
1659368429470444202,0.27439677715301514,0.6027603149414062,0.0
1659368429514403581,0.27439677715301514,0.6027603149414062,0.0
1659368429565754175,0.27439677715301514,0.6027603149414062,0.0
1659368429614207267,0.27439677715301514,0.6027603149414062,0.0
1659368429658253192,0.27439677715301514,0.6027603149414062,0.0
1659368429706235647,0.27439677715301514,0.6027603149414062,0.0
1659368429750433206,0.27439677715301514,0.6027603149414062,0.0
1659368429798217535,0.27439677715301514,0.6027603149414062,0.0
1659368429846482038,0.27439677715301514,0.6027603149414062,0.0
1659368429892508745,0.27439677715301514,0.6027603149414062,0.0
1659368429942766904,0.27439677715301514,0.6027603149414062,0.0
1659368429986210107,0.27439677715301514,0.6027603149414062,0.0
1659368430034846067,0.27439677715301514,0.6027603149414062,0.0
1659368430083770275,0.27439677715301514,0.6027603149414062,0.0
1659368430083877563,0.27439677715301514,0.6027603149414062,0.0
1659368430133504152,0.27439677715301514,0.6027603149414062,0.0
1659368430161659955,0.27439677715301514,0.6027603149414062,0.0
1659368430216329813,0.27439677715301514,0.6027603149414062,0.0
1659368430267823457,0.27439677715301514,0.6027603149414062,0.0
1659368430323364019,0.27439677715301514,0.6027603149414062,0.0
1659368430366328716,0.27439677715301514,0.6027603149414062,0.0
1659368430415709972,0.27439677715301514,0.6027603149414062,0.0
1659368430462143421,0.27439677715301514,0.6027603149414062,0.0
1659368430506896018,0.27439677715301514,0.6027603149414062,0.0
1659368430550296068,0.27439677715301514,0.6027603149414062,0.0
1659368430595065355,0.27439677715301514,0.6027603149414062,0.0
1659368430638070106,0.27439677715301514,0.6027603149414062,0.0
1659368430682193756,0.27439677715301514,0.6027603149414062,0.0
1659368430726050376,0.27439677715301514,0.6027603149414062,0.0
1659368430771665096,0.27439677715301514,0.6027603149414062,0.0
1659368430814213037,0.27439677715301514,0.6027603149414062,0.0
1659368430873895883,0.27439677715301514,0.6027603149414062,0.0
1659368430918000936,0.27439677715301514,0.6027603149414062,0.0
1659368430963386297,0.27439677715301514,0.6027603149414062,0.0
1659368431006319046,0.27439677715301514,0.6027603149414062,0.0
1659368431054976940,0.27439677715301514,0.6027603149414062,0.0
1659368431098261833,0.27439677715301514,0.6027603149414062,0.0
1659368431142302989,0.27439677715301514,0.6027603149414062,0.0
1659368431190315961,0.27439677715301514,0.6027603149414062,0.0
1659368431238399744,0.27439677715301514,0.6027603149414062,0.0
1659368431282357931,0.27439677715301514,0.6027603149414062,0.0
1659368431326426506,0.27439677715301514,0.6027603149414062,0.0
1659368431370188474,0.27439677715301514,0.6027603149414062,0.0
1659368431418373346,0.27439677715301514,0.6027603149414062,0.0
1659368431465737581,0.27439677715301514,0.6027603149414062,0.0
1659368431511095285,0.27439677715301514,0.6027603149414062,0.0
1659368431511696815,0.27439677715301514,0.6027603149414062,0.0
1659368431563299894,0.27439677715301514,0.6027603149414062,0.0
1659368431609199285,0.27439677715301514,0.6027603149414062,0.0
1659368431664371728,0.27439677715301514,0.6027603149414062,0.0
1659368431713865518,0.27439677715301514,0.6027603149414062,0.0
1659368431757738590,0.27439677715301514,0.6027603149414062,0.0
1659368431805884599,0.27439677715301514,0.6027603149414062,0.0
1659368431849895238,0.27439677715301514,0.6027603149414062,0.0
1659368431893811941,0.27439677715301514,0.6027603149414062,0.0
1659368431937779426,0.27439677715301514,0.6027603149414062,0.0
1659368431981760978,0.27439677715301514,0.6027603149414062,0.0
1659368432030000686,0.27439677715301514,0.6027603149414062,0.0
1659368432074029684,0.27439677715301514,0.6027603149414062,0.0
1659368432121820926,0.27439677715301514,0.6027603149414062,0.0
1659368432165930747,0.27439677715301514,0.6027603149414062,0.0
1659368432213673114,0.27439677715301514,0.6027603149414062,0.0
1659368432257789373,0.27439677715301514,0.6027603149414062,0.0
1659368432301797151,0.27439677715301514,0.6027603149414062,0.0
1659368432349898815,0.27439677715301514,0.6027603149414062,0.0
1659368432397990942,0.27439677715301514,0.6027603149414062,0.0
1659368432445828199,0.27439677715301514,0.6027603149414062,0.0
1659368432445927858,0.27439677715301514,0.6027603149414062,0.0
1659368432491481781,0.27439677715301514,0.6027603149414062,0.0
1659368432514914274,0.27439677715301514,0.6027603149414062,0.0
1659368432572317600,0.27439677715301514,0.6027603149414062,0.0
1659368432618529081,0.27439677715301514,0.6027603149414062,0.0
1659368432666231870,0.27439677715301514,0.6027603149414062,0.0
1659368432710026979,0.27439677715301514,0.6027603149414062,0.0
1659368432758334636,0.27439677715301514,0.6027603149414062,0.0
1659368432806061506,0.27439677715301514,0.6027603149414062,0.0
1659368432850396156,0.27439677715301514,0.6027603149414062,0.0
1659368432898234844,0.27439677715301514,0.6027603149414062,0.0
1659368432942666769,0.27439677715301514,0.6027603149414062,0.0
1659368432942767143,0.27439677715301514,0.6027603149414062,0.0
1659368432998096704,0.27439677715301514,0.6027603149414062,0.0
1659368433027458667,0.27439677715301514,0.6027603149414062,0.0
1659368433082296609,0.27439677715301514,0.6027603149414062,0.0
1659368433133416891,0.27439677715301514,0.6027603149414062,0.0
1659368433189247131,0.27439677715301514,0.6027603149414062,0.0
1659368433240993738,0.27439677715301514,0.6027603149414062,0.0
1659368433286086797,0.27439677715301514,0.6027603149414062,0.0
1659368433330447673,0.27439677715301514,0.6027603149414062,0.0
1659368433374287605,0.27439677715301514,0.6027603149414062,0.0
1659368433456534862,0.27439677715301514,0.6027603149414062,0.0
1659368433536202907,0.27439677715301514,0.6027603149414062,0.0
1659368433536321640,0.27439677715301514,0.6027603149414062,0.0
1659368433585076570,0.27439677715301514,0.6027603149414062,0.0
1659368433585217714,0.27439677715301514,0.6027603149414062,0.0
1659368433634432792,0.27439677715301514,0.6027603149414062,0.0
1659368433679603815,0.27439677715301514,0.6027603149414062,0.0
1659368433735039472,0.27439677715301514,0.6027603149414062,0.0
1659368433778522729,0.2744215726852417,0.6027653813362122,0.0
1659368433826557636,0.2744463384151459,0.6027706265449524,0.0
1659368433874450683,0.2744463384151459,0.6027706265449524,0.0
1659368433918779373,0.27447083592414856,0.6027770042419434,0.0
1659368433962382316,0.27442243695259094,0.6027622222900391,0.0
1659368434011584997,0.27435094118118286,0.6027365922927856,0.0
1659368434054511785,0.27435094118118286,0.6027365922927856,0.0
1659368434102194547,0.27435094118118286,0.6027365922927856,0.0
1659368434147087574,0.274328351020813,0.6027252078056335,0.0
1659368434190444707,0.274328351020813,0.6027252078056335,0.0
1659368434236770868,0.2743498980998993,0.6027384996414185,0.0
1659368434287681341,0.2743918299674988,0.6027668118476868,0.0
1659368434335033178,0.27435100078582764,0.6027368903160095,0.0
1659368434382498264,0.27439063787460327,0.6027683615684509,0.0
1659368434426331996,0.27440983057022095,0.6027848720550537,0.0
1659368434470394611,0.2744654715061188,0.602836549282074,0.0
1659368434518233299,0.2744477689266205,0.6028184294700623,0.0
1659368434566124200,0.27448126673698425,0.6028563976287842,0.0
1659368434614646434,0.27446532249450684,0.6028367280960083,0.0
1659368434658322334,0.27449554204940796,0.6028773188591003,0.0
1659368434706370353,0.27452409267425537,0.6029191017150879,0.0
1659368434751491308,0.2745106816291809,0.6028976440429688,0.0
1659368434798206090,0.2745353579521179,0.6029418110847473,0.0
1659368434845317840,0.27452409267425537,0.6029191613197327,0.0
1659368434890340328,0.27449309825897217,0.6028498411178589,0.0
1659368434934471845,0.27448368072509766,0.6028263568878174,0.0
1659368434979017734,0.27448368072509766,0.6028263568878174,0.0
1659368435022337198,0.27446913719177246,0.6027778387069702,0.0
1659368435066511154,0.27445077896118164,0.6027041673660278,0.0
1659368435115992307,0.27445077896118164,0.6027041673660278,0.0
1659368435162937164,0.2744468152523041,0.6026791930198669,0.0
