%time,field.x,field.y,field.z
1981327000000,-0.0010700795157072302,0.0051169288639332485,-0.0010027208848141025
1981360000000,-0.0010704295237143812,0.0051177849186789465,-0.001002720913610082
1981393000000,-0.0010707798787557635,0.005118640924391156,-0.0010027209424456895
1981427000000,-0.0010711412139684717,0.005119522818314663,-0.0010027209721966482
1981461000000,-0.001071492274713189,0.0051203787242671776,-0.0010027210011129446
1981493000000,-0.0010718436835950003,0.005121234580982273,-0.0010027210300690807
1981525000000,-0.0010722061057375845,0.005122116321179877,-0.0010027210599443878
1981560000000,-0.001072558222565901,0.005122972077720198,-0.001002721088981584
1981593000000,-0.0010729106886381247,0.00512382778481819,-0.00100272111805879
1981634000000,-0.0010732742011662025,0.005124709370650117,-0.0010027211480590492
1981678000000,-0.001073627377436109,0.00512556497715631,-0.0010027211772177004
1981723000000,-0.0010739809040607009,0.005126420534014145,-0.001002721206416559
1981765000000,-0.0010743455104422466,0.00512730196483756,-0.0010027212365423498
1981765000000,-0.001074699749523754,0.0051281574206845865,-0.0010027212658230249
1981795000000,-0.0010750543400746878,0.005129012826676332,-0.0010027212951440982
1981833000000,-0.0010754200438302238,0.005129894101844128,-0.001002721325397065
1981868000000,-0.001075775349909983,0.005130749406359356,-0.0010027213548060403
1981912000000,-0.0010761310096115409,0.005131604660733197,-0.001002721384256628
1981954000000,-0.0010764978171296496,0.005132485779386575,-0.0010027214146422665
1981998000000,-0.0010768541959325344,0.005133340931739629,-0.0010027214441756076
1981998000000,-0.0010772109294831782,0.0051341960337388136,-0.0010027214737497875
1982047000000,-0.0010775788445704978,0.005135076995180841,-0.001002721504262935
1982059000000,-0.0010779362995129854,0.005135931994733237,-0.001002721533920243
1982103000000,-0.001078294110333419,0.005136786943721458,-0.0010027215636185562
1982146000000,-0.001078663136518573,0.005137667747295375,-0.0010027215942597888
1982190000000,-0.0010790216710295994,0.005138522593408728,-0.0010027216240415665
1982231000000,-0.001079380562552826,0.005139377388746433,-0.001002721653864544
1982232000000,-0.0010797507033770875,0.005140258033792478,-0.001002721684634427
1982267000000,-0.0010801103208979103,0.005141112725825121,-0.0010027217145412541
1982294000000,-0.00108047029656925,0.005141967366869834,-0.0010027217444894716
1982333000000,-0.0010808415555866157,0.005142847852724758,-0.0010027217753885743
1982377000000,-0.0010812022595708412,0.005143702390032124,-0.0010027218054210023
1982422000000,-0.0010815633228479903,0.005144556876138255,-0.0010027218354950185
1982466000000,-0.0010819357036252093,0.005145437202135884,-0.0010027218665239236
1982466000000,-0.0010822974975388464,0.005146291584070263,-0.0010027218966825457
1982513000000,-0.001082659651891922,0.005147145914588894,-0.0010027219268829365
1982527000000,-0.0010830331580085522,0.005148026080059665,-0.0010027219580422513
1982573000000,-0.0010833960453300526,0.0051488803059701604,-0.0010027219883276296
1982615000000,-0.0010837592942416225,0.005149734480249435,-0.0010027220186549918
1982656000000,-0.0010841339292900886,0.0051506144845205205,-0.0010027220499453093
1982680000000,-0.0010844979135104082,0.005151468553753107,-0.0010027220803580476
1982734000000,-0.0010848622604755645,0.005152322571137863,-0.0010027221108129536
1982734000000,-0.0010852380280611997,0.005153202413533319,-0.0010027221422348846
1982782000000,-0.0010856031126838476,0.005154056325430741,-0.0010027221727755727
1982793000000,-0.0010859685612102541,0.0051549101852628185,-0.0010027222033586122
1982833000000,-0.0010863454649513628,0.005155789865103245,-0.0010027222349127743
1982876000000,-0.0010867116534924483,0.005156643619005071,-0.0010027222655820053
1982919000000,-0.0010870782071003742,0.005157497320622914,-0.0010027222962937857
1982964000000,-0.0010874562506282739,0.005158376837225714,-0.0010027223279808206
1982965000000,-0.0010878235466165401,0.005159230432468378,-0.0010027223587791984
1982993000000,-0.0010881912088389302,0.005160083975207376,-0.00100272238962033
1983027000000,-0.0010885703957980008,0.005160963327886643,-0.0010027224214408277
1983076000000,-0.0006654625390133629,0.005193888240867991,-0.0010018834711560884
1983120000000,0.0005806628834063286,0.005299128053750819,-0.0010019344838112822
1983172000000,0.002728294637039134,0.005484693546584836,-0.0010020389811434653
1983172000000,0.005645818203036256,0.005744583891332952,-0.0010021664149047864
1983220000000,0.009362813336723187,0.006086827864200553,-0.0010023387808932374
1983229000000,0.013977274623585825,0.006524454181880317,-0.0010025631782344148
1983270000000,0.019126523235981248,0.007021461865685593,-0.0010027987428179765
1983315000000,0.0248009113950735,0.007568286873686105,-0.0010025945938409997
1983358000000,0.030778294816723048,0.008137429823265114,-0.0010024945843958022
1983379000000,0.036606504383198596,0.008684362207281048,-0.0010029487268893612
1983403000000,0.042565390931527725,0.009241882168534204,-0.0010027151851772532
1983447000000,0.04890739660954041,0.009858901753058045,-0.0010019827232073258
1983491000000,0.05528260197889067,0.010529998120344915,-0.0010026935861474524
1983535000000,0.06181223262591911,0.011287724615741046,-0.0010027228237620492
1983536000000,0.06860129833909365,0.01215528258571838,-0.0010030683486110178
1983579000000,0.07534274485846724,0.013102395980917551,-0.0010029210007350756
1983593000000,0.08233557452363569,0.014206571750503494,-0.001002870981155677
1983633000000,0.08952596293403306,0.015483333107286282,-0.0010027322649339074
1983677000000,0.09638015632364065,0.01683007814041583,-0.0010020690364461564
1983720000000,0.10269084930191412,0.01816018405214676,-0.001001937487685612
1983765000000,0.10905225911394988,0.01959908600241886,-0.0010023424667297345
1983765000000,0.11549958222645844,0.021162251521762515,-0.0010017491462998677
1983809000000,0.12210541958769934,0.022842493889573153,-0.001001859452820844
1983827000000,0.12902898008839342,0.024686401698241024,-0.001002206355503861
1983867000000,0.13543773940754647,0.026485055420599694,-0.0010025550399273275
1983915000000,0.14171467241712496,0.02834557591388705,-0.0010029996685576095
1983960000000,0.14828916132017708,0.030397215999751055,-0.0010035719935738915
1983960000000,0.15489128004112163,0.032565960291292266,-0.0010023730470955922
1984007000000,0.16161487805993174,0.034900835932601015,-0.0010036624671251396
1984027000000,0.1684619208898356,0.03741941807210342,-0.0010028115588019589
1984063000000,0.17494379626056974,0.039935958268576675,-0.0010021005692930351
1984110000000,0.18143334579717424,0.04257468663302916,-0.0010025144263356954
1984152000000,0.18818554708160945,0.04543783538932319,-0.001003763327557191
1984196000000,0.19453992645252927,0.04824370010363899,-0.0010027191747891614
1984196000000,0.20076640006330426,0.05110716221560635,-0.0010028742513371047
1984241000000,0.2070180408788211,0.05408566337026844,-0.001002877008060895
1984261000000,0.21272556562844222,0.05689293124416106,-0.0010027134186716934
1984301000000,0.21831383481592867,0.05972924398842563,-0.001002619184248845
1984343000000,0.2240444934540746,0.0627181073671214,-0.001002422559451266
1984391000000,0.22991974039152155,0.06586624900500362,-0.00100197389739113
1984430000000,0.2361779615209408,0.06931095196887589,-0.0010025509926661694
1984430000000,0.2426033326558828,0.0729484095300749,-0.0010029656977286125
1984474000000,0.2488236120872666,0.0765600728804826,-0.0010035218867608837
1984493000000,0.2550184446770263,0.0802311621243767,-0.0010040627451687774
1984534000000,0.26136585530128364,0.08407112695760906,-0.0010044766780901264
1984576000000,0.26736625760969224,0.08777703252340784,-0.0010027939621279729
1984596000000,0.27319480532294893,0.09144452761838326,-0.0010035207697714696
1984637000000,0.27906455982852224,0.09520507884828396,-0.0010036921972735868
1984681000000,0.28453909431173874,0.0988050114933165,-0.0010032987608224464
1984729000000,0.2897657052850474,0.10229369738384882,-0.0010038650049008536
1984729000000,0.2951158119056241,0.10592404293591613,-0.001003465293119253
1984773000000,0.3005218377228218,0.10964958398019284,-0.0010015087241786805
1984793000000,0.30634496919627763,0.11372532898906017,-0.0010025530984365712
1984833000000,0.31238284088683776,0.11801689118052634,-0.0010023588102718896
1984879000000,0.3182427258229262,0.12223572584978523,-0.0010024285872213753
1984918000000,0.3240973671079917,0.12648375020760286,-0.0010026088750724436
1984950000000,0.33011796465936744,0.1308869942383825,-0.001003033942603624
1984990000000,0.3356838421487627,0.13499200037628648,-0.0010036900022264948
1985036000000,0.3411592125350811,0.13906559607184044,-0.0010041794168356225
1985036000000,0.34679161088042565,0.14327533325192995,-0.0010045059764349322
1985081000000,0.3523269153377154,0.14742878785350647,-0.0010037882520725558
1985093000000,0.3578936649213452,0.15162213343540554,-0.0010022905185837136
1985135000000,0.36364557503140005,0.15597029386036096,-0.0010025114658041914
1985179000000,0.3693051523131747,0.16026227173409946,-0.0010039401060663034
1985221000000,0.37502469239409386,0.16464017628785385,-0.0010037952038959644
1985267000000,0.38089955036082956,0.1691754304824727,-0.0010032495904572503
1985267000000,0.3866050902784445,0.17360927571344384,-0.0010030002708838227
1985309000000,0.3923202643412579,0.17805910701578237,-0.0010026258944343183
1985327000000,0.39820908348588435,0.18265372915597028,-0.001002506789464109
1985369000000,0.4036518901576459,0.1869153839340516,-0.001002522107362236
1985413000000,0.409005837925209,0.19113566451903252,-0.001002895804953302
1985451000000,0.4145379497946915,0.1954976424675754,-0.0010033807954442954
1985498000000,0.41987428088029594,0.19971434291065918,-0.0010038453349665924
1985498000000,0.4251963337606327,0.20394213806262038,-0.001004244774167204
1985541000000,0.43066726555414914,0.20830906521351933,-0.0010042492771514082
1985560000000,0.43602793043990556,0.21260971328403636,-0.0010026233786515105
1985601000000,0.44147750455872853,0.2169806668338327,-0.0010027278414808972
1985646000000,0.4471559034668245,0.22153583979256355,-0.0010029361485407208
1985686000000,0.45268373179875515,0.2259861553681599,-0.0010024938029415675
1985733000000,0.45830052787182946,0.23051524985649696,-0.0010035542468996468
1985733000000,0.4641097904849911,0.23520032936893823,-0.0010031170396977117
1985777000000,0.46949215029426855,0.23954065865762225,-0.001002882740997857
1985793000000,0.47479611512992614,0.24381778291499265,-0.0010026058068933058
1985834000000,0.48026531020113405,0.24822737979383472,-0.0010025428078444427
1985882000000,0.48575584536994576,0.25265986418993913,-0.0010023610366666144
1985925000000,0.49136304719619706,0.2572240120528586,-0.001002980346865738
1985966000000,0.4971210749966502,0.26195688574527204,-0.0010034846059060257
1985966000000,0.5026957579187862,0.2665805062090205,-0.0010039594946133906
1986011000000,0.5082512973265817,0.27122363883621275,-0.0010039890063242643
1986026000000,0.5137954756058754,0.27590527750932253,-0.0010021904757261321
1986068000000,0.5188904518593395,0.2802643595701194,-0.001004537349780614
1986110000000,0.5237670215465142,0.28450053016240034,-0.0010039074058377263
1986135000000,0.5287222896566878,0.28885019458056027,-0.0010020936046491458
1986173000000,0.5336200606060759,0.293202200017985,-0.0010011030729380685
1986215000000,0.5386792127789436,0.2977777275104698,-0.001001732872349819
1986262000000,0.5440398242965568,0.302702446809424,-0.0010025687646417966
1986262000000,0.5493297273434633,0.3076119371307616,-0.0010028466619813221
1986307000000,0.5546081114952043,0.31254353445028976,-0.0010026496721256863
1986327000000,0.5600332735895103,0.31764798699897695,-0.0010026171741671676
1986368000000,0.5649620897478254,0.32231969619589884,-0.0010022935643414117
1986406000000,0.5698423661865222,0.3269709190794074,-0.0010031603744124762
1986446000000,0.5749123647128813,0.33182716468735013,-0.001003494494003783
1986486000000,0.5799515207843539,0.33667561759785136,-0.0010032324238487024
1986527000000,0.5850238132216253,0.34157456115783813,-0.0010034103470724504
1986527000000,0.5902841510400484,0.3466631409330382,-0.0010029903955584042
1986571000000,0.5954464325479728,0.35166028878179995,-0.001004290730886051
1986593000000,0.6006330625444356,0.35670512424230316,-0.0010038242766180448
1986634000000,0.6059420812281718,0.3618945725037877,-0.0010033604113187378
1986678000000,0.6108423023890776,0.3666997037183805,-0.0010035522709740674
1986722000000,0.6156150969123398,0.37137007670799216,-0.0010037603717593727
1986767000000,0.6206081997180772,0.37627531390766017,-0.0010032198405710673
1986767000000,0.6256075062597511,0.3812147167641936,-0.0010029470884957425
1986810000000,0.6306922353666308,0.38630357127763904,-0.0010027641628607316
1986827000000,0.6358969227492056,0.39158813015128924,-0.001002820259459452
1986870000000,0.6406739989917892,0.396510246740212,-0.0010022274254786225
1986914000000,0.6451869113828279,0.4012024203936681,-0.0010033093058897102
1986958000000,0.6497475630617872,0.4059527700902995,-0.0010034253461329717
1987000000000,0.6543484005400223,0.4107399535181653,-0.0010025843163096945
1987000000000,0.6591253404922862,0.4156608925297714,-0.0010023986108436064
1987044000000,0.6640999427183958,0.4207073779895063,-0.0010027442833795627
1987060000000,0.6688240493966157,0.4254381226046528,-0.001004410826772325
1987095000000,0.6735409825410524,0.4301134398722259,-0.0010025991708199344
1987140000000,0.6784928867649102,0.4350021156824128,-0.0010031269023193373
1987184000000,0.6833898177943091,0.43983220825245123,-0.0010022515620127029
1987228000000,0.688470270588433,0.4448840774973648,-0.001003519717524031
1987228000000,0.6937047680226773,0.450143792637539,-0.0010030730094303074
1987270000000,0.6986670211063802,0.45516178187236406,-0.0010030703492218233
1987293000000,0.703629764967124,0.460145602348661,-0.0010028066319900109
1987335000000,0.7089108089256828,0.46544156630800687,-0.0010028753794410067
1987379000000,0.7137801282943685,0.4703314849309157,-0.001002338638766559
1987422000000,0.7185693999236833,0.4751354731151513,-0.0010032786656549407
1987469000000,0.72352697009833,0.4801076339767457,-0.0010035367355934778
1987469000000,0.7281614102703386,0.48476416939840616,-0.0010025227969076185
1987510000000,0.7326885116285912,0.48932429483696976,-0.001004425977649031
1987530000000,0.7372910097036471,0.49396525319893736,-0.0010042353259483681
1987571000000,0.7415770008478169,0.49828485399623695,-0.0010039066003311378
1987599000000,0.7456806724096312,0.5024154902793363,-0.0010041174014264707
1987629000000,0.7499102666517858,0.5066728158395322,-0.0010036248329825144
1987671000000,0.7538509342211536,0.5106280103402588,-0.001003404316744342
1987716000000,0.7576502817730387,0.5144104574656172,-0.0010032766922091901
1987764000000,0.7614649188957094,0.5181968917317874,-0.0010038482870758786
1987764000000,0.7650875175283482,0.521797013685188,-0.0010034258413814008
1987810000000,0.7687012605761137,0.5253947147744896,-0.0010032325415726025
1987827000000,0.7724236094782716,0.5291070762421695,-0.0010030347897705752
1987870000000,0.7757319381195311,0.5324104498785577,-0.0010028306571427774
1987915000000,0.7788975649194413,0.5355615087816625,-0.0010027129355360091
1987959000000,0.7821986006480544,0.5388469250418165,-0.001002703957055314
1988002000000,0.7852997864002736,0.5419306982448678,-0.001002797403453777
1988002000000,0.7883917220400259,0.5449945942224824,-0.001002943586687597
1988044000000,0.7915855095812947,0.548148066516365,-0.0010031718486910347
1988060000000,0.7948809425231116,0.5513826336623325,-0.0010030443686334448
1988100000000,0.7986162473888997,0.5549924759986162,-0.001003045798897699
1988144000000,0.8028966077101295,0.5590288970116392,-0.001003723443976836
1988187000000,0.8070665158925389,0.562862732677767,-0.0010044165244217675
1988228000000,0.8111937610061319,0.5665883918739594,-0.001002883557015232
1988228000000,0.815473497237405,0.570381431192769,-0.0010031027126081692
1988265000000,0.8195556920442361,0.5739400650476433,-0.0010024556441849304
1988299000000,0.8234662878128229,0.5772682013525167,-0.0010036540060944094
1988335000000,0.82742187597062,0.5805457656453261,-0.0010038011030345136
1988380000000,0.8311414476874472,0.5835600564514112,-0.001003740759144986
1988423000000,0.8346604495485845,0.5863651014407004,-0.001003541210125948
1988468000000,0.8380049448446167,0.5890069909096959,-0.0010031950711469582
1988468000000,0.8410172081670415,0.5913821194023363,-0.001003508715902851
1988506000000,0.8440116143244891,0.5937459071153899,-0.0010033320935197952
1988526000000,0.8470979380928709,0.5961842589686038,-0.0010030321108215057
1988568000000,0.850375330695371,0.5987767547393757,-0.0010018441081095994
1988608000000,0.8540716123853171,0.6017120705415606,-0.0010025644378260368
1988654000000,0.8579063810409061,0.6047786775366697,-0.001002528490116849
1988698000000,0.861729106766135,0.6078578624227403,-0.0010025779161594896
1988698000000,0.8655537970183047,0.6109604377479949,-0.001002728912394748
1988744000000,0.8694864107072424,0.6141734426955049,-0.0010029921357821228
1988760000000,0.873318383405992,0.6173148771497827,-0.001002741426760552
1988793000000,0.8769365347838604,0.6202543670147176,-0.0010034866431254015
1988833000000,0.8807170725176738,0.6233273767647088,-0.0010029795852092363
1988879000000,0.8847388994121259,0.626590225685407,-0.0010037531482281654
1988919000000,0.8888460993761877,0.6299093745255784,-0.0010035407069433344
1988968000000,0.8930718216656847,0.6333179595583154,-0.0010032863770903719
1988968000000,0.8972312899862672,0.6366608900828724,-0.0010022190071230785
1988993000000,0.9015001562083839,0.6400877537438597,-0.0010021284993180918
1989027000000,0.9060198944729457,0.6437056789442538,-0.0010005052297782334
1989069000000,0.9106066578702947,0.6474070244346941,-0.0010011919296325326
1989107000000,0.9154634428319542,0.6513891329508557,-0.0010016316422653618
1989157000000,0.9206583894738887,0.6557250102091204,-0.001002882401277265
1989201000000,0.9258880855582966,0.6601631556203273,-0.0010024539605952912
1989201000000,0.9312653476120126,0.6648419554689368,-0.0010025332699731618
1989244000000,0.9367431382651923,0.669745673141311,-0.001002516891087244
1989260000000,0.9418600786520457,0.67444804349659,-0.001002074080446065
1989304000000,0.9467820948519613,0.6790492923389195,-0.0010030934337782425
1989344000000,0.9518183113766256,0.6838282693120241,-0.0010032863888430193
1989390000000,0.9567437951979633,0.6885694599849241,-0.00100311020895915
1989428000000,0.9616812161195295,0.6933619694889624,-0.0010025493967599289
1989428000000,0.9667857279914553,0.6983523473154818,-0.0010029544421621232
1989472000000,0.9717488196587964,0.7032588117831952,-0.0010030758426585983
1989493000000,0.9767805943151366,0.7083291327473574,-0.0010040101663312366
1989534000000,0.9819095180115234,0.7136205219621831,-0.0010033852626355443
1989579000000,0.9866458159933833,0.7186068514883347,-0.0010029726459626978
1989622000000,0.9912353169010402,0.7234950934631784,-0.0010029217394832805
1989664000000,0.9959061306363614,0.7285729606981588,-0.0010034850817722332
1989665000000,1.00050428268877,0.7336920276404955,-0.0010018650242138959
1989710000000,1.0052290675839313,0.7390554741572801,-0.001003433723625987
1989727000000,1.0100824648965012,0.7446526589055024,-0.0010033065226013292
1989770000000,1.01473702068028,0.7501143632785041,-0.001003185224855211
1989818000000,1.0193367153652502,0.755617626062611,-0.0010026897090051265
1989863000000,1.0239992568601368,0.761305087306397,-0.0010026382077186966
1989863000000,1.0282427365982887,0.7665810875514566,-0.0010030078611059992
1989906000000,1.0323685553372788,0.7718236960197253,-0.0010031859265383705
1989927000000,1.0366200777989176,0.77732268951539,-0.0010034153288016705
1989969000000,1.0404461481593739,0.7823560148302301,-0.0010025566211524783
1990012000000,1.0437469777402018,0.7867583306405523,-0.0010024740786521887
1990055000000,1.0466355853234066,0.7906380558072834,-0.0010023888042316915
1990071000000,1.0489799569566711,0.7937803214112183,-0.0010022112238477938
1990099000000,1.0509076262448032,0.7963342226368343,-0.001002100261762482
1990144000000,1.0524747975763724,0.7983673471763945,-0.001001979405857098
1990188000000,1.0536089834751476,0.7997928896176829,-0.0010019197982049435
1990231000000,1.054514851136745,0.8008931158977493,-0.0010019181238455702
1990231000000,1.0552559178186744,0.8017694971482447,-0.0010020013744620922
1990275000000,1.055782241514083,0.8023773291488858,-0.0010019709318917491
1990293000000,1.0561104940367918,0.8027517486619757,-0.0010019403089411225
1990334000000,1.0562385733899073,0.8028971591965978,-0.001002846412917334
1990378000000,1.0562475759716348,0.8029061529117204,-0.001003363324721663
1990422000000,1.0562562716640516,0.8029167024388629,-0.0010034205761163886
1990464000000,1.0562650916320717,0.8029274610666879,-0.0010034699758431978
1990464000000,1.056273516031427,0.802937656411738,-0.0010035119431934525
1990509000000,1.056281833055615,0.8029475913209647,-0.0010035403097883033
1990527000000,1.0562902751447494,0.8029576324520907,-0.0010035660960482952
1990568000000,1.0562983477396841,0.8029672088575163,-0.0010035895667095361
1990612000000,1.0563063053552175,0.8029766296671124,-0.0010036114316578498
1990655000000,1.0563143901242926,0.8029861845766726,-0.0010036325653003386
1990698000000,1.0563221321246077,0.8029953215738377,-0.0010036516743001135
1990698000000,1.0563297763309045,0.8030043349005376,-0.0010036692730553028
1990738000000,1.056337556746312,0.8030135048585341,-0.0010036859014369882
1990760000000,1.0563450222993378,0.8030223047727473,-0.00100370056038614
1990792000000,1.0563524098912331,0.8030310198613374,-0.0010037135123897832
1990834000000,1.0563599481532533,0.8030399265585728,-0.0010037252288341882
1990883000000,1.0563672009529594,0.8030485092752306,-0.0010037352983729847
1990927000000,1.056374397193113,0.8030570365643571,-0.0010037443519447763
1990927000000,1.0563817583582982,0.8030657700364653,-0.0010037526253640974
1990970000000,1.0563888566327089,0.803074200803235,-0.001003759768494497
1990993000000,1.0563959140415429,0.803082590790796,-0.0010037661702358078
1991037000000,1.0564031467545296,0.8030911962137185,-0.0010037720355978302
1991084000000,1.0564101328274809,0.8030995141038795,-0.0010037770881703746
1991123000000,1.0564170885017865,0.8031078008356369,-0.0010037815867077575
1991140000000,1.0564242260707448,0.8031163086749851,-0.001003785782927466
1991179000000,1.0564311281385284,0.8031245394490936,-0.0010037894238245498
1991228000000,1.0564380071380544,0.8031327457504961,-0.0010037926844278858
1991228000000,1.0564450724272108,0.8031411769347926,-0.001003795692945373
1991276000000,1.0564519100845748,0.8031493385962497,-0.0010037983124093625
1991293000000,1.0564587296746726,0.803157480378666,-0.0010038006705556136
1991337000000,1.056465738375964,0.8031658493333618,-0.0010038028589060104
1991384000000,1.0564725250965665,0.8031739542551416,-0.0010038047824528114
1991433000000,1.0564792972670163,0.8031820425297819,-0.0010038065303550822
1991433000000,1.056486260355555,0.8031903593408578,-0.0010038081638401065
1991476000000,1.0564930055605344,0.8031984161925966,-0.0010038096059770477
1991493000000,1.056499738563387,0.8032064585603094,-0.00100381092346781
1991537000000,1.0565066634708296,0.803214730073136,-0.0010038121657369725
1991586000000,1.0565133734813181,0.8032227446746499,-0.0010038132727501134
1991629000000,1.056520072911301,0.803230746286591,-0.0010038142938552062
1991629000000,1.0565269647267403,0.8032389771911056,-0.0010038152665057497
1991673000000,1.05653364390295,0.8032469535656477,-0.0010038161424427913
1991693000000,1.0565403136161466,0.8032549179851305,-0.001003816959075858
1991738000000,1.0565471758466296,0.803263111527772,-0.0010038177456078295
1991782000000,1.0565538271929567,0.8032710524621393,-0.0010038184619212895
1991824000000,1.0565604698461002,0.8032789821591942,-0.001003819137197444
1991851000000,1.0565673049076252,0.8032871405922697,-0.001003819794943562
1991884000000,1.0565739304935782,0.8032950480217818,-0.0010038204006894702
1991933000000,1.0565805479165236,0.8033029447136442,-0.0010038209779367688
1991933000000,1.0565873574729838,0.8033110696050274,-0.0010038215462517576
1991981000000,1.0565939587237114,0.8033189448788606,-0.001003822075100632
1991993000000,1.0566005521764785,0.8033268097646236,-0.001003822584055434
1992034000000,1.0566073373735434,0.8033349022111608,-0.001003823089946388
1992077000000,1.0566139152702763,0.8033427462751671,-0.0010038235650024277
1992122000000,1.0566204856203723,0.8033505801974409,-0.0010038240260676588
1992166000000,1.056627247246805,0.8033586409719632,-0.0010038244880633262
1992166000000,1.0566338024650985,0.8033664544945915,-0.0010038249251762173
1992205000000,1.0566403503098025,0.8033742580508433,-0.0010038253523474115
1992227000000,1.0566470889086992,0.8033822877034007,-0.0010038257831567095
1992269000000,1.0566536219137492,0.803390071162405,-0.001003826193197048
1992313000000,1.05666014766441,0.8033978447816116,-0.0010038265960723297
1992357000000,1.0566668636098802,0.8034058437091663,-0.0010038270044104187
1992393000000,1.0566733747222141,0.8034135974512887,-0.0010038273948322456
1992393000000,1.056679878662351,0.8034213414466983,-0.0010038277799927497
1992427000000,1.0566865722123493,0.8034293099410885,-0.0010038281718350063
1992460000000,1.0566930616530896,0.8034370342231297,-0.0010038285477488064
1992500000000,1.0566995439784141,0.8034447488285625,-0.0010038289197063094
1992538000000,1.0567062153111408,0.8034526871095004,-0.0010038292991491372
1992585000000,1.0567126832331837,0.803460382126573,-0.0010038296640581743
1992624000000,1.0567191440791666,0.8034680675213928,-0.0010038300259055631
1992672000000,1.0567257933181333,0.803475975759158,-0.0010038303957569557
1992672000000,1.0567322398276147,0.803483641664116,-0.0010038307520627912
1992713000000,1.0567386792884654,0.8034912979903999,-0.0010038311059202762
1992727000000,1.0567453065197465,0.8034991763214446,-0.0010038314681053914
1992757000000,1.0567517316908184,0.8035068132382396,-0.0010038318174545556
1992800000000,1.056758149832547,0.8035144406125783,-0.0010038321647759356
1992846000000,1.056764755116659,0.8035222891502513,-0.0010038325206147732
1992879000000,1.0567711590016613,0.8035298971831115,-0.0010038328641363697
1992921000000,1.0567775558710657,0.803537495704722,-0.0010038332059187707
1992965000000,1.0567841392511348,0.8035453145466372,-0.0010038335563169222
1992965000000,1.0567905218875864,0.8035528937863757,-0.0010038338947858522
1993006000000,1.056796897518436,0.8035604635426684,-0.0010038342317136711
1993027000000,1.0568034590258153,0.8035682527757643,-0.001003834577293087
1993069000000,1.0568098204417709,0.8035758033007591,-0.0010038349106708429
1993109000000,1.0568161748607077,0.8035833443564774,-0.0010038352407458484
1993153000000,1.0568227145170266,0.8035911040146901,-0.001003835576092061
1993197000000,1.0568290547202266,0.8035986258328974,-0.0010038358975948958
1993197000000,1.056835387918834,0.8036061381987005,-0.0010038362177070062
1993243000000,1.056841905708272,0.8036138683344541,-0.0010038365461611867
1993260000000,1.0568482246237594,0.8036213614522507,-0.0010038368588476294
1993302000000,1.0568545362679707,0.8036288448495451,-0.0010038371509262685
1993346000000,1.0568610316033094,0.8036365449145649,-0.0010038374510659767
1993388000000,1.0568673285526844,0.8036440087150037,-0.0010038377414503738
1993432000000,1.0568736182698943,0.8036514628780175,-0.0010038380305726867
1993432000000,1.0568800910251452,0.8036591328548383,-0.001003838327060965
1993476000000,1.0568863660731047,0.803666567479766,-0.0010038386133222992
1993493000000,1.056892633902552,0.8036739924962383,-0.0010038388981296158
1993536000000,1.0568990841203485,0.8036816324740741,-0.0010038391900934161
1993581000000,1.0569053373056216,0.8036890380127837,-0.0010038394720817759
1993625000000,1.0569115832826952,0.8036964339720791,-0.0010038397523579635
1993670000000,1.05691801093076,0.8037040439914647,-0.0010038400223300985
1993670000000,1.056924242138297,0.8037114204079332,-0.0010038402823803055
1993714000000,1.056930466069333,0.8037187871988576,-0.0010038405410559802
1993727000000,1.056936870998189,0.8037263671688712,-0.0010038408061387415
1993769000000,1.0569430801683553,0.8037337144476465,-0.0010038410620699899
1993812000000,1.0569492820739723,0.8037410521309782,-0.0010038413167004386
1993856000000,1.056955664321781,0.8037486021426093,-0.0010038415777185485
1993899000000,1.0569618514889345,0.8037559203740352,-0.0010038418297978469
1993899000000,1.0569680314018812,0.8037632290390748,-0.0010038420806582592
1993948000000,1.0569743910010014,0.8037707491830918,-0.0010038423378679467
1993961000000,1.0569805561953904,0.8037780384541857,-0.001003842586316129
1994002000000,1.056986714144933,0.8037853181870152,-0.0010038428336023655
1994044000000,1.056993051124625,0.803792808551255,-0.001003843087182387
1994087000000,1.056999194373907,0.8038000689465478,-0.001003843332153153
1994132000000,1.0570053303870732,0.803807319831079,-0.0010038435760018373
1994132000000,1.0570116447746254,0.8038147805014341,-0.0010038438260772074
1994175000000,1.0570177661048223,0.8038220121038194,-0.0010038440676784915
1994192000000,1.0570238802088767,0.8038292342238708,-0.001003844308647854
1994233000000,1.0570301720387243,0.8038366652923463,-0.0010038445563821663
1994275000000,1.0570362714889445,0.8038438681964476,-0.001003844795721378
1994324000000,1.0570423637252795,0.8038510616492419,-0.0010038450339940087
1994368000000,1.057048633032429,0.8038584632094236,-0.001003845278377543
1994368000000,1.0570547106302353,0.8038656375000361,-0.0010038455145001783
1994412000000,1.0570607810218868,0.8038728023657584,-0.0010038457495689622
1994427000000,1.0570670278304855,0.8038801745001983,-0.0010038459906619446
1994462000000,1.05707308359933,0.8038873202573127,-0.0010038462235998635
1994504000000,1.0570791321697852,0.8038944566159116,-0.0010038464554920842
1994548000000,1.0570853565040816,0.8039017994069579,-0.0010038466933202199
1994593000000,1.0570913904675585,0.80390891671049,-0.0010038469230965429
1994631000000,1.057097417240479,0.8039160246418777,-0.0010038471518338254
1994632000000,1.057103619124932,0.8039233381718691,-0.0010038473864179102
1994675000000,1.0571096313068657,0.803930427101746,-0.001003847613051563
1994693000000,1.0571156363061665,0.803937506685867,-0.001003847838651803
1994739000000,1.057121815765516,0.8039447910371925,-0.0010038480700092604
1994782000000,1.0571278061900222,0.8039518516734071,-0.0010038482935163413
1994830000000,1.0571337894399244,0.8039589029902832,-0.001003848515994877
1994830000000,1.0571399464992395,0.8039661582454243,-0.001003848744140879
1994876000000,1.0571459151907636,0.803973190668068,-0.0010038489645355399
1994893000000,1.0571518767158288,0.8039802137978298,-0.0010038491839059922
1994935000000,1.0571580114005392,0.8039874400393864,-0.001003849408854205
1994980000000,1.0571639583838845,0.8039944443286725,-0.0010038496261494077
1995025000000,1.0571698982090372,0.8040014393515755,-0.0010038498424244022
1995071000000,1.0571760105449504,0.8040086366622815,-0.0010038500641874615
1995071000000,1.057181935845293,0.8040156128985565,-0.0010038502783951062
1995118000000,1.0571878539958353,0.8040225798949941,-0.0010038504915863417
1995127000000,1.057193944009154,0.8040297483577302,-0.0010038507101761858
1995171000000,1.0571998476520552,0.8040366966214854,-0.0010038509213077008
1995215000000,1.057205744153676,0.8040436356719972,-0.001003851131426585
1995259000000,1.0572118118710017,0.8040507753697923,-0.0010038513468547706
1995304000000,1.0572176938824103,0.8040576957416636,-0.0010038515549212687
1995304000000,1.0572235687611882,0.8040646069269346,-0.0010038517619787128
1995347000000,1.0572296142095254,0.8040717179429706,-0.001003851974256488
1995360000000,1.0572354746157855,0.8040786105037436,-0.0010038521792687383
1995402000000,1.0572413278981934,0.8040854939046076,-0.0010038523832755636
1995447000000,1.0572473511049523,0.8040925763222191,-0.0010038525924139195
1995495000000,1.057253189932798,0.804099441152826,-0.0010038527943827397
1995495000000,1.0572590216457018,0.8041062968502636,-0.0010038529953495315
1995539000000,1.0572650226386984,0.8041133507529359,-0.0010038532013594038
1995560000000,1.0572708399152588,0.8041201879344556,-0.0010038534002953757
1995605000000,1.0572766500859154,0.8041270160095939,-0.001003853598232747
1995648000000,1.0572826288933677,0.8041340414809616,-0.0010038538011251166
1995683000000,1.057288424646162,0.8041408510946166,-0.0010038539970387249
1995717000000,1.0572942133022185,0.8041476516287245,-0.0010038541919572888
1995754000000,1.0573001699527464,0.8041546487525671,-0.001003854391742956
1995797000000,1.0573059442096826,0.8041614308797201,-0.001003854584644786
1995797000000,1.057311711379175,0.8041682039542054,-0.0010038547765550687
1995843000000,1.057317645901796,0.8041751728144456,-0.001003854973244938
1995859000000,1.057323398691167,0.804181927536596,-0.0010038551631455436
1995904000000,1.0573291444025148,0.8041886732330038,-0.0010038553520581549
1995953000000,1.0573350568266415,0.8041956139137026,-0.001003855545663082
1996001000000,1.0573407881771222,0.8042023413124831,-0.0010038557325731078
1996002000000,1.0573465124591268,0.8042090597124878,-0.0010038559184985599
1996041000000,1.0573524028145642,0.8042159722978411,-0.0010038561090295398
1996060000000,1.0573581127552094,0.8042226724550141,-0.0010038562929595325
1996102000000,1.0573638156370495,0.8042293636404209,-0.0010038564759084836
1996141000000,1.0573696839539894,0.8042362482147546,-0.0010038566633764068
1996184000000,1.05737537251423,0.8042429212122075,-0.0010038568443370179
1996224000000,1.057381054025458,0.8042495852649442,-0.0010038570243200845
1996267000000,1.0573869003344774,0.8042564419127111,-0.001003857208736008
1996268000000,1.0573925675441131,0.8042630878324522,-0.001003857386737965
1996307000000,1.057398227714652,0.8042697248345649,-0.0010038575637658677
1996327000000,1.0574040520429824,0.8042765536360847,-0.0010038577450436764
1996372000000,1.057409697732412,0.8042831723359914,-0.001003857902628913
1996418000000,1.0574153362041576,0.8042897819674588,-0.0010038580570481195
1996467000000,1.0574211379965524,0.804296582412426,-0.0010038582141329022
1996468000000,1.0574267618367417,0.8043031736488666,-0.0010038583633834065
1996503000000,1.0574323784787587,0.8043097558461917,-0.001003858511171997
1996527000000,1.0574381577987115,0.8043165280418576,-0.0010038586595750784
1996572000000,1.0574437598400521,0.8043230918776753,-0.0010038587991187987
1996616000000,1.0574493546946795,0.8043296466982328,-0.001003858937310486
1996660000000,1.0574551115792878,0.804336390733572,-0.0010038590784925416
1996700000000,1.0574606918591531,0.8043429272871373,-0.001003859214405843
1996701000000,1.0574662649684974,0.8043494548601313,-0.0010038593492452431
1996745000000,1.0574719994656783,0.8043561708568179,-0.00100385948706928
1996760000000,1.0574775580325433,0.8043626802294813,-0.0010038596197891256
1996805000000,1.0574831094442982,0.8043691806538373,-0.0010038597514903762
1996849000000,1.057488821602205,0.8043758687126564,-0.001003859886132271
1996893000000,1.057494358473759,0.8043823509809762,-0.0010038600052629104
1996893000000,1.0574998881441955,0.8043888242828999,-0.0010038601189575648
1996936000000,1.0575055778566518,0.8043954843748106,-0.0010038602349929406
1996960000000,1.0575110929283709,0.8044019394980018,-0.0010038603465352507
1997005000000,1.0575166008184353,0.8044083856842985,-0.0010038604570271718
1997050000000,1.057522268108673,0.8044150178739565,-0.0010038605697882917
1997095000000,1.0575277614345848,0.8044214459493311,-0.0010038606782038495
1997095000000,1.0575332475951649,0.8044278651207976,-0.001003860785621452
1997137000000,1.0575388925142104,0.8044344695112096,-0.0010038608952653294
1997160000000,1.0575443641428945,0.8044408706379756,-0.0010038610006998898
1997203000000,1.0575498286194809,0.8044472628961086,-0.0010038611057320464
1997247000000,1.0575554512115237,0.8044538395914825,-0.0010038612131588326
1997295000000,1.0575609011838134,0.8044602138695306,-0.0010038613164849754
1997295000000,1.0575663440199425,0.8044665793070414,-0.001003861418875547
1997338000000,1.0575719443318916,0.8044731284011475,-0.0010038615233962482
1997360000000,1.0575773726945565,0.8044794759216564,-0.0010038616239056893
1997404000000,1.0575827939352112,0.8044858146339541,-0.0010038617236208594
1997452000000,1.0575883720115344,0.8044923362261834,-0.0010038618255396002
1997500000000,1.0575937788377074,0.8044986570024668,-0.0010038619165886747
1997500000000,1.05759917896791,0.8045049680437227,-0.001003861845157713
1997543000000,1.0576047358074205,0.8045114607419018,-0.0010038617000092225
1997560000000,1.0576101224307037,0.8045177536075365,-0.0010038615414826313
1997589000000,1.0576155023093936,0.8045240378460072,-0.001003861385534533
1997629000000,1.0576210381583564,0.8045305034729906,-0.0010038612253911693
1997669000000,1.057626404341923,0.8045367701564518,-0.001003861068999027
1997707000000,1.0576317637778037,0.8045430282049256,-0.00100386091286047
1997751000000,1.0576372785624164,0.8045494668660185,-0.0010038607522424962
1997793000000,1.0576426242998471,0.8045557073975369,-0.001003860595921835
1997793000000,1.057647963291828,0.8045619393135143,-0.0010038604395152702
1997836000000,1.057653457016892,0.804568351072386,-0.0010038602783474793
1997860000000,1.0576587823161072,0.8045745655193931,-0.0010038601218464518
1997901000000,1.0576641008735752,0.8045807713736545,-0.0010038599652142863
1997943000000,1.0576695735503971,0.8045871563051499,-0.001003859803642728
1997987000000,1.0576748784268841,0.8045933447380015,-0.0010038596465885667
1998023000000,1.0576801765689072,0.8045995246026891,-0.0010038594892623869
1998048000000,1.0576856282201068,0.804605882783464,-0.0010038593268468718
1998090000000,1.0576909126983232,0.8046120452786228,-0.0010038591688643003
1998133000000,1.0576961904515283,0.8046181992319867,-0.0010038590105156259
1998133000000,1.0577016211065366,0.8046245307443025,-0.0010038588469608693
1998179000000,1.05770688521676,0.8046306673830039,-0.0010038586878000182
1998193000000,1.0577121426129095,0.8046367955074821,-0.001003858528210902
1998234000000,1.0577175523058238,0.8046431004373749,-0.0010038583633214526
1998283000000,1.0577227960823241,0.8046492113040594,-0.001003858202817301
1998327000000,1.0577280331567152,0.8046553136848962,-0.001003858041844028
1998327000000,1.0577334219248506,0.8046615921209297,-0.0010038578754914262
1998374000000,1.057738645404663,0.8046676773021778,-0.0010038577135359737
1998394000000,1.057743862195042,0.8046737540264914,-0.0010038575510849211
1998438000000,1.0577492300779552,0.8046800060589111,-0.001003857383185737
1998482000000,1.0577544333000461,0.8046860656427298,-0.001003857219709258
1998526000000,1.0577596298458867,0.8046921167988813,-0.0010038570557200435
1998570000000,1.0577649768847166,0.8046983425190516,-0.0010038568862211356
1998570000000,1.0577701598894247,0.8047043765943903,-0.0010038567211794504
1998613000000,1.057775336231426,0.8047104022715622,-0.0010038565556146836
1998627000000,1.057780662468447,0.8047166017715779,-0.0010038563844831823
1998669000000,1.0577858252971026,0.8047226104280003,-0.001003856217849413
1998718000000,1.0577909814768613,0.8047286107159072,-0.0010038560506864802
1998755000000,1.057796286955183,0.804734784088337,-0.0010038558779032099
1998775000000,1.0578014296498497,0.8047407674158014,-0.001003855709662202
1998819000000,1.0578065657096298,0.8047467424044958,-0.0010038555408888351
1998868000000,1.05781185047299,0.8047528897422046,-0.0010038553664437205
1998868000000,1.0578169730762914,0.8047588478309129,-0.0010038551965879938
1998916000000,1.0578220890588734,0.804764797610653,-0.0010038550261986731
1998927000000,1.0578273531515008,0.8047709190066835,-0.0010038548500878076
1998970000000,1.0578324557065024,0.8047768519469808,-0.001003854678615062
1998992000000,1.057837551655079,0.8047827766081422,-0.0010038545066087881
1999027000000,1.0578427951215972,0.8047888721556331,-0.0010038543288325465
1999075000000,1.0578478776717233,0.804794780037935,-0.0010038541557440411
1999123000000,1.0578529536298233,0.804800679670946,-0.0010038539821229965
1999167000000,1.057858176515187,0.8048067494630747,-0.0010038538026842757
1999167000000,1.0578632391041667,0.8048126323778235,-0.001003853627983612
1999212000000,1.057868295115611,0.8048185070731267,-0.00100385345275196
1999227000000,1.0578734974650588,0.8048245512030722,-0.001003853271655631
1999270000000,1.0578785401368862,0.8048304092407005,-0.0010038530953480097
1999314000000,1.0578835762464502,0.8048362590870459,-0.0010038529184670589
1999357000000,1.0578887582006495,0.8048422774600903,-0.0010038527072551429
1999404000000,1.0578937811869098,0.8048481104760355,-0.001003852487301303
1999404000000,1.0578987976900418,0.8048539353432985,-0.0010038522657364012
1999452000000,1.0579039594289321,0.8048599282149467,-0.0010038520370474584
1999460000000,1.0579089627759448,0.8048657365759994,-0.001003851814379033
1999500000000,1.0579139596508762,0.8048715368132678,-0.0010038515898620655
1999538000000,1.0579191011784026,0.804877504334936,-0.0010038513580663752
1999564000000,1.0579240849194371,0.8048832881203555,-0.0010038511327428896
1999593000000,1.0579290621979884,0.8048890637876887,-0.0010038509032939472
1999633000000,1.0579341835475469,0.8048950060090346,-0.0010038506646132296
1999675000000,1.0579391477139852,0.8049007652586242,-0.0010038504324178972
1999697000000,1.0579441054274035,0.8049065164404725,-0.0010038501998419665
1999738000000,1.057949206629981,0.804912433472535,-0.0010038499598263584
1999783000000,1.0579541512537642,0.8049181683078979,-0.0010038497269061544
1999826000000,1.057959089423026,0.8049238951270411,-0.0010038494978117998
1999870000000,1.057964170493158,0.8049297870886705,-0.0010038492619804038
1999870000000,1.0579690955808514,0.8049354976191717,-0.0010038490331561734
1999917000000,1.0579740142275484,0.8049412001416835,-0.0010038488047832486
1999922000000,1.0579790751954274,0.8049470670961387,-0.001003848569136788
1999972000000,1.0579839807858942,0.8049527533770603,-0.0010038483399625354
2000014000000,1.057988879953481,0.8049584316729872,-0.0010038481103249834
2000057000000,1.0579939208682625,0.8049642736973118,-0.0010038478732446246
2000100000000,1.0579988070110276,0.8049699358116766,-0.0010038476426688717
2000101000000,1.0580036867462463,0.8049755899709827,-0.001003847411633646
2000139000000,1.058008707655836,0.8049814071585659,-0.0010038471731181192
2000160000000,1.058013574397362,0.8049870451970322,-0.0010038469411542787
2000201000000,1.0580184347466794,0.8049926753103143,-0.0010038467087353196
2000241000000,1.0580234356989615,0.8049984677544312,-0.0010038464687986692
2000290000000,1.058028283085742,0.8050040818074645,-0.0010038462354595816
2000333000000,1.0580331240427718,0.8050096879033479,-0.0010038459976317443
2000334000000,1.058134736711252,0.8051205656600852,-0.0010021672152551453
2000379000000,1.0584132247692077,0.8054162602102718,-0.001002209176374641
2000393000000,1.0587747441047344,0.8058106181784954,-0.0010022941699050283
2000430000000,1.0589857443092017,0.8060482538303573,-0.0010023789242199661
2000478000000,1.0590006623615,0.8060554885186652,-0.0010024494587578536
2000522000000,1.0588567387103966,0.8058520059355027,-0.0010039314680811637
2000564000000,1.0586993253343522,0.8056151193878082,-0.0010038822433510418
2000564000000,1.0585541609770566,0.8053800281426747,-0.0010038199392018061
2000607000000,1.0584168101373383,0.8051400699251793,-0.0010037094024065892
2000627000000,1.058283372844411,0.8048877798451389,-0.0010036441331036962
2000667000000,1.0581618299705877,0.8046381103095882,-0.0010036177100424745
2000712000000,1.058048351500881,0.8043838650251446,-0.0010035672455262663
2000756000000,1.0579399370036324,0.8041171018026319,-0.0010035221064054259
2000800000000,1.0578429385142305,0.803853462095472,-0.0010034983532289862
2000800000000,1.0577540479621692,0.8035849583865899,-0.001003485826894239
2000845000000,1.057671073826413,0.8033031760820352,-0.001003485014890955
2000859000000,1.0575990829077064,0.8030247564125532,-0.0010034618425125326
2000903000000,1.0575346039789917,0.8027434306804986,-0.0010034646624486367
2000947000000,1.0574776169063678,0.8024502784946511,-0.0010034658950836065
2000991000000,1.0574314653494177,0.8021629934828256,-0.0010035765465480767
2001035000000,1.057394849553217,0.801868121841502,-0.0010030379843790627
2001035000000,1.057364724148154,0.8015395568508068,-0.0010034014680307297
2001079000000,1.0573471494832192,0.8012342338818985,-0.0010035368411740256
2001093000000,1.0573396078858177,0.8009233243270605,-0.0010036704314035291
2001135000000,1.0573426432106443,0.8005997553287338,-0.0010038327195525526
2001178000000,1.057356466532416,0.8002831406006203,-0.0010039012872224279
2001219000000,1.0573808430296958,0.7999670522335095,-0.0010039571164765886
2001237000000,1.057416920413031,0.799642026675435,-0.0010040512558744837
2001268000000,1.0574625459774474,0.7993280048137726,-0.001004175350821604
2001311000000,1.0575185214993215,0.7990163279679959,-0.0010042627836765704
2001347000000,1.057586575703505,0.798699128884196,-0.001004333029192065
2001388000000,1.057662378081893,0.7983959741773948,-0.0010043838244803115
2001433000000,1.0577474887677025,0.7980982625465416,-0.0010042865399415082
2001433000000,1.0578429650359589,0.7977957216923736,-0.0010040624346456806
2001477000000,1.0579442118500637,0.7975085709958722,-0.001003808447760629
2001494000000,1.058052206530959,0.7972318352232312,-0.0010036401855094655
2001544000000,1.0581653877321608,0.7969752520007517,-0.0010039709296071689
2001579000000,1.0582794176873629,0.7967390883990013,-0.0010046232985752163
2001613000000,1.0584118860384306,0.7964833237511221,-0.0010044243523542329
2001654000000,1.0585544591844183,0.7962299051587691,-0.0010044357386279103
2001696000000,1.0587004795130617,0.7959898269114906,-0.0010043156317589112
2001696000000,1.0588532248496176,0.7957563256159497,-0.0010042172692449405
2001742000000,1.0590176489789112,0.795522258916318,-0.0010041206460353613
2001760000000,1.059184264878057,0.7953009994425544,-0.0010040304565320825
2001802000000,1.059357882839577,0.7950854731541843,-0.001003964210404388
2001848000000,1.0595440766427737,0.7948694638978623,-0.0010039208462054097
2001891000000,1.0597317892401577,0.7946659925303537,-0.0010038024451424384
2001936000000,1.0599263053026375,0.7944686216056459,-0.0010037090288425067
2001936000000,1.0601337759264422,0.7942717235870562,-0.0010036502248425283
2001979000000,1.0603419247300898,0.794087021565237,-0.0010036207475266935
2001993000000,1.060556720820697,0.7939088283502762,-0.0010035698524022557
2002033000000,1.0607850077432717,0.7937320792885016,-0.001003530080249511
2002076000000,1.0610134872205845,0.7935670678220162,-0.0010035040045831209
2002124000000,1.0612489607130728,0.7934084855898387,-0.0010034881024297941
2002169000000,1.0614989871209222,0.7932519189982069,-0.0010034800708004603
2002169000000,1.0617489678403143,0.7931068235249165,-0.001003452328847694
2002213000000,1.0620042117172086,0.792968003359586,-0.001003403207660146
2002229000000,1.0622739337426128,0.7928326121505891,-0.0010033375202325619
2002261000000,1.062544896435573,0.7927073937649554,-0.0010031920601021385
2002307000000,1.0628407405142095,0.7925828671682378,-0.0010030645286352204
2002353000000,1.0631696758426514,0.7924564248764331,-0.0010035023816082518
2002395000000,1.0634633467528463,0.7923554433312805,-0.0010036779484983958
2002395000000,1.063760800062183,0.7922639755952428,-0.0010037188476940129
2002443000000,1.064070703963771,0.7921800309678688,-0.0010037179305619204
2002460000000,1.064375382944415,0.7921086882282274,-0.0010037693359420535
2002504000000,1.0646831093128102,0.7920473832830529,-0.0010038362870755484
2002549000000,1.0650024648795342,0.7919948585808712,-0.0010039321703862805
2002592000000,1.0653138802910636,0.7919543637364191,-0.001004049667932539
2002592000000,1.0656253493454626,0.791924331410279,-0.001004126260610718
2002641000000,1.065945011677929,0.79190432218264,-0.0010041566085782945
2002660000000,1.066252905347614,0.791895515636173,-0.001004094454262125
2002705000000,1.0665590139102328,0.791897181056697,-0.001004076809284802
2002748000000,1.066883867436057,0.7919075359437346,-0.0010041705445348915
2002791000000,1.0671869146865165,0.7919275918615166,-0.0010039628615915695
2002837000000,1.0674914826492268,0.7919577265990004,-0.001003839097844024
2002837000000,1.0677948654462535,0.7920005195148057,-0.0010036860780015533
2002881000000,1.0680656413049578,0.7920483034948081,-0.001004507205173602
2002893000000,1.06834921423962,0.7921070513856003,-0.001004289452392386
2002928000000,1.0686325653945803,0.792176182584602,-0.0010043547335757894
2002972000000,1.0689038329813494,0.7922522043571198,-0.0010042599367817637
2003017000000,1.069170527868596,0.7923364962045089,-0.0010041749903081688
2003060000000,1.0694408484175792,0.7924318939527117,-0.0010040891693906331
2003060000000,1.069699345181814,0.7925328544835893,-0.0010040060325164565
2003104000000,1.0699542041466865,0.7926421227331646,-0.0010039438152364688
2003126000000,1.0702129264965528,0.7927633982553727,-0.0010039024527107275
2003171000000,1.07045994095725,0.7928895286464963,-0.0010037772716710719
2003215000000,1.0707029469331144,0.7930238762798224,-0.0010036884980708406
2003258000000,1.070949015564646,0.7931708612936844,-0.0010036339995098953
2003303000000,1.0711835304835136,0.7933218146508899,-0.0010036116264453797
2003303000000,1.0714136461347035,0.7934809747924125,-0.0010035628337818174
2003347000000,1.0716460903970932,0.7936535997896115,-0.0010035236777596046
2003360000000,1.071867411348201,0.7938296764430879,-0.001003495083324639
2003402000000,1.072084530354508,0.7940143256596265,-0.001003475080214089
2003447000000,1.0723037853383557,0.7942136735629352,-0.0010034599060976639
2003495000000,1.0725120893737183,0.7944162435647026,-0.0010034176130787852
2003495000000,1.0727160892964518,0.7946260147246398,-0.0010033301776708435
2003536000000,1.0729218266889262,0.7948518489029821,-0.001003190707802415
2003560000000,1.0731224856995523,0.7950866164308142,-0.0010027603377850622
2003601000000,1.0733403360436276,0.7953591689916046,-0.0010031389265062682
2003645000000,1.073573202320672,0.7956691126348276,-0.0010030425767918218
2003688000000,1.0737783550694269,0.7959626833158653,-0.0010031454286824372
2003732000000,1.0739495703236024,0.7962279082385905,-0.0010035823265855497
2003732000000,1.0741152630720447,0.7965044827951209,-0.0010035944021836996
2003772000000,1.0742669364170614,0.7967786858686443,-0.0010036447397614653
2003793000000,1.0744096562626488,0.7970583731541527,-0.0010037054241249371
2003831000000,1.0745470490615743,0.797351590881854,-0.001003804577611761
2003874000000,1.0746706687764027,0.7976403725067717,-0.0010039290328924498
2003919000000,1.0747842079303782,0.7979320070929178,-0.0010040166087531104
2003963000000,1.0748903129126557,0.7982342071577516,-0.001004071085676305
2003963000000,1.0749824740370721,0.7985281480760056,-0.0010040347983422161
2004006000000,1.0750637888029346,0.7988214637321693,-0.001003971294363911
2004027000000,1.0751376980107235,0.7991212850685652,-0.001003868577897457
2004066000000,1.0751978155029718,0.7994055610387165,-0.0010033497371755226
2004111000000,1.0752424679942767,0.7996580800654342,-0.0010027584094591709
2004160000000,1.0752664797725076,0.7998454387433892,-0.0010038612700194877
2004208000000,1.0752792013367645,0.7999937229687061,-0.0010030279692470091
2004208000000,1.0752884478301223,0.800153046680869,-0.0010030763585450637
2004251000000,1.0752955400178226,0.8003681255792714,-0.0010036472650314827
2004260000000,1.0752968035165211,0.8006366442498345,-0.0010043550600261075
2004304000000,1.0752899839667702,0.8009178262419817,-0.0010040804001128015
2004351000000,1.075273225422916,0.8012040774233247,-0.0010039977623034595
2004396000000,1.075247844514442,0.8014805364828942,-0.001003918461061383
2004396000000,1.0752134721109203,0.8017558946020477,-0.0010038575989777532
2004439000000,1.0751686236359064,0.802038409399177,-0.0010038213576701455
2004460000000,1.075115872833038,0.8023112166440628,-0.001003734574684275
2004499000000,1.0750540559968003,0.8025824236362431,-0.0010036455369657124
2004544000000,1.0749809156645336,0.8028601596282808,-0.0010035921422822773
2004582000000,1.0749007267434525,0.8031279653363576,-0.0010035705246501
2004620000000,1.074811423082974,0.8033939574598373,-0.0010035477165000958
2004659000000,1.0747097463142892,0.8036660388759579,-0.0010035093415393138
2004686000000,1.0746015928103805,0.8039285048647977,-0.0010034761949031488
2004720000000,1.0744839697308022,0.8041894284665113,-0.0010034510027393181
2004763000000,1.074352722687755,0.8044566562428479,-0.0010034287375639585
2004763000000,1.0742152540696888,0.8047143943440009,-0.0010033604922368537
2004800000000,1.0740694572721374,0.8049703293463043,-0.0010032512324254887
2004827000000,1.0739076126845701,0.8052340497032636,-0.0010028723799513153
2004874000000,1.073730832351913,0.8055026216709213,-0.0010027703685434562
2004917000000,1.0735139434808552,0.8058104155665371,-0.001003202896632839
2004961000000,1.0732612967767592,0.806147819569282,-0.00100271659265486
2004961000000,1.0730116804521697,0.806458933396174,-0.0010025836713439575
2005005000000,1.0727798746206703,0.8067278506931892,-0.0010032512663036251
2005027000000,1.072560605007564,0.8069639909195496,-0.001003605394319429
2005064000000,1.072339264783358,0.8071865475916112,-0.0010036438682151164
2005111000000,1.0721101015224048,0.8074021918018697,-0.0010037031999880798
2005155000000,1.0718664711922494,0.8076164440763353,-0.0010038057523321618
2005197000000,1.0716232837628095,0.8078161755880613,-0.0010039357066549091
2005198000000,1.071374525435812,0.8080070070688493,-0.0010040317938623707
2005241000000,1.0711135257545017,0.808193635796338,-0.0010040959426532957
2005260000000,1.070856556844186,0.8083645509035469,-0.001004076555523762
2005302000000,1.0705973220201803,0.8085253202079852,-0.001004107181047615
2005343000000,1.0703287479539272,0.8086808988117099,-0.0010038787265554613
2005372000000,1.070071019611856,0.8088190424152615,-0.0010034159608841853
2005415000000,1.0698373212935475,0.8089343321011973,-0.0010029631981381543
2005458000000,1.0696529273205002,0.8090147832128218,-0.0010039290617862538
2005501000000,1.0694965061169128,0.8090760173423538,-0.0010032204588866882
2005501000000,1.0693235237705818,0.8091383331326887,-0.0010032873779492121
2005543000000,1.0690970321282396,0.8092126944303042,-0.0010040756122069623
2005562000000,1.0688317915410808,0.8092914800656191,-0.0010042889969401059
2005604000000,1.0685648147383426,0.8093613202134913,-0.0010041850380936683
2005651000000,1.068288296979231,0.8094240372572892,-0.0010040597939540222
2005686000000,1.0680183885137,0.8094759578995043,-0.001003961118986433
2005712000000,1.0677469813648528,0.809519034850385,-0.0010038926051077618
2005760000000,1.067465839535196,0.8095541222883885,-0.001003852378356162
2005760000000,1.0671916479005978,0.809579077115621,-0.0010038237529613574
2005804000000,1.066916566178559,0.8095948820224798,-0.0010037069141375296
2005827000000,1.066632181028115,0.8096017049837569,-0.001003652657332689
2005866000000,1.0663522034509265,0.8095991584117286,-0.0010035097337970193
2005914000000,1.0660713862054494,0.8095873895716869,-0.0010035171287696085
2005959000000,1.0657811127862002,0.8095654316281858,-0.0010034777420682914
2005986000000,1.065498180657284,0.8095345623683795,-0.0010034458551405577
2006017000000,1.0652139841135138,0.8094941430376627,-0.0010034201940852146
2006061000000,1.0649197735803342,0.8094423470258206,-0.0010033941713323592
2006061000000,1.0646328361396382,0.8093817934790793,-0.001003303534365424
2006104000000,1.0643447353242286,0.8093125693289608,-0.001003122678810104
2006127000000,1.0640428781894935,0.8092297265225606,-0.0010027325831969934
2006168000000,1.0637214600305185,0.809130534831018,-0.0010027694289361233
2006210000000,1.0633420687429724,0.8090004847926245,-0.0010030288749889697
2006242000000,1.0629226411437824,0.8088431541315586,-0.0010023555000876413
2006279000000,1.06252780311728,0.8086801351004809,-0.0010023384635600777
2006321000000,1.06217871842541,0.8085217959913297,-0.0010027056763126131
2006362000000,1.0618806345059404,0.8083725286388282,-0.0010036193018053904
2006362000000,1.0616037600364092,0.8082218853875883,-0.001003661516812207
2006402000000,1.061331936301942,0.8080619195930495,-0.0010037298426823736
2006427000000,1.0610573909192489,0.8078876659653055,-0.0010038360047061844
2006460000000,1.0607969667107384,0.807709773656899,-0.001003971643232706
2006493000000,1.0605434933998001,0.8075239802631287,-0.0010040805016918626
2006529000000,1.0602906035444422,0.8073251980006244,-0.0010041576505667484
2006571000000,1.0600539225743468,0.8071258306795792,-0.0010041580423675034
2006608000000,1.059831082964239,0.8069263445784332,-0.0010039743990542561
2006654000000,1.0595821003624137,0.8066939954299109,-0.0010041901360941206
2006690000000,1.0594141461090933,0.8065231611968907,-0.001003830413816336
2006730000000,1.0592028073162743,0.8063036629388066,-0.0010037065743793427
2006730000000,1.0588447404796235,0.8059110970843074,-0.0010036521740331254
2006768000000,1.0582845639258245,0.8052862806889937,-0.0010037773829025577
2006793000000,1.057707336853417,0.8046336886273743,-0.0010037958813848176
2006832000000,1.0571573097108444,0.8039993815668954,-0.001003904027231585
2006871000000,1.0566654485346147,0.8034218534146791,-0.0010039507677156202
2006918000000,1.0562137781616707,0.8028827574413331,-0.0010039745599230397
2006968000000,1.0557874672020555,0.8023684802354194,-0.0010041344664089569
2006968000000,1.0554107711811171,0.8019091748879581,-0.001004332105910187
2007010000000,1.055074288342607,0.8014901765861813,-0.0010044057067204668
2007027000000,1.0547666150652495,0.8011031701421307,-0.0010044294561907044
2007068000000,1.0545054089853703,0.8007714991073788,-0.0010044182895022416
2007111000000,1.0542806225011945,0.800483763875393,-0.0010044873193110412
2007157000000,1.0540867479729283,0.8002339638506312,-0.001004468928756306
2007206000000,1.0539346915436647,0.8000372357067917,-0.0010045227657354862
2007206000000,1.0538178673429885,0.7998859577143181,-0.0010045605825540448
2007249000000,1.0537347468150926,0.7997778337910612,-0.0010045637963452536
2007260000000,1.0536910395410855,0.7997190293794367,-0.0010043138222435924
2007305000000,1.0536807310488074,0.7997031405668111,-0.0010037629939505174
2007348000000,1.0536803885676809,0.7997020998841603,-0.0010034307855656469
2007392000000,1.0536792634583134,0.7997012776348935,-0.0010033122265758858
2007433000000,1.053677923537656,0.7997005139804575,-0.001003164303967869
2007433000000,1.0536766038652703,0.7996997375158238,-0.0010030290518991541
2007478000000,1.0536753365130545,0.7996989998743452,-0.0010029208227645657
2007493000000,1.053674078197606,0.7996982765583317,-0.0010028320104736692
2007534000000,1.0536727907166619,0.799697544189118,-0.0010027580437533858
2007578000000,1.0536715246767894,0.7996968494953125,-0.001002724789140392
2007621000000,1.0536702989816744,0.7996961595581398,-0.0010027053873629885
2007660000000,1.0536690120663297,0.7996954630091185,-0.0010026829902929253
2007661000000,1.05366776652484,0.7996947916227857,-0.0010026711083296717
2007703000000,1.0536665230258266,0.7996941218383702,-0.0010026665952861252
2007723000000,1.0536652421512767,0.7996934316596865,-0.0010026662666825711
2007761000000,1.0536639988396161,0.7996927614998828,-0.001002666349853503
2007804000000,1.0536627553092732,0.799692091097264,-0.0010026664341005603
2007850000000,1.0536614738841117,0.7996914001267502,-0.001002666522293829
2007896000000,1.053660229953216,0.7996907292279721,-0.0010026666082038269
2007896000000,1.053658985829223,0.7996900580791204,-0.0010026666945824672
